$GPGSV,3,2,11,19,14,036,36,06,14,066,34,08,35,246,,07,33,133,*79
$GPGSV,3,3,11,09,32,215,,21,24,146,,29,06,193,*47
$GPRMC,072807.000,A,4825.1040,N,00428.4612,W,0.00,244.11,190521,,,A*7B
$GPGGA,072808.000,4825.1040,N,00428.4612,W,1,06,1.7,97.0,M,52.0,M,,0000*73
$GPGSA,A,3,12,32,24,02,19,06,,,,,,,2.9,1.7,2.3*36
$GPRMC,072808.000,A,4825.1040,N,00428.4612,W,0.00,244.11,190521,,,A*74
$GPGGA,072809.000,4825.1040,N,00428.4612,W,1,06,1.7,97.0,M,52.0,M,,0000*72
$GPGSA,A,3,12,32,24,02,19,06,,,,,,,2.9,1.7,2.3*36
$GPRMC,072809.000,A,4825.1040,N,00428.4612,W,0.00,244.11,190521,,,A*75
$GPGGA,072810.000,4825.1040,N,00428.4612,W,1,06,1.7,97.0,M,52.0,M,,0000*7A
$GPGSA,A,3,12,32,24,02,19,06,,,,,,,2.9,1.7,2.3*36
$GPRMC,072810.000,A,4825.1040,N,00428.4612,W,0.00,244.11,190521,,,A*7D
$GPGGA,072811.000,4825.1040,N,00428.4612,W,1,06,1.7,97.0,M,52.0,M,,0000*7B
$GPGSA,A,3,12,32,24,02,19,06,,,,,,,2.9,1.7,2.3*36
$GPRMC,072811.000,A,4825.1040,N,00428.4612,W,0.00,244.11,190521,,,A*7C
$GPGGA,072812.000,4825.1040,N,00428.4612,W,1,06,1.7,97.0,M,52.0,M,,0000*78
$GPGSA,A,3,12,32,24,02,19,06,,,,,,,2.9,1.7,2.3*36
$GPGSV,3,1,11,12,75,051,44,32,47,285,22,24,40,118,41,02,14,098,37*7E
$GPGSV,3,2,11,19,14,036,36,06,14,066,34,08,35,246,,07,33,133,*79
$GPGSV,3,3,11,09,32,215,,21,24,146,,29,06,193,*47
$GPRMC,072812.000,A,4825.1040,N,00428.4612,W,0.08,244.11,190521,,,A*77
$GPGGA,072813.000,4825.1039,N,00428.4614,W,1,06,1.7,96.8,M,52.0,M,,0000*78
$GPGSA,A,3,12,32,24,02,19,06,,,,,,,2.9,1.7,2.3*36
$GPRMC,072813.000,A,4825.1039,N,00428.4614,W,0.11,244.11,190521,,,A*76
$GPGGA,072814.000,4825.1039,N,00428.4616,W,1,06,1.7,96.6,M,52.0,M,,0000*73
$GPGSA,A,3,12,32,24,02,19,06,,,,,,,2.9,1.7,2.3*36
$GPRMC,072814.000,A,4825.1039,N,00428.4616,W,0.14,244.11,190521,,,A*76
$GPGGA,072815.000,4825.1039,N,00428.4615,W,1,06,1.7,96.6,M,52.0,M,,0000*71
$GPGSA,A,3,12,32,24,02,19,06,,,,,,,2.9,1.7,2.3*36
$GPRMC,072815.000,A,4825.1039,N,00428.4615,W,0.00,244.11,190521,,,A*71
$GPGGA,072816.000,4825.1039,N,00428.4616,W,1,06,1.7,96.6,M,52.0,M,,0000*71
$GPGSA,A,3,12,32,24,02,19,06,,,,,,,2.9,1.7,2.3*36
$GPRMC,072816.000,A,4825.1039,N,00428.4616,W,0.05,244.11,190521,,,A*74
$GPGGA,072817.000,4825.1039,N,00428.4616,W,1,06,1.7,96.6,M,52.0,M,,0000*70
$GPGSA,A,3,12,32,24,02,19,06,,,,,,,2.9,1.7,2.3*36
$GPGSV,3,1,11,12,75,051,44,32,47,285,23,24,40,118,41,02,14,098,37*7F
$GPGSV,3,2,11,19,14,036,38,06,14,066,34,08,35,246,,07,33,133,*77
$GPGSV,3,3,11,09,32,215,,21,24,146,,29,06,193,*47
$GPRMC,072817.000,A,4825.1039,N,00428.4616,W,0.00,244.11,190521,,,A*70
$GPGGA,072818.000,4825.1039,N,00428.4616,W,1,06,1.7,96.6,M,52.0,M,,0000*7F
$GPGSA,A,3,12,32,24,02,19,06,,,,,,,2.9,1.7,2.3*36
$GPRMC,072818.000,A,4825.1039,N,00428.4616,W,0.00,244.11,190521,,,A*7F
$GPGGA,072819.000,4825.1039,N,00428.4616,W,1,06,1.7,96.6,M,52.0,M,,0000*7E
$GPGSA,A,3,12,32,24,02,19,06,,,,,,,2.9,1.7,2.3*36
$GPRMC,072819.000,A,4825.1039,N,00428.4616,W,0.00,244.11,190521,,,A*7E
$GPGGA,072820.000,4825.1039,N,00428.4617,W,1,06,1.7,96.5,M,52.0,M,,0000*76
$GPGSA,A,3,12,32,24,02,19,06,,,,,,,2.9,1.7,2.3*36
$GPRMC,072820.000,A,4825.1039,N,00428.4617,W,0.06,244.11,190521,,,A*73
$GPGGA,072821.000,4825.1039,N,00428.4616,W,1,06,1.7,96.5,M,52.0,M,,0000*76
$GPGSA,A,3,12,32,24,02,19,06,,,,,,,2.9,1.7,2.3*36
$GPRMC,072821.000,A,4825.1039,N,00428.4616,W,0.00,244.11,190521,,,A*75
$GPGGA,072822.000,4825.1038,N,00428.4616,W,1,06,1.7,96.5,M,52.0,M,,0000*74
$GPGSA,A,3,12,32,24,02,19,06,,,,,,,2.9,1.7,2.3*36
$GPGSV,3,1,11,12,75,051,44,32,47,285,26,24,40,118,42,02,14,098,36*78
$GPGSV,3,2,11,19,14,036,38,06,14,066,34,08,35,246,,07,33,133,*77
$GPGSV,3,3,11,09,32,215,,21,24,146,,29,06,193,*47
$GPRMC,072822.000,A,4825.1038,N,00428.4616,W,0.01,244.11,190521,,,A*76
$GPGGA,072823.000,4825.1039,N,00428.4615,W,1,06,1.7,96.6,M,52.0,M,,0000*74
$GPGSA,A,3,12,32,24,02,19,06,,,,,,,2.9,1.7,2.3*36
$GPRMC,072823.000,A,4825.1039,N,00428.4615,W,0.20,244.11,190521,,,A*76
$PSRF156,23,1,0*09
$GPGGA,072824.000,4825.1039,N,00428.4615,W,1,06,1.7,96.6,M,52.0,M,,0000*73
$GPGSA,A,3,12,32,24,02,19,06,,,,,,,2.9,1.7,2.3*36
$GPRMC,072824.000,A,4825.1039,N,00428.4615,W,0.00,244.11,190521,,,A*73
$GPGGA,072825.000,4825.1039,N,00428.4615,W,1,06,1.7,96.6,M,52.0,M,,0000*72
$GPGSA,A,3,12,32,24,02,19,06,,,,,,,2.9,1.7,2.3*36
$GPRMC,072825.000,A,4825.1039,N,00428.4615,W,0.00,244.11,190521,,,A*72
$GPGGA,072826.000,4825.1039,N,00428.4615,W,1,06,1.7,96.6,M,52.0,M,,0000*71
$GPGSA,A,3,12,32,24,02,19,06,,,,,,,2.9,1.7,2.3*36
$GPRMC,072826.000,A,4825.1039,N,00428.4615,W,0.00,244.11,190521,,,A*71
$GPGGA,072827.000,4825.1039,N,00428.4612,W,1,06,1.7,96.8,M,52.0,M,,0000*79
$GPGSA,A,3,12,32,24,02,19,06,,,,,,,2.9,1.7,2.3*36
$GPGSV,3,1,11,12,75,051,44,32,47,285,26,24,40,118,42,02,14,098,31*7F
$GPGSV,3,2,11,19,14,036,37,06,14,066,35,08,35,246,,07,33,133,*79
$GPGSV,3,3,11,09,32,215,,21,24,146,,29,06,193,*47
$GPRMC,072827.000,A,4825.1039,N,00428.4612,W,0.06,244.11,190521,,,A*71
$GPGGA,072828.000,4825.1039,N,00428.4610,W,1,06,1.7,96.9,M,52.0,M,,0000*75
$GPGSA,A,3,12,32,24,02,19,06,,,,,,,2.9,1.7,2.3*36
$GPRMC,072828.000,A,4825.1039,N,00428.4610,W,0.12,244.11,190521,,,A*79
$GPGGA,072829.000,4825.1039,N,00428.4609,W,1,06,1.7,97.0,M,52.0,M,,0000*74
$GPGSA,A,3,12,32,24,02,19,06,,,,,,,2.9,1.7,2.3*36
$GPRMC,072829.000,A,4825.1039,N,00428.4609,W,0.11,244.11,190521,,,A*73
$GPGGA,072830.000,4825.1039,N,00428.4609,W,1,06,1.7,97.0,M,52.0,M,,0000*7C
$GPGSA,A,3,12,32,24,02,19,06,,,,,,,2.9,1.7,2.3*36
$GPRMC,072830.000,A,4825.1039,N,00428.4609,W,0.00,244.11,190521,,,A*7B
$GPGGA,072831.000,4825.1039,N,00428.4609,W,1,06,1.7,97.0,M,52.0,M,,0000*7D
$GPGSA,A,3,12,32,24,02,19,06,,,,,,,2.9,1.7,2.3*36
$GPRMC,072831.000,A,4825.1039,N,00428.4609,W,0.00,244.11,190521,,,A*7A
$GPGGA,072832.000,4825.1039,N,00428.4609,W,1,06,1.7,97.0,M,52.0,M,,0000*7E
$GPGSA,A,3,12,32,24,02,19,06,,,,,,,2.9,1.7,2.3*36
$GPGSV,3,1,11,12,75,051,44,32,47,285,26,24,40,118,42,02,14,098,31*7F
$GPGSV,3,2,11,19,14,036,37,06,14,066,35,08,35,246,,07,33,133,*79
$GPGSV,3,3,11,09,32,215,,21,24,146,,29,06,193,*47
$GPRMC,072832.000,A,4825.1039,N,00428.4609,W,0.00,244.11,190521,,,A*79
$GPGGA,072833.000,4825.1039,N,00428.4609,W,1,06,1.7,97.0,M,52.0,M,,0000*7F
$GPGSA,A,3,12,32,24,02,19,06,,,,,,,2.9,1.7,2.3*36
$GPRMC,072833.000,A,4825.1039,N,00428.4609,W,0.00,244.11,190521,,,A*78
$GPGGA,072834.000,4825.1039,N,00428.4609,W,1,06,1.7,97.0,M,52.0,M,,0000*78
$GPGSA,A,3,12,32,24,02,19,06,,,,,,,2.9,1.7,2.3*36
$GPRMC,072834.000,A,4825.1039,N,00428.4609,W,0.00,244.11,190521,,,A*7F
$GPGGA,072835.000,4825.1039,N,00428.4609,W,1,06,1.7,97.0,M,52.0,M,,0000*79
$GPGSA,A,3,12,32,24,02,19,06,,,,,,,2.9,1.7,2.3*36
$GPRMC,072835.000,A,4825.1039,N,00428.4609,W,0.00,244.11,190521,,,A*7E
$GPGGA,072836.000,4825.1039,N,00428.4609,W,1,06,1.7,97.0,M,52.0,M,,0000*7A
$GPGSA,A,3,12,32,24,02,19,06,,,,,,,2.9,1.7,2.3*36
$GPRMC,072836.000,A,4825.1039,N,00428.4609,W,0.00,244.11,190521,,,A*7D
$GPGGA,072837.000,4825.1039,N,00428.4609,W,1,06,1.7,97.0,M,52.0,M,,0000*7B
$GPGSA,A,3,12,32,24,02,19,06,,,,,,,2.9,1.7,2.3*36
$GPGSV,3,1,11,12,75,051,44,32,47,285,25,24,40,118,42,02,14,098,31*7C
$GPGSV,3,2,11,19,14,036,38,06,14,066,36,08,35,246,,07,33,133,*75
$GPGSV,3,3,11,09,32,215,,21,24,146,,29,06,193,*47
$GPRMC,072837.000,A,4825.1039,N,00428.4609,W,0.00,244.11,190521,,,A*7C
$GPGGA,072838.000,4825.1039,N,00428.4609,W,1,06,1.7,97.0,M,52.0,M,,0000*74
$GPGSA,A,3,12,32,24,02,19,06,,,,,,,2.9,1.7,2.3*36
$GPRMC,072838.000,A,4825.1039,N,00428.4609,W,0.00,244.11,190521,,,A*73
$GPGGA,072839.000,4825.1039,N,00428.4609,W,1,06,1.7,97.0,M,52.0,M,,0000*75
$GPGSA,A,3,12,32,24,02,19,06,,,,,,,2.9,1.7,2.3*36
$GPRMC,072839.000,A,4825.1039,N,00428.4609,W,0.00,244.11,190521,,,A*72
$GPGGA,072840.000,4825.1039,N,00428.4609,W,1,06,1.7,97.0,M,52.0,M,,0000*7B
$GPGSA,A,3,12,32,24,02,19,06,,,,,,,2.9,1.7,2.3*36
$GPRMC,072840.000,A,4825.1039,N,00428.4609,W,0.00,244.11,190521,,,A*7C
$GPGGA,072841.000,4825.1039,N,00428.4609,W,1,06,1.7,97.0,M,52.0,M,,0000*7A
$GPGSA,A,3,12,32,24,02,19,06,,,,,,,2.9,1.7,2.3*36
$GPRMC,072841.000,A,4825.1039,N,00428.4609,W,0.00,244.11,190521,,,A*7D
$GPGGA,072842.000,4825.1039,N,00428.4609,W,1,06,1.7,97.0,M,52.0,M,,0000*79
$GPGSA,A,3,12,32,24,02,19,06,,,,,,,2.9,1.7,2.3*36
$GPGSV,3,1,11,12,75,051,44,32,47,285,25,24,40,118,42,02,14,098,30*7D
$GPGSV,3,2,11,19,14,036,38,06,14,066,35,08,35,246,,07,33,133,*76
$GPGSV,3,3,11,09,32,215,,21,24,146,,29,06,193,*47
$GPRMC,072842.000,A,4825.1039,N,00428.4609,W,0.00,244.11,190521,,,A*7E
$GPGGA,072843.000,4825.1039,N,00428.4609,W,1,06,1.7,97.0,M,52.0,M,,0000*78
$GPGSA,A,3,12,32,24,02,19,06,,,,,,,2.9,1.7,2.3*36
$GPRMC,072843.000,A,4825.1039,N,00428.4609,W,0.00,244.11,190521,,,A*7F
$GPGGA,072844.000,4825.1039,N,00428.4609,W,1,06,1.7,97.0,M,52.0,M,,0000*7F
$GPGSA,A,3,12,32,24,02,19,06,,,,,,,2.9,1.7,2.3*36
$GPRMC,072844.000,A,4825.1039,N,00428.4609,W,0.00,244.11,190521,,,A*78
$GPGGA,072845.000,4825.1039,N,00428.4611,W,1,06,1.7,96.8,M,52.0,M,,0000*7E
$GPGSA,A,3,12,32,24,02,19,06,,,,,,,2.9,1.7,2.3*36
$GPRMC,072845.000,A,4825.1039,N,00428.4611,W,0.06,244.11,190521,,,A*76
$GPGGA,072846.000,4825.1039,N,00428.4611,W,1,06,1.7,96.8,M,52.0,M,,0000*7D
$GPGSA,A,3,12,32,24,02,19,06,,,,,,,2.9,1.7,2.3*36
$GPRMC,072846.000,A,4825.1039,N,00428.4611,W,0.00,244.11,190521,,,A*73
$GPGGA,072847.000,4825.1039,N,00428.4611,W,1,06,1.7,96.8,M,52.0,M,,0000*7C
$GPGSA,A,3,12,32,24,02,19,06,,,,,,,2.9,1.7,2.3*36
$GPGSV,3,1,11,12,75,051,44,32,47,285,25,24,40,118,42,02,14,098,30*7D
$GPGSV,3,2,11,19,14,036,38,06,14,066,35,08,35,246,,07,33,133,*76
$GPGSV,3,3,11,09,32,215,,21,24,146,,29,06,193,*47
$GPRMC,072847.000,A,4825.1039,N,00428.4611,W,0.00,244.11,190521,,,A*72
$GPGGA,072848.000,4825.1039,N,00428.4611,W,1,06,1.7,96.8,M,52.0,M,,0000*73
$GPGSA,A,3,12,32,24,02,19,06,,,,,,,2.9,1.7,2.3*36
$GPRMC,072848.000,A,4825.1039,N,00428.4611,W,0.00,244.11,190521,,,A*7D
$GPGGA,072849.000,4825.1039,N,00428.4611,W,1,06,1.7,96.8,M,52.0,M,,0000*72
$GPGSA,A,3,12,32,24,02,19,06,,,,,,,2.9,1.7,2.3*36
$GPRMC,072849.000,A,4825.1039,N,00428.4611,W,0.00,244.11,190521,,,A*7C
$GPGGA,072850.000,4825.1038,N,00428.4611,W,1,05,2.0,96.7,M,52.0,M,,0000*73
$GPGSA,A,3,12,32,24,19,06,,,,,,,,3.3,2.0,2.7*3F
$GPRMC,072850.000,A,4825.1038,N,00428.4611,W,0.01,244.11,190521,,,A*74
$GPGGA,072851.000,4825.1038,N,00428.4611,W,1,06,1.7,96.7,M,52.0,M,,0000*75
$GPGSA,A,3,12,32,24,02,19,06,,,,,,,2.9,1.7,2.3*36
$GPRMC,072851.000,A,4825.1038,N,00428.4611,W,0.00,244.11,190521,,,A*74
$GPGGA,072852.000,4825.1038,N,00428.4611,W,1,06,1.7,96.7,M,52.0,M,,0000*76
$GPGSA,A,3,12,32,24,02,19,06,,,,,,,2.9,1.7,2.3*36
$GPGSV,3,1,11,12,75,051,44,32,47,285,25,24,40,118,42,02,14,098,25*79
$GPGSV,3,2,11,19,14,036,38,06,14,066,35,08,35,246,,07,33,133,*76
$GPGSV,3,3,11,09,32,215,,21,24,146,,29,06,193,*47
$GPRMC,072852.000,A,4825.1038,N,00428.4611,W,0.00,244.11,190521,,,A*77
$GPGGA,072853.000,4825.1038,N,00428.4610,W,1,05,2.0,96.8,M,52.0,M,,0000*7E
$GPGSA,A,3,12,32,24,19,06,,,,,,,,3.3,2.0,2.7*3F
$GPRMC,072853.000,A,4825.1038,N,00428.4610,W,0.08,244.11,190521,,,A*7F
$GPGGA,072854.000,4825.1038,N,00428.4610,W,1,05,2.0,96.8,M,52.0,M,,0000*79
$GPGSA,A,3,12,32,24,19,06,,,,,,,,3.3,2.0,2.7*3F
$GPRMC,072854.000,A,4825.1038,N,00428.4610,W,0.00,244.11,190521,,,A*70
$GPGGA,072855.000,4825.1038,N,00428.4610,W,1,06,1.7,96.8,M,52.0,M,,0000*7F
$GPGSA,A,3,12,32,24,02,19,06,,,,,,,2.9,1.7,2.3*36
$GPRMC,072855.000,A,4825.1038,N,00428.4610,W,0.00,244.11,190521,,,A*71
$GPGGA,072856.000,4825.1038,N,00428.4610,W,1,06,1.7,96.8,M,52.0,M,,0000*7C
$GPGSA,A,3,12,32,24,02,19,06,,,,,,,2.9,1.7,2.3*36
$GPRMC,072856.000,A,4825.1038,N,00428.4610,W,0.00,244.11,190521,,,A*72
$GPGGA,072857.000,4825.1038,N,00428.4610,W,1,06,1.7,96.8,M,52.0,M,,0000*7D
$GPGSA,A,3,12,32,24,02,19,06,,,,,,,2.9,1.7,2.3*36
$GPGSV,3,1,11,12,75,051,44,32,47,285,26,24,40,118,42,02,14,098,25*7A
$GPGSV,3,2,11,19,14,036,37,06,14,066,35,08,35,246,,07,33,133,*79
$GPGSV,3,3,11,09,32,215,,21,24,146,,29,06,193,*47
$GPRMC,072857.000,A,4825.1038,N,00428.4610,W,0.00,244.11,190521,,,A*73
$GPGGA,072858.000,4825.1038,N,00428.4610,W,1,06,1.7,96.8,M,52.0,M,,0000*72
$GPGSA,A,3,12,32,24,02,19,06,,,,,,,2.9,1.7,2.3*36
$GPRMC,072858.000,A,4825.1038,N,00428.4610,W,0.00,244.11,190521,,,A*7C
$GPGGA,072859.000,4825.1038,N,00428.4610,W,1,06,1.7,96.8,M,52.0,M,,0000*73
$GPGSA,A,3,12,32,24,02,19,06,,,,,,,2.9,1.7,2.3*36
$GPRMC,072859.000,A,4825.1038,N,00428.4610,W,0.00,244.11,190521,,,A*7D
$GPGGA,072900.000,4825.1038,N,00428.4610,W,1,06,1.7,96.8,M,52.0,M,,0000*7E
$GPGSA,A,3,12,32,24,02,19,06,,,,,,,2.9,1.7,2.3*36
$GPRMC,072900.000,A,4825.1038,N,00428.4610,W,0.00,244.11,190521,,,A*70
$GPGGA,072901.000,4825.1038,N,00428.4610,W,1,06,1.7,96.8,M,52.0,M,,0000*7F
$GPGSA,A,3,12,32,24,02,19,06,,,,,,,2.9,1.7,2.3*36
$GPRMC,072901.000,A,4825.1038,N,00428.4610,W,0.00,244.11,190521,,,A*71
$GPGGA,072902.000,4825.1038,N,00428.4610,W,1,06,1.7,96.8,M,52.0,M,,0000*7C
$GPGSA,A,3,12,32,24,02,19,06,,,,,,,2.9,1.7,2.3*36
$GPGSV,3,1,11,12,75,051,44,32,47,285,27,24,40,118,42,02,14,098,24*7A
$GPGSV,3,2,11,19,14,036,36,06,14,066,35,08,35,246,,07,33,133,*78
$GPGSV,3,3,11,09,32,215,,21,24,146,,29,06,193,*47
$GPRMC,072902.000,A,4825.1038,N,00428.4610,W,0.00,244.11,190521,,,A*72
$GPGGA,072903.000,4825.1038,N,00428.4610,W,1,06,1.7,96.8,M,52.0,M,,0000*7D
$GPGSA,A,3,12,32,24,02,19,06,,,,,,,2.9,1.7,2.3*36
$GPRMC,072903.000,A,4825.1038,N,00428.4610,W,0.00,244.11,190521,,,A*73
$GPGGA,072904.000,4825.1038,N,00428.4610,W,1,06,1.7,96.8,M,52.0,M,,0000*7A
$GPGSA,A,3,12,32,24,02,19,06,,,,,,,2.9,1.7,2.3*36
$GPRMC,072904.000,A,4825.1038,N,00428.4610,W,0.00,244.11,190521,,,A*74
$GPGGA,072905.000,4825.1038,N,00428.4610,W,1,06,1.7,96.8,M,52.0,M,,0000*7B
$GPGSA,A,3,12,32,24,02,19,06,,,,,,,2.9,1.7,2.3*36
$GPRMC,072905.000,A,4825.1038,N,00428.4610,W,0.00,244.11,190521,,,A*75
$GPGGA,072906.000,4825.1038,N,00428.4610,W,1,06,1.7,96.8,M,52.0,M,,0000*78
$GPGSA,A,3,12,32,24,02,19,06,,,,,,,2.9,1.7,2.3*36
$GPRMC,072906.000,A,4825.1038,N,00428.4610,W,0.00,244.11,190521,,,A*76
$GPGGA,072907.000,4825.1038,N,00428.4610,W,1,06,1.7,96.8,M,52.0,M,,0000*79
$GPGSA,A,3,12,32,24,02,19,06,,,,,,,2.9,1.7,2.3*36
$GPGSV,3,1,11,12,75,051,44,32,47,285,26,24,40,118,42,02,14,098,25*7A
$GPGSV,3,2,11,19,14,036,37,06,14,066,35,08,35,246,,07,33,133,*79
$GPGSV,3,3,11,09,32,215,,21,24,146,,29,06,193,*47
$GPRMC,072907.000,A,4825.1038,N,00428.4610,W,0.00,244.11,190521,,,A*77
$GPGGA,072908.000,4825.1038,N,00428.4610,W,1,06,1.7,96.8,M,52.0,M,,0000*76
$GPGSA,A,3,12,32,24,02,19,06,,,,,,,2.9,1.7,2.3*36
$GPRMC,072908.000,A,4825.1038,N,00428.4610,W,0.00,244.11,190521,,,A*78
$GPGGA,072909.000,4825.1038,N,00428.4610,W,1,06,1.7,96.8,M,52.0,M,,0000*77
$GPGSA,A,3,12,32,24,02,19,06,,,,,,,2.9,1.7,2.3*36
$GPRMC,072909.000,A,4825.1038,N,00428.4610,W,0.00,244.11,190521,,,A*79
$GPGGA,072910.000,4825.1038,N,00428.4610,W,1,06,1.7,96.8,M,52.0,M,,0000*7F
$GPGSA,A,3,12,32,24,02,19,06,,,,,,,2.9,1.7,2.3*36
$GPRMC,072910.000,A,4825.1038,N,00428.4610,W,0.00,244.11,190521,,,A*71
$GPGGA,072911.000,4825.1038,N,00428.4610,W,1,06,1.7,96.8,M,52.0,M,,0000*7E
$GPGSA,A,3,12,32,24,02,19,06,,,,,,,2.9,1.7,2.3*36
$GPRMC,072911.000,A,4825.1038,N,00428.4610,W,0.00,244.11,190521,,,A*70
$GPGGA,072912.000,4825.1038,N,00428.4610,W,1,06,1.7,96.8,M,52.0,M,,0000*7D
$GPGSA,A,3,12,32,24,02,19,06,,,,,,,2.9,1.7,2.3*36
$GPGSV,3,1,11,12,75,051,44,32,47,285,25,24,40,118,42,02,14,098,25*79
$GPGSV,3,2,11,19,14,036,36,06,14,066,35,08,35,246,,07,33,133,*78
$GPGSV,3,3,11,09,32,215,,21,24,146,,29,06,193,*47
$GPRMC,072912.000,A,4825.1038,N,00428.4610,W,0.00,244.11,190521,,,A*73
$GPGGA,072913.000,4825.1038,N,00428.4610,W,1,06,1.7,96.8,M,52.0,M,,0000*7C
$GPGSA,A,3,12,32,24,02,19,06,,,,,,,2.9,1.7,2.3*36
$GPRMC,072913.000,A,4825.1038,N,00428.4610,W,0.00,244.11,190521,,,A*72
$GPGGA,072914.000,4825.1038,N,00428.4610,W,1,06,1.7,96.8,M,52.0,M,,0000*7B
$GPGSA,A,3,12,32,24,02,19,06,,,,,,,2.9,1.7,2.3*36
$GPRMC,072914.000,A,4825.1038,N,00428.4610,W,0.00,244.11,190521,,,A*75
$GPGGA,072915.000,4825.1038,N,00428.4610,W,1,06,1.7,96.8,M,52.0,M,,0000*7A
$GPGSA,A,3,12,32,24,02,19,06,,,,,,,2.9,1.7,2.3*36
$GPRMC,072915.000,A,4825.1038,N,00428.4610,W,0.00,244.11,190521,,,A*74
$GPGGA,072916.000,4825.1038,N,00428.4610,W,1,06,1.7,96.8,M,52.0,M,,0000*79
$GPGSA,A,3,12,32,24,02,19,06,,,,,,,2.9,1.7,2.3*36
$GPRMC,072916.000,A,4825.1038,N,00428.4610,W,0.00,244.11,190521,,,A*77
$GPGGA,072917.000,4825.1038,N,00428.4610,W,1,06,1.7,96.8,M,52.0,M,,0000*78
$GPGSA,A,3,12,32,24,02,19,06,,,,,,,2.9,1.7,2.3*36
$GPGSV,3,1,11,12,75,051,44,32,47,285,26,24,40,118,42,02,14,098,27*78
$GPGSV,3,2,11,19,14,036,36,06,14,066,35,08,35,246,,07,33,133,*78
$GPGSV,3,3,11,09,32,215,,21,24,146,,29,06,193,*47
$GPRMC,072917.000,A,4825.1038,N,00428.4610,W,0.00,244.11,190521,,,A*76
$GPGGA,072918.000,4825.1038,N,00428.4610,W,1,06,1.7,96.8,M,52.0,M,,0000*77
$GPGSA,A,3,12,32,24,02,19,06,,,,,,,2.9,1.7,2.3*36
$GPRMC,072918.000,A,4825.1038,N,00428.4610,W,0.00,244.11,190521,,,A*79
$GPGGA,072919.000,4825.1038,N,00428.4610,W,1,06,1.7,96.8,M,52.0,M,,0000*76
$GPGSA,A,3,12,32,24,02,19,06,,,,,,,2.9,1.7,2.3*36
$GPRMC,072919.000,A,4825.1038,N,00428.4610,W,0.00,244.11,190521,,,A*78
$GPGGA,072920.000,4825.1038,N,00428.4611,W,1,06,1.7,96.8,M,52.0,M,,0000*7D
$GPGSA,A,3,12,32,24,02,19,06,,,,,,,2.9,1.7,2.3*36
$GPRMC,072920.000,A,4825.1038,N,00428.4611,W,0.01,244.11,190521,,,A*72
$GPGGA,072921.000,4825.1038,N,00428.4611,W,1,06,1.7,96.8,M,52.0,M,,0000*7C
$GPGSA,A,3,12,32,24,02,19,06,,,,,,,2.9,1.7,2.3*36
$GPRMC,072921.000,A,4825.1038,N,00428.4611,W,0.00,244.11,190521,,,A*72
$GPGGA,072922.000,4825.1038,N,00428.4611,W,1,06,1.7,96.8,M,52.0,M,,0000*7F
$GPGSA,A,3,12,32,24,02,19,06,,,,,,,2.9,1.7,2.3*36
$GPGSV,3,1,11,12,75,051,44,32,47,285,26,24,40,118,42,02,14,098,28*77
$GPGSV,3,2,11,19,14,036,36,06,14,066,35,08,35,246,,07,33,133,*78
$GPGSV,3,3,11,09,32,215,,21,24,146,,29,06,193,*47
$GPRMC,072922.000,A,4825.1038,N,00428.4611,W,0.00,244.11,190521,,,A*71
$GPGGA,072923.000,4825.1038,N,00428.4611,W,1,06,1.7,96.7,M,52.0,M,,0000*71
$GPGSA,A,3,12,32,24,02,19,06,,,,,,,2.9,1.7,2.3*36
$GPRMC,072923.000,A,4825.1038,N,00428.4611,W,0.03,244.11,190521,,,A*73
$GPGGA,072924.000,4825.1038,N,00428.4611,W,1,06,1.7,96.7,M,52.0,M,,0000*76
$GPGSA,A,3,12,32,24,02,19,06,,,,,,,2.9,1.7,2.3*36
$GPRMC,072924.000,A,4825.1038,N,00428.4611,W,0.02,244.11,190521,,,A*75
$GPGGA,072925.000,4825.1038,N,00428.4611,W,1,06,1.7,96.7,M,52.0,M,,0000*77
$GPGSA,A,3,12,32,24,02,19,06,,,,,,,2.9,1.7,2.3*36
$GPRMC,072925.000,A,4825.1038,N,00428.4611,W,0.00,244.11,190521,,,A*76
$GPGGA,072926.000,4825.1038,N,00428.4611,W,1,06,1.7,96.7,M,52.0,M,,0000*74
$GPGSA,A,3,12,32,24,02,19,06,,,,,,,2.9,1.7,2.3*36
$GPRMC,072926.000,A,4825.1038,N,00428.4611,W,0.00,244.11,190521,,,A*75
$GPGGA,072927.000,4825.1038,N,00428.4611,W,1,06,1.7,96.7,M,52.0,M,,0000*75
$GPGSA,A,3,12,32,24,02,19,06,,,,,,,2.9,1.7,2.3*36
$GPGSV,3,1,11,12,75,051,44,32,47,285,27,24,40,118,43,02,14,098,29*76
$GPGSV,3,2,11,19,14,036,35,06,14,066,35,08,35,246,,07,33,133,*7B
$GPGSV,3,3,11,09,32,215,,21,24,146,,29,06,193,*47
$GPRMC,072927.000,A,4825.1038,N,00428.4611,W,0.00,244.11,190521,,,A*74
$GPGGA,072928.000,4825.1038,N,00428.4611,W,1,06,1.7,96.7,M,52.0,M,,0000*7A
$GPGSA,A,3,12,32,24,02,19,06,,,,,,,2.9,1.7,2.3*36
$GPRMC,072928.000,A,4825.1038,N,00428.4611,W,0.00,244.11,190521,,,A*7B
$GPGGA,072929.000,4825.1038,N,00428.4611,W,1,06,1.7,96.7,M,52.0,M,,0000*7B
$GPGSA,A,3,12,32,24,02,19,06,,,,,,,2.9,1.7,2.3*36
$GPRMC,072929.000,A,4825.1038,N,00428.4611,W,0.00,244.11,190521,,,A*7A
$GPGGA,072930.000,4825.1038,N,00428.4611,W,1,06,1.7,96.7,M,52.0,M,,0000*73
$GPGSA,A,3,12,32,24,02,19,06,,,,,,,2.9,1.7,2.3*36
$GPRMC,072930.000,A,4825.1038,N,00428.4611,W,0.00,244.11,190521,,,A*72
$GPGGA,072931.000,4825.1038,N,00428.4611,W,1,06,1.7,96.7,M,52.0,M,,0000*72
$GPGSA,A,3,12,32,24,02,19,06,,,,,,,2.9,1.7,2.3*36
$GPRMC,072931.000,A,4825.1038,N,00428.4611,W,0.00,244.11,190521,,,A*73
$GPGGA,072932.000,4825.1038,N,00428.4611,W,1,06,1.7,96.7,M,52.0,M,,0000*71
$GPGSA,A,3,12,32,24,02,19,06,,,,,,,2.9,1.7,2.3*36
$GPGSV,3,1,11,12,75,051,44,32,47,285,28,24,40,118,43,02,14,098,30*71
$GPGSV,3,2,11,19,14,036,35,06,14,066,35,08,35,246,,07,33,133,*7B
$GPGSV,3,3,11,09,32,215,,21,24,146,,29,06,193,*47
$GPRMC,072932.000,A,4825.1038,N,00428.4611,W,0.00,244.11,190521,,,A*70
$GPGGA,072933.000,4825.1038,N,00428.4611,W,1,06,1.7,96.7,M,52.0,M,,0000*70
$GPGSA,A,3,12,32,24,02,19,06,,,,,,,2.9,1.7,2.3*36
$GPRMC,072933.000,A,4825.1038,N,00428.4611,W,0.00,244.11,190521,,,A*71
$GPGGA,072934.000,4825.1038,N,00428.4611,W,1,06,1.7,96.7,M,52.0,M,,0000*77
$GPGSA,A,3,12,32,24,02,19,06,,,,,,,2.9,1.7,2.3*36
$GPRMC,072934.000,A,4825.1038,N,00428.4611,W,0.00,244.11,190521,,,A*76
$GPGGA,072935.000,4825.1038,N,00428.4611,W,1,06,1.7,96.7,M,52.0,M,,0000*76
$GPGSA,A,3,12,32,24,02,19,06,,,,,,,2.9,1.7,2.3*36
$GPRMC,072935.000,A,4825.1038,N,00428.4611,W,0.00,244.11,190521,,,A*77
$GPGGA,072936.000,4825.1038,N,00428.4611,W,1,06,1.7,96.7,M,52.0,M,,0000*75
$GPGSA,A,3,12,32,24,02,19,06,,,,,,,2.9,1.7,2.3*36
$GPRMC,072936.000,A,4825.1038,N,00428.4611,W,0.00,244.11,190521,,,A*74
$GPGGA,072937.000,4825.1038,N,00428.4611,W,1,06,1.7,96.7,M,52.0,M,,0000*74
$GPGSA,A,3,12,32,24,02,19,06,,,,,,,2.9,1.7,2.3*36
$GPGSV,3,1,11,12,75,051,44,32,47,285,28,24,40,118,40,02,14,098,36*74
$GPGSV,3,2,11,19,14,036,35,06,14,066,35,08,35,246,,07,33,133,*7B
$GPGSV,3,3,11,09,32,215,,21,24,146,,29,06,193,*47
$GPRMC,072937.000,A,4825.1038,N,00428.4611,W,0.00,244.11,190521,,,A*75
$GPGGA,072938.000,4825.1038,N,00428.4611,W,1,06,1.7,96.7,M,52.0,M,,0000*7B
$GPGSA,A,3,12,32,24,02,19,06,,,,,,,2.9,1.7,2.3*36
$GPRMC,072938.000,A,4825.1038,N,00428.4611,W,0.00,244.11,190521,,,A*7A
$GPGGA,072939.000,4825.1038,N,00428.4611,W,1,06,1.7,96.7,M,52.0,M,,0000*7A
$GPGSA,A,3,12,32,24,02,19,06,,,,,,,2.9,1.7,2.3*36
$GPRMC,072939.000,A,4825.1038,N,00428.4611,W,0.00,244.11,190521,,,A*7B
$GPGGA,072940.000,4825.1038,N,00428.4611,W,1,06,1.7,96.7,M,52.0,M,,0000*74
$GPGSA,A,3,12,32,24,02,19,06,,,,,,,2.9,1.7,2.3*36
$GPRMC,072940.000,A,4825.1038,N,00428.4611,W,0.00,244.11,190521,,,A*75
$GPGGA,072941.000,4825.1038,N,00428.4611,W,1,06,1.7,96.7,M,52.0,M,,0000*75
$GPGSA,A,3,12,32,24,02,19,06,,,,,,,2.9,1.7,2.3*36
$GPRMC,072941.000,A,4825.1038,N,00428.4611,W,0.00,244.11,190521,,,A*74
$GPGGA,072942.000,4825.1038,N,00428.4611,W,1,06,1.7,96.7,M,52.0,M,,0000*76
$GPGSA,A,3,12,32,24,02,19,06,,,,,,,2.9,1.7,2.3*36
$GPGSV,3,1,11,12,75,051,44,32,47,285,28,24,40,118,41,02,14,098,36*75
$GPGSV,3,2,11,19,14,036,34,06,14,066,35,08,35,246,,07,33,133,*7A
$GPGSV,3,3,11,09,32,215,,21,24,146,,29,06,193,*47
$GPRMC,072942.000,A,4825.1038,N,00428.4611,W,0.00,244.11,190521,,,A*77
$GPGGA,072943.000,4825.1038,N,00428.4611,W,1,06,1.7,96.7,M,52.0,M,,0000*77
$GPGSA,A,3,12,32,24,02,19,06,,,,,,,2.9,1.7,2.3*36
$GPRMC,072943.000,A,4825.1038,N,00428.4611,W,0.00,244.11,190521,,,A*76
$GPGGA,072944.000,4825.1038,N,00428.4611,W,1,06,1.7,96.8,M,52.0,M,,0000*7F
$GPGSA,A,3,12,32,24,02,19,06,,,,,,,2.9,1.7,2.3*36
$GPRMC,072944.000,A,4825.1038,N,00428.4611,W,0.00,244.11,190521,,,A*71
$GPGGA,072945.000,4825.1038,N,00428.4611,W,1,06,1.7,96.8,M,52.0,M,,0000*7E
$GPGGA,073036.000,4825.1038,N,00428.4611,W,1,06,1.7,96.7,M,52.0,M,,0000*7D
$GPGSA,A,3,12,32,24,02,06,19,,,,,,,2.9,1.7,2.3*36
$GPRMC,073036.000,A,4825.1038,N,00428.4611,W,0.00,244.11,190521,,,A*7C
$GPGGA,073037.000,4825.1038,N,00428.4611,W,1,06,1.7,96.7,M,52.0,M,,0000*7C
$GPGSA,A,3,12,32,24,02,06,19,,,,,,,2.9,1.7,2.3*36
$GPGSV,3,1,11,12,74,051,44,32,48,283,29,24,39,119,41,02,14,097,37*7D
$GPGSV,3,2,11,06,14,064,33,19,12,036,25,08,34,245,,07,34,132,*7C
$GPGSV,3,3,11,09,33,216,,21,23,146,,29,05,192,*40
$GPRMC,073037.000,A,4825.1038,N,00428.4611,W,0.00,244.11,190521,,,A*7D
$GPGGA,073038.000,4825.1038,N,00428.4611,W,1,06,1.7,96.7,M,52.0,M,,0000*73
$GPGSA,A,3,12,32,24,02,06,19,,,,,,,2.9,1.7,2.3*36
$GPRMC,073038.000,A,4825.1038,N,00428.4611,W,0.00,244.11,190521,,,A*72
$GPGGA,073039.000,4825.1038,N,00428.4611,W,1,06,1.7,96.7,M,52.0,M,,0000*72
$GPGSA,A,3,12,32,24,02,06,19,,,,,,,2.9,1.7,2.3*36
$GPRMC,073039.000,A,4825.1038,N,00428.4611,W,0.00,244.11,190521,,,A*73
$GPGGA,073040.000,4825.1038,N,00428.4611,W,1,06,1.7,96.7,M,52.0,M,,0000*7C
$GPGSA,A,3,12,32,24,02,06,19,,,,,,,2.9,1.7,2.3*36
$GPRMC,073040.000,A,4825.1038,N,00428.4611,W,0.00,244.11,190521,,,A*7D
$GPGGA,073041.000,4825.1038,N,00428.4611,W,1,06,1.7,96.7,M,52.0,M,,0000*7D
$GPGSA,A,3,12,32,24,02,06,19,,,,,,,2.9,1.7,2.3*36
$GPRMC,073041.000,A,4825.1038,N,00428.4611,W,0.00,244.11,190521,,,A*7C
$GPGGA,073042.000,4825.1038,N,00428.4611,W,1,06,1.7,96.7,M,52.0,M,,0000*7E
$GPGSA,A,3,12,32,24,02,06,19,,,,,,,2.9,1.7,2.3*36
$GPGSV,3,1,11,12,74,051,44,32,48,283,26,24,39,119,41,02,14,097,37*72
$GPGSV,3,2,11,06,14,064,32,19,12,036,30,08,34,245,,07,34,132,*79
$GPGSV,3,3,11,09,33,216,,21,23,146,,29,05,192,*40
$GPRMC,073042.000,A,4825.1038,N,00428.4611,W,0.00,244.11,190521,,,A*7F
$GPGGA,073043.000,4825.1037,N,00428.4612,W,1,06,1.7,96.6,M,52.0,M,,0000*72
$GPGSA,A,3,12,32,24,02,06,19,,,,,,,2.9,1.7,2.3*36
$GPRMC,073043.000,A,4825.1037,N,00428.4612,W,0.07,244.11,190521,,,A*75
$GPGGA,073044.000,4825.1037,N,00428.4613,W,1,06,1.7,96.6,M,52.0,M,,0000*74
$GPGSA,A,3,12,32,24,02,06,19,,,,,,,2.9,1.7,2.3*36
$GPRMC,073044.000,A,4825.1037,N,00428.4613,W,0.13,244.11,190521,,,A*76
$GPGGA,073045.000,4825.1037,N,00428.4613,W,1,06,1.7,96.5,M,52.0,M,,0000*76
$GPGSA,A,3,12,32,24,02,06,19,,,,,,,2.9,1.7,2.3*36
$GPRMC,073045.000,A,4825.1037,N,00428.4613,W,0.05,244.11,190521,,,A*70
$GPGGA,073046.000,4825.1037,N,00428.4613,W,1,06,1.7,96.5,M,52.0,M,,0000*75
$GPGSA,A,3,12,32,24,02,06,19,,,,,,,2.9,1.7,2.3*36
$GPRMC,073046.000,A,4825.1037,N,00428.4613,W,0.00,244.11,190521,,,A*76
$GPGGA,073047.000,4825.1037,N,00428.4613,W,1,06,1.7,96.5,M,52.0,M,,0000*74
$GPGSA,A,3,12,32,24,02,06,19,,,,,,,2.9,1.7,2.3*36
$GPGSV,3,1,11,12,74,051,44,32,48,283,28,24,39,119,42,02,14,097,35*7D
$GPGSV,3,2,11,06,14,064,38,19,12,036,31,08,34,245,,07,34,132,*72
$GPGSV,3,3,11,09,33,216,,21,23,146,,29,05,192,*40
$GPRMC,073047.000,A,4825.1037,N,00428.4613,W,0.00,244.11,190521,,,A*77
$GPGGA,073048.000,4825.1037,N,00428.4614,W,1,06,1.7,96.2,M,52.0,M,,0000*7B
$GPGSA,A,3,12,32,24,02,06,19,,,,,,,2.9,1.7,2.3*36
$GPRMC,073048.000,A,4825.1037,N,00428.4614,W,0.24,244.11,190521,,,A*79
$GPGGA,073049.000,4825.1037,N,00428.4615,W,1,06,1.7,96.2,M,52.0,M,,0000*7B
$GPGSA,A,3,12,32,24,02,06,19,,,,,,,2.9,1.7,2.3*36
$GPRMC,073049.000,A,4825.1037,N,00428.4615,W,0.01,244.11,190521,,,A*7E
$GPGGA,073050.000,4825.1037,N,00428.4615,W,1,06,1.7,96.2,M,52.0,M,,0000*73
$GPGSA,A,3,12,32,24,02,06,19,,,,,,,2.9,1.7,2.3*36
$GPRMC,073050.000,A,4825.1037,N,00428.4615,W,0.00,244.11,190521,,,A*77
$GPGGA,073051.000,4825.1037,N,00428.4615,W,1,06,1.7,96.2,M,52.0,M,,0000*72
$GPGSA,A,3,12,32,24,02,06,19,,,,,,,2.9,1.7,2.3*36
$GPRMC,073051.000,A,4825.1037,N,00428.4615,W,0.00,244.11,190521,,,A*76
$GPGGA,073052.000,4825.1037,N,00428.4615,W,1,06,1.7,96.2,M,52.0,M,,0000*71
$GPGSA,A,3,12,32,24,02,06,19,,,,,,,2.9,1.7,2.3*36
$GPGSV,3,1,11,12,74,051,44,32,48,283,29,24,39,119,42,02,14,097,29*71
$GPGSV,3,2,11,06,14,064,36,19,12,036,31,08,34,245,,07,34,132,*7C
$GPGSV,3,3,11,09,33,216,,21,23,146,,29,05,192,*40
$GPRMC,073052.000,A,4825.1037,N,00428.4615,W,0.00,244.11,190521,,,A*75
$GPGGA,073053.000,4825.1037,N,00428.4615,W,1,06,1.7,96.2,M,52.0,M,,0000*70
$GPGSA,A,3,12,32,24,02,06,19,,,,,,,2.9,1.7,2.3*36
$GPRMC,073053.000,A,4825.1037,N,00428.4615,W,0.00,244.11,190521,,,A*74
$GPGGA,073054.000,4825.1037,N,00428.4615,W,1,06,1.7,96.2,M,52.0,M,,0000*77
$GPGSA,A,3,12,32,24,02,06,19,,,,,,,2.9,1.7,2.3*36
$GPRMC,073054.000,A,4825.1037,N,00428.4615,W,0.00,244.11,190521,,,A*73
$GPGGA,073055.000,4825.1037,N,00428.4615,W,1,06,1.7,96.2,M,52.0,M,,0000*76
$GPGSA,A,3,12,32,24,02,06,19,,,,,,,2.9,1.7,2.3*36
$GPRMC,073055.000,A,4825.1037,N,00428.4615,W,0.00,244.11,190521,,,A*72
$GPGGA,073056.000,4825.1037,N,00428.4615,W,1,06,1.7,96.2,M,52.0,M,,0000*75
$GPGSA,A,3,12,32,24,02,06,19,,,,,,,2.9,1.7,2.3*36
$GPRMC,073056.000,A,4825.1037,N,00428.4615,W,0.00,244.11,190521,,,A*71
$GPGGA,073057.000,4825.1037,N,00428.4615,W,1,06,1.7,96.2,M,52.0,M,,0000*74
$GPGSA,A,3,12,32,24,02,06,19,,,,,,,2.9,1.7,2.3*36
$GPGSV,3,1,11,12,74,051,45,32,48,283,29,24,39,119,42,02,14,097,30*78
$GPGSV,3,2,11,06,14,064,36,19,12,036,31,08,34,245,,07,34,132,*7C
$GPGSV,3,3,11,09,33,216,,21,23,146,,29,05,192,*40
$GPRMC,073057.000,A,4825.1037,N,00428.4615,W,0.00,244.11,190521,,,A*70
$GPGGA,073058.000,4825.1037,N,00428.4615,W,1,06,1.7,96.2,M,52.0,M,,0000*7B
$GPGSA,A,3,12,32,24,02,06,19,,,,,,,2.9,1.7,2.3*36
$GPRMC,073058.000,A,4825.1037,N,00428.4615,W,0.00,244.11,190521,,,A*7F
$GPGGA,073059.000,4825.1037,N,00428.4615,W,1,06,1.7,96.2,M,52.0,M,,0000*7A
$GPGSA,A,3,12,32,24,02,06,19,,,,,,,2.9,1.7,2.3*36
$GPRMC,073059.000,A,4825.1037,N,00428.4615,W,0.00,244.11,190521,,,A*7E
$GPGGA,073100.000,4825.1037,N,00428.4615,W,1,06,1.7,96.2,M,52.0,M,,0000*77
$GPGSA,A,3,12,32,24,02,06,19,,,,,,,2.9,1.7,2.3*36
$GPRMC,073100.000,A,4825.1037,N,00428.4615,W,0.00,244.11,190521,,,A*73
$GPGGA,073101.000,4825.1037,N,00428.4615,W,1,06,1.7,96.2,M,52.0,M,,0000*76
$GPGSA,A,3,12,32,24,02,06,19,,,,,,,2.9,1.7,2.3*36
$GPRMC,073101.000,A,4825.1037,N,00428.4615,W,0.00,244.11,190521,,,A*72
$GPGGA,073102.000,4825.1037,N,00428.4615,W,1,06,1.7,96.2,M,52.0,M,,0000*75
$GPGSA,A,3,12,32,24,02,06,19,,,,,,,2.9,1.7,2.3*36
$GPGSV,3,1,11,12,74,051,45,32,48,283,29,24,39,119,42,02,14,097,30*78
$GPGSV,3,2,11,06,14,064,35,19,12,036,32,08,34,245,,07,34,132,*7C
$GPGSV,3,3,11,09,33,216,,21,23,146,,29,05,192,*40
$GPRMC,073102.000,A,4825.1037,N,00428.4615,W,0.00,244.11,190521,,,A*71
$GPGGA,073103.000,4825.1037,N,00428.4615,W,1,06,1.7,96.2,M,52.0,M,,0000*74
$GPGSA,A,3,12,32,24,02,06,19,,,,,,,2.9,1.7,2.3*36
$GPRMC,073103.000,A,4825.1037,N,00428.4615,W,0.00,244.11,190521,,,A*70
$GPGGA,073104.000,4825.1037,N,00428.4615,W,1,06,1.7,96.2,M,52.0,M,,0000*73
$GPGSA,A,3,12,32,24,02,06,19,,,,,,,2.9,1.7,2.3*36
$GPRMC,073104.000,A,4825.1037,N,00428.4615,W,0.00,244.11,190521,,,A*77
$GPGGA,073105.000,4825.1037,N,00428.4615,W,1,06,1.7,96.2,M,52.0,M,,0000*72
$GPGSA,A,3,12,32,24,02,06,19,,,,,,,2.9,1.7,2.3*36
$GPRMC,073105.000,A,4825.1037,N,00428.4615,W,0.00,244.11,190521,,,A*76
$GPGGA,073106.000,4825.1037,N,00428.4615,W,1,06,1.7,96.2,M,52.0,M,,0000*71
$GPGSA,A,3,12,32,24,02,06,19,,,,,,,2.9,1.7,2.3*36
$GPRMC,073106.000,A,4825.1037,N,00428.4615,W,0.00,244.11,190521,,,A*75
$GPGGA,073107.000,4825.1037,N,00428.4615,W,1,06,1.7,96.2,M,52.0,M,,0000*70
$GPGSA,A,3,12,32,24,02,06,19,,,,,,,2.9,1.7,2.3*36
$GPGSV,3,1,11,12,74,051,45,32,48,283,29,24,39,119,42,02,14,097,30*78
$GPGSV,3,2,11,06,14,064,35,19,12,036,32,08,34,245,,07,34,132,*7C
$GPGSV,3,3,11,09,33,216,,21,23,146,,29,05,192,*40
$GPRMC,073107.000,A,4825.1037,N,00428.4615,W,0.00,244.11,190521,,,A*74
$GPGGA,073108.000,4825.1037,N,00428.4615,W,1,06,1.7,96.2,M,52.0,M,,0000*7F
$GPGSA,A,3,12,32,24,02,06,19,,,,,,,2.9,1.7,2.3*36
$GPRMC,073108.000,A,4825.1037,N,00428.4615,W,0.00,244.11,190521,,,A*7B
$GPGGA,073109.000,4825.1037,N,00428.4615,W,1,06,1.7,96.2,M,52.0,M,,0000*7E
$GPGSA,A,3,12,32,24,02,06,19,,,,,,,2.9,1.7,2.3*36
$GPRMC,073109.000,A,4825.1037,N,00428.4615,W,0.00,244.11,190521,,,A*7A
$GPGGA,073110.000,4825.1037,N,00428.4615,W,1,06,1.7,96.2,M,52.0,M,,0000*76
$GPGSA,A,3,12,32,24,02,06,19,,,,,,,2.9,1.7,2.3*36
$GPRMC,073110.000,A,4825.1037,N,00428.4615,W,0.00,244.11,190521,,,A*72
$GPGGA,073111.000,4825.1037,N,00428.4615,W,1,06,1.7,96.2,M,52.0,M,,0000*77
$GPGSA,A,3,12,32,24,02,06,19,,,,,,,2.9,1.7,2.3*36
$GPRMC,073111.000,A,4825.1037,N,00428.4615,W,0.00,244.11,190521,,,A*73
$GPGGA,073112.000,4825.1037,N,00428.4615,W,1,06,1.7,96.2,M,52.0,M,,0000*74
$GPGSA,A,3,12,32,24,02,06,19,,,,,,,2.9,1.7,2.3*36
$GPGSV,3,1,11,12,74,051,45,32,48,283,29,24,39,119,42,02,14,097,33*7B
$GPGSV,3,2,11,06,14,064,36,19,12,036,32,08,34,245,,07,34,132,*7F
$GPGSV,3,3,11,09,33,216,,21,23,146,,29,05,192,*40
$GPRMC,073112.000,A,4825.1037,N,00428.4615,W,0.00,244.11,190521,,,A*70
$GPGGA,073113.000,4825.1037,N,00428.4615,W,1,06,1.7,96.2,M,52.0,M,,0000*75
$GPGSA,A,3,12,32,24,02,06,19,,,,,,,2.9,1.7,2.3*36
$GPRMC,073113.000,A,4825.1037,N,00428.4615,W,0.00,244.11,190521,,,A*71
$GPGGA,073114.000,4825.1037,N,00428.4615,W,1,06,1.7,96.2,M,52.0,M,,0000*72
$GPGSA,A,3,12,32,24,02,06,19,,,,,,,2.9,1.7,2.3*36
$GPRMC,073114.000,A,4825.1037,N,00428.4615,W,0.00,244.11,190521,,,A*76
$GPGGA,073115.000,4825.1037,N,00428.4615,W,1,06,1.7,96.2,M,52.0,M,,0000*73
$GPGSA,A,3,12,32,24,02,06,19,,,,,,,2.9,1.7,2.3*36
$GPRMC,073115.000,A,4825.1037,N,00428.4615,W,0.00,244.11,190521,,,A*77
$GPGGA,073116.000,4825.1037,N,00428.4615,W,1,06,1.7,96.2,M,52.0,M,,0000*70
$GPGSA,A,3,12,32,24,02,06,19,,,,,,,2.9,1.7,2.3*36
$GPRMC,073116.000,A,4825.1037,N,00428.4615,W,0.00,244.11,190521,,,A*74
$GPGGA,073117.000,4825.1037,N,00428.4615,W,1,06,1.7,96.2,M,52.0,M,,0000*71
$GPGSA,A,3,12,32,24,02,06,19,,,,,,,2.9,1.7,2.3*36
$GPGSV,3,1,11,12,74,051,45,32,48,283,29,24,39,119,43,02,14,097,33*7A
$GPGSV,3,2,11,06,14,064,35,19,12,036,32,08,34,245,,07,34,132,*7C
$GPGSV,3,3,11,09,33,216,,21,23,146,,29,05,192,*40
$GPRMC,073117.000,A,4825.1037,N,00428.4615,W,0.00,244.11,190521,,,A*75
$GPGGA,073118.000,4825.1037,N,00428.4615,W,1,06,1.7,96.2,M,52.0,M,,0000*7E
$GPGSA,A,3,12,32,24,02,06,19,,,,,,,2.9,1.7,2.3*36
$GPRMC,073118.000,A,4825.1037,N,00428.4615,W,0.00,244.11,190521,,,A*7A
$GPGGA,073119.000,4825.1037,N,00428.4615,W,1,06,1.7,96.2,M,52.0,M,,0000*7F
$GPGSA,A,3,12,32,24,02,06,19,,,,,,,2.9,1.7,2.3*36
$GPRMC,073119.000,A,4825.1037,N,00428.4615,W,0.00,244.11,190521,,,A*7B
$GPGGA,073120.000,4825.1037,N,00428.4615,W,1,06,1.7,96.2,M,52.0,M,,0000*75
$GPGSA,A,3,12,32,24,02,06,19,,,,,,,2.9,1.7,2.3*36
$GPRMC,073120.000,A,4825.1037,N,00428.4615,W,0.00,244.11,190521,,,A*71
$GPGGA,073121.000,4825.1037,N,00428.4615,W,1,06,1.7,96.2,M,52.0,M,,0000*74
$GPGSA,A,3,12,32,24,02,06,19,,,,,,,2.9,1.7,2.3*36
$GPRMC,073121.000,A,4825.1037,N,00428.4615,W,0.00,244.11,190521,,,A*70
$GPGGA,073122.000,4825.1037,N,00428.4615,W,1,06,1.7,96.2,M,52.0,M,,0000*77
$GPGSA,A,3,12,32,24,02,06,19,,,,,,,2.9,1.7,2.3*36
$GPGSV,3,1,11,12,74,051,45,32,48,283,30,24,39,119,43,02,14,097,30*71
$GPGSV,3,2,11,06,14,064,35,19,12,036,38,08,34,245,,07,34,132,*76
$GPGSV,3,3,11,09,33,216,,21,23,146,,29,05,192,*40
$GPRMC,073122.000,A,4825.1037,N,00428.4615,W,0.00,244.11,190521,,,A*73
$GPGGA,073123.000,4825.1037,N,00428.4615,W,1,06,1.7,96.2,M,52.0,M,,0000*76
$GPGSA,A,3,12,32,24,02,06,19,,,,,,,2.9,1.7,2.3*36
$GPRMC,073123.000,A,4825.1037,N,00428.4615,W,0.00,244.11,190521,,,A*72
$GPGGA,073124.000,4825.1037,N,00428.4615,W,1,06,1.7,96.2,M,52.0,M,,0000*71
$GPGSA,A,3,12,32,24,02,06,19,,,,,,,2.9,1.7,2.3*36
$GPRMC,073124.000,A,4825.1037,N,00428.4615,W,0.00,244.11,190521,,,A*75
$GPGGA,073125.000,4825.1037,N,00428.4615,W,1,06,1.7,96.2,M,52.0,M,,0000*70
$GPGSA,A,3,12,32,24,02,06,19,,,,,,,2.9,1.7,2.3*36
$GPRMC,073125.000,A,4825.1037,N,00428.4615,W,0.00,244.11,190521,,,A*74
$GPGGA,073126.000,4825.1037,N,00428.4615,W,1,06,1.7,96.2,M,52.0,M,,0000*73
$GPGSA,A,3,12,32,24,02,06,19,,,,,,,2.9,1.7,2.3*36
$GPRMC,073126.000,A,4825.1037,N,00428.4615,W,0.00,244.11,190521,,,A*77
$GPGGA,073127.000,4825.1037,N,00428.4615,W,1,06,1.7,96.2,M,52.0,M,,0000*72
$GPGSA,A,3,12,32,24,02,06,19,,,,,,,2.9,1.7,2.3*36
$GPGSV,3,1,11,12,74,051,45,32,48,283,30,24,39,119,43,02,14,097,31*70
$GPGSV,3,2,11,06,14,064,35,19,12,036,38,08,34,245,,07,34,132,*76
$GPGSV,3,3,11,09,33,216,,21,23,146,,29,05,192,*40
$GPRMC,073127.000,A,4825.1037,N,00428.4615,W,0.00,244.11,190521,,,A*76
$GPGGA,073128.000,4825.1037,N,00428.4615,W,1,06,1.7,96.2,M,52.0,M,,0000*7D
$GPGSA,A,3,12,32,24,02,06,19,,,,,,,2.9,1.7,2.3*36
$GPRMC,073128.000,A,4825.1037,N,00428.4615,W,0.00,244.11,190521,,,A*79
$GPGGA,073129.000,4825.1037,N,00428.4615,W,1,06,1.7,96.2,M,52.0,M,,0000*7C
$GPGSA,A,3,12,32,24,02,06,19,,,,,,,2.9,1.7,2.3*36
$GPRMC,073129.000,A,4825.1037,N,00428.4615,W,0.00,244.11,190521,,,A*78
$GPGGA,073130.000,4825.1037,N,00428.4615,W,1,06,1.7,96.2,M,52.0,M,,0000*74
$GPGSA,A,3,12,32,24,02,06,19,,,,,,,2.9,1.7,2.3*36
$GPRMC,073130.000,A,4825.1037,N,00428.4615,W,0.00,244.11,190521,,,A*70
$GPGGA,073131.000,4825.1037,N,00428.4615,W,1,06,1.7,96.2,M,52.0,M,,0000*75
$GPGSA,A,3,12,32,24,02,06,19,,,,,,,2.9,1.7,2.3*36
$GPRMC,073131.000,A,4825.1037,N,00428.4615,W,0.00,244.11,190521,,,A*71
$GPGGA,073132.000,4825.1037,N,00428.4615,W,1,06,1.7,96.2,M,52.0,M,,0000*76
$GPGSA,A,3,12,32,24,02,06,19,,,,,,,2.9,1.7,2.3*36
$GPGSV,3,1,11,12,74,051,46,32,48,283,23,24,39,119,42,02,14,097,31*70
$GPGSV,3,2,11,06,14,064,35,19,12,036,38,08,34,245,,07,34,132,*76
$GPGSV,3,3,11,09,33,216,,21,23,146,,29,05,192,*40
$GPRMC,073132.000,A,4825.1037,N,00428.4615,W,0.00,244.11,190521,,,A*72
$GPGGA,073133.000,4825.1037,N,00428.4615,W,1,06,1.7,96.2,M,52.0,M,,0000*77
$GPGSA,A,3,12,32,24,02,06,19,,,,,,,2.9,1.7,2.3*36
$GPRMC,073133.000,A,4825.1037,N,00428.4615,W,0.00,244.11,190521,,,A*73
$GPGGA,073134.000,4825.1037,N,00428.4615,W,1,06,1.7,96.2,M,52.0,M,,0000*70
$GPGSA,A,3,12,32,24,02,06,19,,,,,,,2.9,1.7,2.3*36
$GPRMC,073134.000,A,4825.1037,N,00428.4615,W,0.00,244.11,190521,,,A*74
$GPGGA,073135.000,4825.1037,N,00428.4615,W,1,06,1.7,96.2,M,52.0,M,,0000*71
$GPGSA,A,3,12,32,24,02,06,19,,,,,,,2.9,1.7,2.3*36
$GPRMC,073135.000,A,4825.1037,N,00428.4615,W,0.00,244.11,190521,,,A*75
$GPGGA,073136.000,4825.1037,N,00428.4615,W,1,06,1.7,96.2,M,52.0,M,,0000*72
$GPGSA,A,3,12,32,24,02,06,19,,,,,,,2.9,1.7,2.3*36
$GPRMC,073136.000,A,4825.1037,N,00428.4615,W,0.00,244.11,190521,,,A*76
$GPGGA,073137.000,4825.1037,N,00428.4615,W,1,06,1.7,96.2,M,52.0,M,,0000*73
$GPGSA,A,3,12,32,24,02,06,19,,,,,,,2.9,1.7,2.3*36
$GPGSV,3,1,11,12,74,051,46,32,48,283,27,24,39,119,41,02,14,097,31*77
$GPGSV,3,2,11,06,14,064,34,19,12,036,36,08,34,245,,07,34,132,*79
$GPGSV,3,3,11,09,33,216,,21,23,146,,29,05,192,*40
$GPRMC,073137.000,A,4825.1037,N,00428.4615,W,0.00,244.11,190521,,,A*77
$GPGGA,073138.000,4825.1037,N,00428.4615,W,1,06,1.7,96.2,M,52.0,M,,0000*7C
$GPGSA,A,3,12,32,24,02,06,19,,,,,,,2.9,1.7,2.3*36
$GPRMC,073138.000,A,4825.1037,N,00428.4615,W,0.00,244.11,190521,,,A*78
$GPGGA,073139.000,4825.1037,N,00428.4615,W,1,06,1.7,96.2,M,52.0,M,,0000*7D
$GPGSA,A,3,12,32,24,02,06,19,,,,,,,2.9,1.7,2.3*36
$GPRMC,073139.000,A,4825.1037,N,00428.4615,W,0.00,244.11,190521,,,A*79
$GPGGA,073140.000,4825.1037,N,00428.4615,W,1,06,1.7,96.2,M,52.0,M,,0000*73
$GPGSA,A,3,12,32,24,02,06,19,,,,,,,2.9,1.7,2.3*36
$GPRMC,073140.000,A,4825.1037,N,00428.4615,W,0.00,244.11,190521,,,A*77
$GPGGA,073141.000,4825.1037,N,00428.4612,W,1,06,1.7,96.4,M,52.0,M,,0000*73
$GPGSA,A,3,12,32,24,02,06,19,,,,,,,2.9,1.7,2.3*36
$GPRMC,073141.000,A,4825.1037,N,00428.4612,W,0.13,244.11,190521,,,A*73
$GPGGA,073142.000,4825.1037,N,00428.4612,W,1,06,1.7,96.4,M,52.0,M,,0000*70
$GPGSA,A,3,12,32,24,02,06,19,,,,,,,2.9,1.7,2.3*36
$GPGSV,3,1,11,12,74,051,45,32,48,283,29,24,39,119,40,02,14,097,36*7C
$GPGSV,3,2,11,06,14,064,32,19,12,036,33,08,34,245,,07,34,132,*7A
$GPGSV,3,3,11,09,33,216,,21,23,146,,29,05,192,*40
$GPRMC,073142.000,A,4825.1037,N,00428.4612,W,0.01,244.11,190521,,,A*73
$GPGGA,073143.000,4825.1037,N,00428.4612,W,1,06,1.7,96.4,M,52.0,M,,0000*71
$GPGSA,A,3,12,32,24,02,06,19,,,,,,,2.9,1.7,2.3*36
$GPRMC,073143.000,A,4825.1037,N,00428.4612,W,0.00,244.11,190521,,,A*73
$GPGGA,073144.000,4825.1037,N,00428.4612,W,1,06,1.7,96.4,M,52.0,M,,0000*76
$GPGSA,A,3,12,32,24,02,06,19,,,,,,,2.9,1.7,2.3*36
$GPRMC,073144.000,A,4825.1037,N,00428.4612,W,0.00,244.11,190521,,,A*74
$GPGGA,073145.000,4825.1037,N,00428.4612,W,1,06,1.7,96.4,M,52.0,M,,0000*77
$GPGSA,A,3,12,32,24,02,06,19,,,,,,,2.9,1.7,2.3*36
$GPRMC,073145.000,A,4825.1037,N,00428.4612,W,0.00,244.11,190521,,,A*75
$GPGGA,073146.000,4825.1039,N,00428.4610,W,1,06,1.7,96.4,M,52.0,M,,0000*78
$GPGSA,A,3,12,32,24,02,06,19,,,,,,,2.9,1.7,2.3*36
$GPRMC,073146.000,A,4825.1039,N,00428.4610,W,0.18,244.11,190521,,,A*73
$GPGGA,073147.000,4825.1039,N,00428.4611,W,1,06,1.7,96.4,M,52.0,M,,0000*78
$GPGSA,A,3,12,32,24,02,06,19,,,,,,,2.9,1.7,2.3*36
$GPGSV,3,1,11,12,74,051,45,32,48,283,30,24,39,119,37,02,14,097,36*74
$GPGSV,3,2,11,06,14,064,37,19,12,036,37,08,34,245,,07,34,132,*7B
$GPGSV,3,3,11,09,33,216,,21,23,146,,29,05,192,*40
$GPRMC,073147.000,A,4825.1039,N,00428.4611,W,0.04,244.11,190521,,,A*7E
$GPGGA,073148.000,4825.1039,N,00428.4610,W,1,06,1.7,96.4,M,52.0,M,,0000*76
$GPGSA,A,3,12,32,24,02,06,19,,,,,,,2.9,1.7,2.3*36
$GPRMC,073148.000,A,4825.1039,N,00428.4610,W,0.01,244.11,190521,,,A*75
$GPGGA,073149.000,4825.1039,N,00428.4610,W,1,06,1.7,96.4,M,52.0,M,,0000*77
$GPGSA,A,3,12,32,24,02,06,19,,,,,,,2.9,1.7,2.3*36
$GPRMC,073149.000,A,4825.1039,N,00428.4610,W,0.00,244.11,190521,,,A*75
$GPGGA,073150.000,4825.1039,N,00428.4610,W,1,06,1.7,96.4,M,52.0,M,,0000*7F
$GPGSA,A,3,12,32,24,02,06,19,,,,,,,2.9,1.7,2.3*36
$GPRMC,073150.000,A,4825.1039,N,00428.4610,W,0.00,244.11,190521,,,A*7D
$GPGGA,073151.000,4825.1039,N,00428.4610,W,1,06,1.7,96.4,M,52.0,M,,0000*7E
$GPGSA,A,3,12,32,24,02,06,19,,,,,,,2.9,1.7,2.3*36
$GPRMC,073151.000,A,4825.1039,N,00428.4610,W,0.00,244.11,190521,,,A*7C
$GPGGA,073152.000,4825.1039,N,00428.4610,W,1,06,1.7,96.4,M,52.0,M,,0000*7D
$GPGSA,A,3,12,32,24,02,06,19,,,,,,,2.9,1.7,2.3*36
$GPGSV,3,1,11,12,74,051,45,32,48,283,31,24,39,119,36,02,14,097,37*75
$GPGSV,3,2,11,06,14,064,37,19,12,036,36,08,34,245,,07,34,132,*7A
$GPGSV,3,3,11,09,33,216,,21,23,146,,29,05,192,*40
$GPRMC,073152.000,A,4825.1039,N,00428.4610,W,0.00,244.11,190521,,,A*7F
$GPGGA,073153.000,4825.1039,N,00428.4610,W,1,06,1.7,96.4,M,52.0,M,,0000*7C
$GPGSA,A,3,12,32,24,02,06,19,,,,,,,2.9,1.7,2.3*36
$GPRMC,073153.000,A,4825.1039,N,00428.4610,W,0.00,244.11,190521,,,A*7E
$GPGGA,073154.000,4825.1039,N,00428.4610,W,1,06,1.7,96.4,M,52.0,M,,0000*7B
$GPGSA,A,3,12,32,24,02,06,19,,,,,,,2.9,1.7,2.3*36
$GPRMC,073154.000,A,4825.1039,N,00428.4610,W,0.00,244.11,190521,,,A*79
$GPGGA,073155.000,4825.1039,N,00428.4610,W,1,06,1.7,96.4,M,52.0,M,,0000*7A
$GPGSA,A,3,12,32,24,02,06,19,,,,,,,2.9,1.7,2.3*36
$GPRMC,073155.000,A,4825.1039,N,00428.4610,W,0.00,244.11,190521,,,A*78
$GPGGA,073156.000,4825.1039,N,00428.4610,W,1,06,1.7,96.4,M,52.0,M,,0000*79
$GPGSA,A,3,12,32,24,02,06,19,,,,,,,2.9,1.7,2.3*36
$GPRMC,073156.000,A,4825.1039,N,00428.4610,W,0.00,244.11,190521,,,A*7B
$GPGGA,073157.000,4825.1039,N,00428.4610,W,1,06,1.7,96.4,M,52.0,M,,0000*78
$GPGSA,A,3,12,32,24,02,06,19,,,,,,,2.9,1.7,2.3*36
$GPGSV,3,1,11,12,74,051,45,32,48,283,31,24,39,119,32,02,14,097,38*7E
$GPGSV,3,2,11,06,14,064,36,19,12,036,32,08,34,245,,07,34,132,*7F
$GPGSV,3,3,11,09,33,216,,21,23,146,,29,05,192,*40
$GPRMC,073157.000,A,4825.1039,N,00428.4610,W,0.00,244.11,190521,,,A*7A
$GPGGA,073158.000,4825.1039,N,00428.4610,W,1,06,1.7,96.4,M,52.0,M,,0000*77
$GPGSA,A,3,12,32,24,02,06,19,,,,,,,2.9,1.7,2.3*36
$GPRMC,073158.000,A,4825.1039,N,00428.4610,W,0.00,244.11,190521,,,A*75
$GPGGA,073159.000,4825.1039,N,00428.4610,W,1,06,1.7,96.4,M,52.0,M,,0000*76
$GPGSA,A,3,12,32,24,02,06,19,,,,,,,2.9,1.7,2.3*36
$GPRMC,073159.000,A,4825.1039,N,00428.4610,W,0.00,244.11,190521,,,A*74
$GPGGA,073200.000,4825.1039,N,00428.4610,W,1,06,1.7,96.4,M,52.0,M,,0000*79
$GPGSA,A,3,12,32,24,02,06,19,,,,,,,2.9,1.7,2.3*36
$GPRMC,073200.000,A,4825.1039,N,00428.4610,W,0.00,244.11,190521,,,A*7B
$GPGGA,073201.000,4825.1039,N,00428.4610,W,1,06,1.7,96.4,M,52.0,M,,0000*78
$GPGSA,A,3,12,32,24,02,06,19,,,,,,,2.9,1.7,2.3*36
$GPRMC,073201.000,A,4825.1039,N,00428.4610,W,0.00,244.11,190521,,,A*7A
$GPGGA,073202.000,4825.1039,N,00428.4610,W,1,06,1.7,96.4,M,52.0,M,,0000*7B
$GPGSA,A,3,12,32,24,02,06,19,,,,,,,2.9,1.7,2.3*36
$GPGSV,3,1,11,12,74,051,44,32,48,283,32,24,39,119,34,02,14,097,37*75
$GPGSV,3,2,11,06,14,064,36,19,12,036,36,08,34,245,,07,34,132,*7B
$GPGSV,3,3,11,09,33,216,,21,23,146,,29,05,192,*40
$GPRMC,073202.000,A,4825.1039,N,00428.4610,W,0.00,244.11,190521,,,A*79
$GPGGA,073203.000,4825.1039,N,00428.4610,W,1,06,1.7,96.4,M,52.0,M,,0000*7A
$GPGSA,A,3,12,32,24,02,06,19,,,,,,,2.9,1.7,2.3*36
$GPRMC,073203.000,A,4825.1039,N,00428.4610,W,0.00,244.11,190521,,,A*78
$GPGGA,073204.000,4825.1039,N,00428.4610,W,1,06,1.7,96.4,M,52.0,M,,0000*7D
$GPGSA,A,3,12,32,24,02,06,19,,,,,,,2.9,1.7,2.3*36
$GPRMC,073204.000,A,4825.1039,N,00428.4610,W,0.00,244.11,190521,,,A*7F
$GPGGA,073205.000,4825.1039,N,00428.4610,W,1,06,1.7,96.4,M,52.0,M,,0000*7C
$GPGSA,A,3,12,32,24,02,06,19,,,,,,,2.9,1.7,2.3*36
$GPRMC,073205.000,A,4825.1039,N,00428.4610,W,0.00,244.11,190521,,,A*7E
$GPGGA,073206.000,4825.1039,N,00428.4610,W,1,06,1.7,96.4,M,52.0,M,,0000*7F
$GPGSA,A,3,12,32,24,02,06,19,,,,,,,2.9,1.7,2.3*36
$GPRMC,073206.000,A,4825.1039,N,00428.4610,W,0.00,244.11,190521,,,A*7D
$GPGGA,073207.000,4825.1039,N,00428.4610,W,1,06,1.7,96.4,M,52.0,M,,0000*7E
$GPGSA,A,3,12,32,24,02,06,19,,,,,,,2.9,1.7,2.3*36
$GPGSV,3,1,11,12,74,051,44,32,48,283,33,24,39,119,33,02,14,097,37*73
$GPGSV,3,2,11,06,14,064,36,19,12,036,36,08,34,245,,07,34,132,*7B
$GPGSV,3,3,11,09,33,216,,21,23,146,,29,05,192,*40
$GPRMC,073207.000,A,4825.1039,N,00428.4610,W,0.00,244.11,190521,,,A*7C
$GPGGA,073208.000,4825.1039,N,00428.4610,W,1,06,1.7,96.4,M,52.0,M,,0000*71
$GPGSA,A,3,12,32,24,02,06,19,,,,,,,2.9,1.7,2.3*36
$GPRMC,073208.000,A,4825.1039,N,00428.4610,W,0.00,244.11,190521,,,A*73
$GPGGA,073209.000,4825.1039,N,00428.4610,W,1,06,1.7,96.4,M,52.0,M,,0000*70
$GPGSA,A,3,12,32,24,02,06,19,,,,,,,2.9,1.7,2.3*36
$GPRMC,073209.000,A,4825.1039,N,00428.4610,W,0.00,244.11,190521,,,A*72
$GPGGA,073210.000,4825.1039,N,00428.4610,W,1,06,1.7,96.4,M,52.0,M,,0000*78
$GPGSA,A,3,12,32,24,02,06,19,,,,,,,2.9,1.7,2.3*36
$GPRMC,073210.000,A,4825.1039,N,00428.4610,W,0.00,244.11,190521,,,A*7A
$GPGGA,073211.000,4825.1039,N,00428.4610,W,1,06,1.7,96.4,M,52.0,M,,0000*79
$GPGSA,A,3,12,32,24,02,06,19,,,,,,,2.9,1.7,2.3*36
$GPRMC,073211.000,A,4825.1039,N,00428.4610,W,0.00,244.11,190521,,,A*7B
$GPGGA,073212.000,4825.1039,N,00428.4610,W,1,06,1.7,96.4,M,52.0,M,,0000*7A
$GPGSA,A,3,12,32,24,02,06,19,,,,,,,2.9,1.7,2.3*36
$GPGSV,3,1,11,12,74,051,44,32,48,283,32,24,39,119,32,02,14,097,36*72
$GPGSV,3,2,11,06,14,064,37,19,12,036,37,08,34,245,,07,34,132,*7B
$GPGSV,3,3,11,09,33,216,,21,23,146,,29,05,192,*40
$GPRMC,073212.000,A,4825.1039,N,00428.4610,W,0.00,244.11,190521,,,A*78
$GPGGA,073213.000,4825.1039,N,00428.4610,W,1,06,1.7,96.4,M,52.0,M,,0000*7B
$GPGSA,A,3,12,32,24,02,06,19,,,,,,,2.9,1.7,2.3*36
$GPRMC,073213.000,A,4825.1039,N,00428.4610,W,0.00,244.11,190521,,,A*79
$GPGGA,073214.000,4825.1039,N,00428.4610,W,1,06,1.7,96.4,M,52.0,M,,0000*7C
$GPGSA,A,3,12,32,24,02,06,19,,,,,,,2.9,1.7,2.3*36
$GPRMC,073214.000,A,4825.1039,N,00428.4610,W,0.00,244.11,190521,,,A*7E
$GPGGA,073215.000,4825.1039,N,00428.4610,W,1,06,1.7,96.4,M,52.0,M,,0000*7D
$GPGSA,A,3,12,32,24,02,06,19,,,,,,,2.9,1.7,2.3*36
$GPRMC,073215.000,A,4825.1039,N,00428.4610,W,0.00,244.11,190521,,,A*7F
$GPGGA,073216.000,4825.1039,N,00428.4610,W,1,06,1.7,96.4,M,52.0,M,,0000*7E
$GPGSA,A,3,12,32,24,02,06,19,,,,,,,2.9,1.7,2.3*36
$GPRMC,073216.000,A,4825.1039,N,00428.4610,W,0.00,244.11,190521,,,A*7C
$GPGGA,073217.000,4825.1039,N,00428.4610,W,1,06,1.7,96.4,M,52.0,M,,0000*7F
$GPGSA,A,3,12,32,24,02,06,19,,,,,,,2.9,1.7,2.3*36
$GPGSV,3,1,11,12,74,051,43,32,48,283,32,24,39,119,41,02,14,097,37*70
$GPGSV,3,2,11,06,14,064,37,19,12,036,38,08,34,245,,07,34,132,*74
$GPGSV,3,3,11,09,33,216,,21,23,146,,29,05,192,*40
$GPRMC,073217.000,A,4825.1039,N,00428.4610,W,0.00,244.11,190521,,,A*7D
$GPGGA,073218.000,4825.1039,N,00428.4610,W,1,06,1.7,96.4,M,52.0,M,,0000*70
$GPGSA,A,3,12,32,24,02,06,19,,,,,,,2.9,1.7,2.3*36
$GPRMC,073218.000,A,4825.1039,N,00428.4610,W,0.00,244.11,190521,,,A*72
$GPGGA,073219.000,4825.1039,N,00428.4610,W,1,06,1.7,96.4,M,52.0,M,,0000*71
$GPGSA,A,3,12,32,24,02,06,19,,,,,,,2.9,1.7,2.3*36
$GPRMC,073219.000,A,4825.1039,N,00428.4610,W,0.00,244.11,190521,,,A*73
$GPGGA,073220.000,4825.1039,N,00428.4610,W,1,06,1.7,96.4,M,52.0,M,,0000*7B
$GPGSA,A,3,12,32,24,02,06,19,,,,,,,2.9,1.7,2.3*36
$GPRMC,073220.000,A,4825.1039,N,00428.4610,W,0.00,244.11,190521,,,A*79
$GPGGA,073221.000,4825.1039,N,00428.4610,W,1,06,1.7,96.4,M,52.0,M,,0000*7A
$GPGSA,A,3,12,32,24,02,06,19,,,,,,,2.9,1.7,2.3*36
$GPRMC,073221.000,A,4825.1039,N,00428.4610,W,0.00,244.11,190521,,,A*78
$GPGGA,073222.000,4825.1039,N,00428.4610,W,1,06,1.7,96.4,M,52.0,M,,0000*79
$GPGSA,A,3,12,32,24,02,06,19,,,,,,,2.9,1.7,2.3*36
$GPGSV,3,1,11,12,74,051,44,32,48,283,32,24,39,119,42,02,14,097,38*7B
$GPGSV,3,2,11,06,14,064,37,19,12,036,38,08,34,245,,07,34,132,*74
$GPGSV,3,3,11,09,33,216,,21,23,146,,29,05,192,*40
$GPRMC,073222.000,A,4825.1039,N,00428.4610,W,0.00,244.11,190521,,,A*7B
$GPGGA,073223.000,4825.1039,N,00428.4610,W,1,06,1.7,96.4,M,52.0,M,,0000*78
$GPGSA,A,3,12,32,24,02,06,19,,,,,,,2.9,1.7,2.3*36
$GPRMC,073223.000,A,4825.1039,N,00428.4610,W,0.00,244.11,190521,,,A*7A
$GPGGA,073224.000,4825.1039,N,00428.4610,W,1,06,1.7,96.4,M,52.0,M,,0000*7F
$GPGSA,A,3,12,32,24,02,06,19,,,,,,,2.9,1.7,2.3*36
$GPRMC,073224.000,A,4825.1039,N,00428.4610,W,0.00,244.11,190521,,,A*7D
$GPGGA,073225.000,4825.1039,N,00428.4610,W,1,06,1.7,96.4,M,52.0,M,,0000*7E
$GPGSA,A,3,12,32,24,02,06,19,,,,,,,2.9,1.7,2.3*36
$GPRMC,073225.000,A,4825.1039,N,00428.4610,W,0.00,244.11,190521,,,A*7C
$GPGGA,073226.000,4825.1039,N,00428.4610,W,1,06,1.7,96.4,M,52.0,M,,0000*7D
$GPGSA,A,3,12,32,24,02,06,19,,,,,,,2.9,1.7,2.3*36
$GPRMC,073226.000,A,4825.1039,N,00428.4610,W,0.00,244.11,190521,,,A*7F
$GPGGA,073227.000,4825.1039,N,00428.4610,W,1,06,1.7,96.4,M,52.0,M,,0000*7C
$GPGSA,A,3,12,32,24,02,06,19,,,,,,,2.9,1.7,2.3*36
$GPGSV,3,1,11,12,74,051,44,32,48,283,32,24,39,119,42,02,14,097,37*74
$GPGSV,3,2,11,06,14,064,37,19,12,036,37,08,34,245,,07,34,132,*7B
$GPGSV,3,3,11,09,33,216,,21,23,146,,29,05,192,*40
$GPRMC,073227.000,A,4825.1039,N,00428.4610,W,0.00,244.11,190521,,,A*7E
$GPGGA,073228.000,4825.1039,N,00428.4610,W,1,06,1.7,96.4,M,52.0,M,,0000*73
$GPGSA,A,3,12,32,24,02,06,19,,,,,,,2.9,1.7,2.3*36
$GPRMC,073228.000,A,4825.1039,N,00428.4610,W,0.00,244.11,190521,,,A*71
$GPGGA,073229.000,4825.1038,N,00428.4610,W,1,06,1.7,96.4,M,52.0,M,,0000*73
$GPGSA,A,3,12,32,24,02,06,19,,,,,,,2.9,1.7,2.3*36
$GPRMC,073229.000,A,4825.1038,N,00428.4610,W,0.00,244.11,190521,,,A*71
$GPGGA,073230.000,4825.1038,N,00428.4610,W,1,06,1.7,96.4,M,52.0,M,,0000*7B
$GPGSA,A,3,12,32,24,02,06,19,,,,,,,2.9,1.7,2.3*36
$GPRMC,073230.000,A,4825.1038,N,00428.4610,W,0.00,244.11,190521,,,A*79
$GPGGA,073231.000,4825.1038,N,00428.4610,W,1,06,1.7,96.4,M,52.0,M,,0000*7A
$GPGSA,A,3,12,32,24,02,06,19,,,,,,,2.9,1.7,2.3*36
$GPRMC,073231.000,A,4825.1038,N,00428.4610,W,0.00,244.11,190521,,,A*78
$GPGGA,073232.000,4825.1038,N,00428.4610,W,1,06,1.7,96.4,M,52.0,M,,0000*79
$GPGSA,A,3,12,32,24,02,06,19,,,,,,,2.9,1.7,2.3*36
$GPGSV,3,1,11,12,74,051,44,32,48,283,32,24,39,119,42,02,14,097,38*7B
$GPGSV,3,2,11,06,14,064,37,19,12,036,37,08,34,245,,07,34,132,*7B
$GPGSV,3,3,11,09,33,216,,21,23,146,,29,05,192,*40
$GPRMC,073232.000,A,4825.1038,N,00428.4610,W,0.00,244.11,190521,,,A*7B
$GPGGA,073233.000,4825.1038,N,00428.4610,W,1,06,1.7,96.4,M,52.0,M,,0000*78
$GPGSA,A,3,12,32,24,02,06,19,,,,,,,2.9,1.7,2.3*36
$GPRMC,073233.000,A,4825.1038,N,00428.4610,W,0.00,244.11,190521,,,A*7A
$GPGGA,073234.000,4825.1038,N,00428.4610,W,1,06,1.7,96.4,M,52.0,M,,0000*7F
$GPGSA,A,3,12,32,24,02,06,19,,,,,,,2.9,1.7,2.3*36
$GPRMC,073234.000,A,4825.1038,N,00428.4610,W,0.00,244.11,190521,,,A*7D
$GPGGA,073235.000,4825.1038,N,00428.4610,W,1,06,1.7,96.4,M,52.0,M,,0000*7E
$GPGSA,A,3,12,32,24,02,06,19,,,,,,,2.9,1.7,2.3*36
$GPRMC,073235.000,A,4825.1038,N,00428.4610,W,0.00,244.11,190521,,,A*7C
$GPGGA,073236.000,4825.1038,N,00428.4610,W,1,06,1.7,96.4,M,52.0,M,,0000*7D
$GPGSA,A,3,12,32,24,02,06,19,,,,,,,2.9,1.7,2.3*36
$GPRMC,073236.000,A,4825.1038,N,00428.4610,W,0.00,244.11,190521,,,A*7F
$GPGGA,073237.000,4825.1038,N,00428.4610,W,1,06,1.7,96.4,M,52.0,M,,0000*7C
$GPGSA,A,3,12,32,24,02,06,19,,,,,,,2.9,1.7,2.3*36
$GPGSV,3,1,11,12,74,051,44,32,48,283,32,24,39,119,43,02,14,097,37*75
$GPGSV,3,2,11,06,14,064,36,19,12,036,36,08,34,245,,07,34,132,*7B
$GPGSV,3,3,11,09,33,216,,21,23,146,,29,05,192,*40
$GPRMC,073237.000,A,4825.1038,N,00428.4610,W,0.00,244.11,190521,,,A*7E
$GPGGA,073238.000,4825.1038,N,00428.4610,W,1,06,1.7,96.4,M,52.0,M,,0000*73
$GPGSA,A,3,12,32,24,02,06,19,,,,,,,2.9,1.7,2.3*36
$GPRMC,073238.000,A,4825.1038,N,00428.4610,W,0.00,244.11,190521,,,A*71
$GPGGA,073239.000,4825.1038,N,00428.4610,W,1,06,1.7,96.4,M,52.0,M,,0000*72
$GPGSA,A,3,12,32,24,02,06,19,,,,,,,2.9,1.7,2.3*36
$GPRMC,073239.000,A,4825.1038,N,00428.4610,W,0.00,244.11,190521,,,A*70
$GPGGA,073240.000,4825.1038,N,00428.4610,W,1,06,1.7,96.4,M,52.0,M,,0000*7C
$GPGSA,A,3,12,32,24,02,06,19,,,,,,,2.9,1.7,2.3*36
$GPRMC,073240.000,A,4825.1038,N,00428.4610,W,0.00,244.11,190521,,,A*7E
$GPGGA,073241.000,4825.1038,N,00428.4610,W,1,06,1.7,96.4,M,52.0,M,,0000*7D
$GPGSA,A,3,12,32,24,02,06,19,,,,,,,2.9,1.7,2.3*36
$GPRMC,073241.000,A,4825.1038,N,00428.4610,W,0.00,244.11,190521,,,A*7F
$GPGGA,073242.000,4825.1038,N,00428.4610,W,1,06,1.7,96.4,M,52.0,M,,0000*7E
$GPGSA,A,3,12,32,24,02,06,19,,,,,,,2.9,1.7,2.3*36
$GPGSV,3,1,11,12,74,051,44,32,48,283,32,24,39,119,43,02,14,097,37*75
$GPGSV,3,2,11,06,14,064,37,19,12,036,35,08,34,245,,07,34,132,*79
$GPGSV,3,3,11,09,33,216,,21,23,146,,29,05,192,*40
$GPRMC,073242.000,A,4825.1038,N,00428.4610,W,0.00,244.11,190521,,,A*7C
$GPGGA,073243.000,4825.1038,N,00428.4610,W,1,06,1.7,96.4,M,52.0,M,,0000*7F
$GPGSA,A,3,12,32,24,02,06,19,,,,,,,2.9,1.7,2.3*36
$GPRMC,073243.000,A,4825.1038,N,00428.4610,W,0.00,244.11,190521,,,A*7D
