$GPGSA,A,3,12,24,32,19,02,,,,,,,,2.5,1.8,1.8*3B
$GPRMC,070036.000,A,4825.1029,N,00428.4664,W,0.00,272.88,190521,,,A*78
$GPGGA,070037.000,4825.1029,N,00428.4664,W,1,05,1.8,89.9,M,52.0,M,,0000*71
$GPGSA,A,3,12,24,32,19,02,,,,,,,,2.5,1.8,1.8*3B
$GPRMC,070037.000,A,4825.1029,N,00428.4664,W,0.00,272.88,190521,,,A*79
$GPGGA,070038.000,4825.1029,N,00428.4664,W,1,05,1.8,89.9,M,52.0,M,,0000*7E
$GPGSA,A,3,12,24,32,19,02,,,,,,,,2.5,1.8,1.8*3B
$GPRMC,070038.000,A,4825.1029,N,00428.4664,W,0.00,272.88,190521,,,A*76
$GPGGA,070039.000,4825.1029,N,00428.4664,W,1,05,1.8,89.9,M,52.0,M,,0000*7F
$GPGSA,A,3,12,24,32,19,02,,,,,,,,2.5,1.8,1.8*3B
$GPRMC,070039.000,A,4825.1029,N,00428.4664,W,0.00,272.88,190521,,,A*77
$GPGGA,070040.000,4825.1029,N,00428.4664,W,1,05,1.8,89.9,M,52.0,M,,0000*71
$GPGSA,A,3,12,24,32,19,02,,,,,,,,2.5,1.8,1.8*3B
$GPGSV,3,1,11,12,88,046,45,24,52,109,46,32,41,299,24,19,23,043,42*78
$GPGSV,3,2,11,02,06,107,40,06,08,076,30,08,42,260,,21,36,141,*7A
$GPGSV,3,3,11,07,22,140,,09,20,211,,29,18,196,*4E
$GPRMC,070040.000,A,4825.1029,N,00428.4664,W,0.00,272.88,190521,,,A*79
$GPGGA,070041.000,4825.1029,N,00428.4664,W,1,05,1.8,89.9,M,52.0,M,,0000*70
$GPGSA,A,3,12,24,32,19,02,,,,,,,,2.5,1.8,1.8*3B
$GPRMC,070041.000,A,4825.1029,N,00428.4664,W,0.00,272.88,190521,,,A*78
$GPGGA,070042.000,4825.1029,N,00428.4664,W,1,05,1.8,89.9,M,52.0,M,,0000*73
$GPGSA,A,3,12,24,32,19,02,,,,,,,,2.5,1.8,1.8*3B
$GPRMC,070042.000,A,4825.1029,N,00428.4664,W,0.00,272.88,190521,,,A*7B
$GPGGA,070043.000,4825.1029,N,00428.4664,W,1,05,1.8,89.9,M,52.0,M,,0000*72
$GPGSA,A,3,12,24,32,19,02,,,,,,,,2.5,1.8,1.8*3B
$GPRMC,070043.000,A,4825.1029,N,00428.4664,W,0.00,272.88,190521,,,A*7A
$GPGGA,070044.000,4825.1029,N,00428.4664,W,1,05,1.8,89.9,M,52.0,M,,0000*75
$GPGSA,A,3,12,24,32,19,02,,,,,,,,2.5,1.8,1.8*3B
$GPRMC,070044.000,A,4825.1029,N,00428.4664,W,0.00,272.88,190521,,,A*7D
$GPGGA,070045.000,4825.1029,N,00428.4664,W,1,05,1.8,89.9,M,52.0,M,,0000*74
$GPGSA,A,3,12,24,32,19,02,,,,,,,,2.5,1.8,1.8*3B
$GPGSV,3,1,11,12,88,046,45,24,52,109,46,32,41,299,25,19,23,043,42*79
$GPGSV,3,2,11,02,06,107,35,06,08,076,31,08,42,260,,21,36,141,*79
$GPGSV,3,3,11,07,22,140,,09,20,211,,29,18,196,*4E
$GPRMC,070045.000,A,4825.1029,N,00428.4664,W,0.00,272.88,190521,,,A*7C
$GPGGA,070046.000,4825.1029,N,00428.4664,W,1,05,1.8,89.9,M,52.0,M,,0000*77
$GPGSA,A,3,12,24,32,19,02,,,,,,,,2.5,1.8,1.8*3B
$GPRMC,070046.000,A,4825.1029,N,00428.4664,W,0.00,272.88,190521,,,A*7F
$GPGGA,070047.000,4825.1029,N,00428.4664,W,1,05,1.8,89.9,M,52.0,M,,0000*76
$GPGSA,A,3,12,24,32,19,02,,,,,,,,2.5,1.8,1.8*3B
$GPRMC,070047.000,A,4825.1029,N,00428.4664,W,0.00,272.88,190521,,,A*7E
$GPGGA,070048.000,4825.1029,N,00428.4664,W,1,05,1.8,89.9,M,52.0,M,,0000*79
$GPGSA,A,3,12,24,32,19,02,,,,,,,,2.5,1.8,1.8*3B
$GPRMC,070048.000,A,4825.1029,N,00428.4664,W,0.00,272.88,190521,,,A*71
$GPGGA,070049.000,4825.1029,N,00428.4664,W,1,05,1.8,89.8,M,52.0,M,,0000*79
$GPGSA,A,3,12,24,32,19,02,,,,,,,,2.5,1.8,1.8*3B
$GPRMC,070049.000,A,4825.1029,N,00428.4664,W,0.00,272.88,190521,,,A*70
$GPGGA,070050.000,4825.1029,N,00428.4664,W,1,05,1.8,89.8,M,52.0,M,,0000*71
$GPGSA,A,3,12,24,32,19,02,,,,,,,,2.5,1.8,1.8*3B
$GPGSV,3,1,11,12,88,046,45,24,52,109,46,32,41,299,25,19,23,043,42*79
$GPGSV,3,2,11,02,06,107,36,06,08,076,31,08,42,260,,21,36,141,*7A
$GPGSV,3,3,11,07,22,140,,09,20,211,,29,18,196,*4E
$GPRMC,070050.000,A,4825.1029,N,00428.4664,W,0.00,272.88,190521,,,A*78
$GPGGA,070051.000,4825.1029,N,00428.4664,W,1,05,1.8,89.8,M,52.0,M,,0000*70
$GPGSA,A,3,12,24,32,19,02,,,,,,,,2.5,1.8,1.8*3B
$GPRMC,070051.000,A,4825.1029,N,00428.4664,W,0.00,272.88,190521,,,A*79
$GPGGA,070052.000,4825.1029,N,00428.4664,W,1,05,1.8,89.8,M,52.0,M,,0000*73
$GPGSA,A,3,12,24,32,19,02,,,,,,,,2.5,1.8,1.8*3B
$GPRMC,070052.000,A,4825.1029,N,00428.4664,W,0.00,272.88,190521,,,A*7A
$GPGGA,070053.000,4825.1029,N,00428.4665,W,1,05,1.8,89.8,M,52.0,M,,0000*73
$GPGSA,A,3,12,24,32,19,02,,,,,,,,2.5,1.8,1.8*3B
$GPRMC,070053.000,A,4825.1029,N,00428.4665,W,0.00,272.88,190521,,,A*7A
$GPGGA,070054.000,4825.1029,N,00428.4665,W,1,05,1.8,89.8,M,52.0,M,,0000*74
$GPGSA,A,3,12,24,32,19,02,,,,,,,,2.5,1.8,1.8*3B
$GPRMC,070054.000,A,4825.1029,N,00428.4665,W,0.00,272.88,190521,,,A*7D
$GPGGA,070055.000,4825.1029,N,00428.4665,W,1,05,1.8,89.8,M,52.0,M,,0000*75
$GPGSA,A,3,12,24,32,19,02,,,,,,,,2.5,1.8,1.8*3B
$GPGSV,3,1,11,12,88,046,45,24,52,109,46,32,41,299,25,19,23,043,42*79
$GPGSV,3,2,11,02,06,107,36,06,08,076,32,08,42,260,,21,36,141,*79
$GPGSV,3,3,11,07,22,140,,09,20,211,,29,18,196,*4E
$GPRMC,070055.000,A,4825.1029,N,00428.4665,W,0.00,272.88,190521,,,A*7C
$GPGGA,070056.000,4825.1029,N,00428.4665,W,1,05,1.8,89.7,M,52.0,M,,0000*79
$GPGSA,A,3,12,24,32,19,02,,,,,,,,2.5,1.8,1.8*3B
$GPRMC,070056.000,A,4825.1029,N,00428.4665,W,0.00,272.88,190521,,,A*7F
$GPGGA,070057.000,4825.1029,N,00428.4665,W,1,05,1.8,89.7,M,52.0,M,,0000*78
$GPGSA,A,3,12,24,32,19,02,,,,,,,,2.5,1.8,1.8*3B
$GPRMC,070057.000,A,4825.1029,N,00428.4665,W,0.00,272.88,190521,,,A*7E
$GPGGA,070058.000,4825.1029,N,00428.4665,W,1,06,1.7,89.7,M,52.0,M,,0000*7B
$GPGSA,A,3,12,24,32,19,02,06,,,,,,,2.5,1.7,1.8*32
$GPRMC,070058.000,A,4825.1029,N,00428.4665,W,0.00,272.88,190521,,,A*71
$GPGGA,070059.000,4825.1029,N,00428.4665,W,1,06,1.7,89.7,M,52.0,M,,0000*7A
$GPGSA,A,3,12,24,32,19,06,02,,,,,,,2.5,1.7,1.8*32
$GPRMC,070059.000,A,4825.1029,N,00428.4665,W,0.00,272.88,190521,,,A*70
$GPGGA,070100.000,4825.1029,N,00428.4665,W,1,06,1.7,89.7,M,52.0,M,,0000*77
$GPGSA,A,3,12,24,32,19,06,02,,,,,,,2.5,1.7,1.8*32
$GPGSV,3,1,11,12,88,046,45,24,51,110,46,32,41,299,25,19,22,043,41*70
$GPGSV,3,2,11,06,08,076,32,02,06,107,36,08,42,260,,21,36,142,*7A
$GPGSV,3,3,11,07,23,140,,09,20,211,,29,18,196,*4F
$GPRMC,070100.000,A,4825.1029,N,00428.4665,W,0.00,272.88,190521,,,A*7D
$GPGGA,070101.000,4825.1029,N,00428.4665,W,1,06,1.7,89.7,M,52.0,M,,0000*76
$GPGSA,A,3,12,24,32,19,06,02,,,,,,,2.5,1.7,1.8*32
$GPRMC,070101.000,A,4825.1029,N,00428.4665,W,0.00,272.88,190521,,,A*7C
$GPGGA,070102.000,4825.1028,N,00428.4665,W,1,06,1.7,89.7,M,52.0,M,,0000*74
$GPGSA,A,3,12,24,32,19,06,02,,,,,,,2.5,1.7,1.8*32
$GPRMC,070102.000,A,4825.1028,N,00428.4665,W,0.00,272.88,190521,,,A*7E
$GPGGA,070103.000,4825.1028,N,00428.4665,W,1,06,1.7,89.7,M,52.0,M,,0000*75
$GPGSA,A,3,12,24,32,19,06,02,,,,,,,2.5,1.7,1.8*32
$GPRMC,070103.000,A,4825.1028,N,00428.4665,W,0.00,272.88,190521,,,A*7F
$GPGGA,070104.000,4825.1028,N,00428.4665,W,1,06,1.7,89.7,M,52.0,M,,0000*72
$GPGSA,A,3,12,24,32,19,06,02,,,,,,,2.5,1.7,1.8*32
$GPRMC,070104.000,A,4825.1028,N,00428.4665,W,0.00,272.88,190521,,,A*78
$GPGGA,070105.000,4825.1028,N,00428.4665,W,1,06,1.7,89.7,M,52.0,M,,0000*73
$GPGSA,A,3,12,24,32,19,06,02,,,,,,,2.5,1.7,1.8*32
$GPGSV,3,1,11,12,88,046,45,24,51,110,46,32,41,299,26,19,22,043,41*73
$GPGSV,3,2,11,06,08,076,34,02,06,107,35,08,42,260,,21,36,142,*7F
$GPGSV,3,3,11,07,23,140,,09,20,211,,29,18,196,*4F
$GPRMC,070105.000,A,4825.1028,N,00428.4665,W,0.00,272.88,190521,,,A*79
$GPGGA,070106.000,4825.1028,N,00428.4665,W,1,06,1.7,89.7,M,52.0,M,,0000*70
$GPGSA,A,3,12,24,32,19,06,02,,,,,,,2.5,1.7,1.8*32
$GPRMC,070106.000,A,4825.1028,N,00428.4665,W,0.00,272.88,190521,,,A*7A
$GPGGA,070107.000,4825.1028,N,00428.4665,W,1,06,1.7,89.7,M,52.0,M,,0000*71
$GPGSA,A,3,12,24,32,19,06,02,,,,,,,2.5,1.7,1.8*32
$GPRMC,070107.000,A,4825.1028,N,00428.4665,W,0.00,272.88,190521,,,A*7B
$GPGGA,070108.000,4825.1028,N,00428.4665,W,1,06,1.7,89.7,M,52.0,M,,0000*7E
$GPGSA,A,3,12,24,32,19,06,02,,,,,,,2.5,1.7,1.8*32
$GPRMC,070108.000,A,4825.1028,N,00428.4665,W,0.00,272.88,190521,,,A*74
$GPGGA,070109.000,4825.1028,N,00428.4665,W,1,06,1.7,89.7,M,52.0,M,,0000*7F
$GPGSA,A,3,12,24,32,19,06,02,,,,,,,2.5,1.7,1.8*32
$GPRMC,070109.000,A,4825.1028,N,00428.4665,W,0.00,272.88,190521,,,A*75
$GPGGA,070110.000,4825.1028,N,00428.4665,W,1,06,1.7,89.7,M,52.0,M,,0000*77
$GPGSA,A,3,12,24,32,19,06,02,,,,,,,2.5,1.7,1.8*32
$GPGSV,3,1,11,12,88,046,45,24,51,110,46,32,41,299,27,19,22,043,41*72
$GPGSV,3,2,11,06,08,076,34,02,06,107,35,08,42,260,,21,36,142,*7F
$GPGSV,3,3,11,07,23,140,,09,20,211,,29,18,196,*4F
$GPRMC,070110.000,A,4825.1028,N,00428.4665,W,0.00,272.88,190521,,,A*7D
$GPGGA,070111.000,4825.1028,N,00428.4665,W,1,06,1.7,89.7,M,52.0,M,,0000*76
$GPGSA,A,3,12,24,32,19,06,02,,,,,,,2.5,1.7,1.8*32
$GPRMC,070111.000,A,4825.1028,N,00428.4665,W,0.00,272.88,190521,,,A*7C
$GPGGA,070112.000,4825.1028,N,00428.4665,W,1,06,1.7,89.7,M,52.0,M,,0000*75
$GPGSA,A,3,12,24,32,19,06,02,,,,,,,2.5,1.7,1.8*32
$GPRMC,070112.000,A,4825.1028,N,00428.4665,W,0.00,272.88,190521,,,A*7F
$GPGGA,070113.000,4825.1028,N,00428.4665,W,1,06,1.7,89.7,M,52.0,M,,0000*74
$GPGSA,A,3,12,24,32,19,06,02,,,,,,,2.5,1.7,1.8*32
$GPRMC,070113.000,A,4825.1028,N,00428.4665,W,0.00,272.88,190521,,,A*7E
$GPGGA,070114.000,4825.1028,N,00428.4665,W,1,06,1.7,89.7,M,52.0,M,,0000*73
$GPGSA,A,3,12,24,32,19,06,02,,,,,,,2.5,1.7,1.8*32
$GPRMC,070114.000,A,4825.1028,N,00428.4665,W,0.00,272.88,190521,,,A*79
$GPGGA,070115.000,4825.1028,N,00428.4665,W,1,06,1.7,89.6,M,52.0,M,,0000*73
$GPGSA,A,3,12,24,32,19,06,02,,,,,,,2.5,1.7,1.8*32
$GPGSV,3,1,11,12,88,046,45,24,51,110,46,32,41,299,26,19,22,043,41*73
$GPGSV,3,2,11,06,08,076,34,02,06,107,36,08,42,260,,21,36,142,*7C
$GPGSV,3,3,11,07,23,140,,09,20,211,,29,18,196,*4F
$GPRMC,070115.000,A,4825.1028,N,00428.4665,W,0.00,272.88,190521,,,A*78
$GPGGA,070116.000,4825.1028,N,00428.4665,W,1,06,1.7,89.6,M,52.0,M,,0000*70
$GPGSA,A,3,12,24,32,19,06,02,,,,,,,2.5,1.7,1.8*32
$GPRMC,070116.000,A,4825.1028,N,00428.4665,W,0.00,272.88,190521,,,A*7B
$GPGGA,070117.000,4825.1028,N,00428.4665,W,1,06,1.7,89.6,M,52.0,M,,0000*71
$GPGSA,A,3,12,24,32,19,06,02,,,,,,,2.5,1.7,1.8*32
$GPRMC,070117.000,A,4825.1028,N,00428.4665,W,0.00,272.88,190521,,,A*7A
$GPGGA,070118.000,4825.1028,N,00428.4665,W,1,06,1.7,89.6,M,52.0,M,,0000*7E
$GPGSA,A,3,12,24,32,19,06,02,,,,,,,2.5,1.7,1.8*32
$GPRMC,070118.000,A,4825.1028,N,00428.4665,W,0.00,272.88,190521,,,A*75
$GPGGA,070119.000,4825.1028,N,00428.4665,W,1,06,1.7,89.6,M,52.0,M,,0000*7F
$GPGSA,A,3,12,24,32,19,06,02,,,,,,,2.5,1.7,1.8*32
$GPRMC,070119.000,A,4825.1028,N,00428.4665,W,0.00,272.88,190521,,,A*74
$GPGGA,070120.000,4825.1028,N,00428.4665,W,1,06,1.7,89.6,M,52.0,M,,0000*75
$GPGSA,A,3,12,24,32,19,06,02,,,,,,,2.5,1.7,1.8*32
$GPGSV,3,1,11,12,88,046,45,24,51,110,46,32,41,299,25,19,22,043,42*73
$GPGSV,3,2,11,06,08,076,34,02,06,107,36,08,42,260,,21,36,142,*7C
$GPGSV,3,3,11,07,23,140,,09,20,211,,29,18,196,*4F
$GPRMC,070120.000,A,4825.1028,N,00428.4665,W,0.00,272.88,190521,,,A*7E
$GPGGA,070121.000,4825.1028,N,00428.4665,W,1,06,1.7,89.6,M,52.0,M,,0000*74
$GPGSA,A,3,12,24,32,19,06,02,,,,,,,2.5,1.7,1.8*32
$GPRMC,070121.000,A,4825.1028,N,00428.4665,W,0.00,272.88,190521,,,A*7F
$GPGGA,070122.000,4825.1028,N,00428.4665,W,1,06,1.7,89.6,M,52.0,M,,0000*77
$GPGSA,A,3,12,24,32,19,06,02,,,,,,,2.5,1.7,1.8*32
$GPRMC,070122.000,A,4825.1028,N,00428.4665,W,0.00,272.88,190521,,,A*7C
$GPGGA,070123.000,4825.1028,N,00428.4665,W,1,06,1.7,89.6,M,52.0,M,,0000*76
$GPGSA,A,3,12,24,32,19,06,02,,,,,,,2.5,1.7,1.8*32
$GPRMC,070123.000,A,4825.1028,N,00428.4665,W,0.00,272.88,190521,,,A*7D
$GPGGA,070124.000,4825.1028,N,00428.4665,W,1,06,1.7,89.6,M,52.0,M,,0000*71
$GPGSA,A,3,12,24,32,19,06,02,,,,,,,2.5,1.7,1.8*32
$GPRMC,070124.000,A,4825.1028,N,00428.4665,W,0.00,272.88,190521,,,A*7A
$GPGGA,070125.000,4825.1028,N,00428.4665,W,1,06,1.7,89.6,M,52.0,M,,0000*70
$GPGSA,A,3,12,24,32,19,06,02,,,,,,,2.5,1.7,1.8*32
$GPGSV,3,1,11,12,88,046,45,24,51,110,46,32,41,299,25,19,22,043,42*73
$GPGSV,3,2,11,06,08,076,34,02,06,107,36,08,42,260,,21,36,142,*7C
$GPGSV,3,3,11,07,23,140,,09,20,211,,29,18,196,*4F
$GPRMC,070125.000,A,4825.1028,N,00428.4665,W,0.00,272.88,190521,,,A*7B
$GPGGA,070126.000,4825.1028,N,00428.4665,W,1,06,1.7,89.5,M,52.0,M,,0000*70
$GPGSA,A,3,12,24,32,19,06,02,,,,,,,2.5,1.7,1.8*32
$GPRMC,070126.000,A,4825.1028,N,00428.4665,W,0.00,272.88,190521,,,A*78
$GPGGA,070127.000,4825.1028,N,00428.4665,W,1,06,1.7,89.5,M,52.0,M,,0000*71
$GPGSA,A,3,12,24,32,19,06,02,,,,,,,2.5,1.7,1.8*32
$GPRMC,070127.000,A,4825.1028,N,00428.4665,W,0.00,272.88,190521,,,A*79
$GPGGA,070128.000,4825.1028,N,00428.4666,W,1,06,1.7,89.5,M,52.0,M,,0000*7D
$GPGSA,A,3,12,24,32,19,06,02,,,,,,,2.5,1.7,1.8*32
$GPRMC,070128.000,A,4825.1028,N,00428.4666,W,0.00,272.88,190521,,,A*75
$GPGGA,070129.000,4825.1028,N,00428.4666,W,1,06,1.7,89.5,M,52.0,M,,0000*7C
$GPGSA,A,3,12,24,32,19,06,02,,,,,,,2.5,1.7,1.8*32
$GPRMC,070129.000,A,4825.1028,N,00428.4666,W,0.00,272.88,190521,,,A*74
$GPGGA,070130.000,4825.1028,N,00428.4666,W,1,06,1.7,89.5,M,52.0,M,,0000*74
$GPGSA,A,3,12,24,32,19,06,02,,,,,,,2.5,1.7,1.8*32
$GPGSV,3,1,11,12,88,046,45,24,51,110,46,32,41,299,33,19,22,043,43*75
$GPGSV,3,2,11,06,08,076,29,02,06,107,35,08,42,260,,21,36,142,*73
$GPGSV,3,3,11,07,23,140,,09,20,211,,29,18,196,*4F
$GPRMC,070130.000,A,4825.1028,N,00428.4666,W,0.00,272.88,190521,,,A*7C
$GPGGA,070131.000,4825.1028,N,00428.4666,W,1,06,1.7,89.5,M,52.0,M,,0000*75
$GPGSA,A,3,12,24,32,19,06,02,,,,,,,2.5,1.7,1.8*32
$GPRMC,070131.000,A,4825.1028,N,00428.4666,W,0.00,272.88,190521,,,A*7D
$GPGGA,070132.000,4825.1028,N,00428.4666,W,1,06,1.7,89.5,M,52.0,M,,0000*76
$GPGSA,A,3,12,24,32,19,06,02,,,,,,,2.5,1.7,1.8*32
$GPRMC,070132.000,A,4825.1028,N,00428.4666,W,0.00,272.88,190521,,,A*7E
$GPGGA,070133.000,4825.1028,N,00428.4666,W,1,06,1.7,89.5,M,52.0,M,,0000*77
$GPGSA,A,3,12,24,32,19,06,02,,,,,,,2.5,1.7,1.8*32
$GPRMC,070133.000,A,4825.1028,N,00428.4666,W,0.00,272.88,190521,,,A*7F
$GPGGA,070134.000,4825.1028,N,00428.4666,W,1,06,1.7,89.5,M,52.0,M,,0000*70
$GPGSA,A,3,12,24,32,19,06,02,,,,,,,2.5,1.7,1.8*32
$GPRMC,070134.000,A,4825.1028,N,00428.4666,W,0.00,272.88,190521,,,A*78
$GPGGA,070135.000,4825.1028,N,00428.4666,W,1,06,1.7,89.5,M,52.0,M,,0000*71
$GPGSA,A,3,12,24,32,19,06,02,,,,,,,2.5,1.7,1.8*32
$GPGSV,3,1,11,12,88,046,45,24,51,110,46,32,41,299,20,19,22,043,43*77
$GPGSV,3,2,11,06,08,076,33,02,06,107,36,08,42,260,,21,36,142,*7B
$GPGSV,3,3,11,07,23,140,,09,20,211,,29,18,196,*4F
$GPRMC,070135.000,A,4825.1028,N,00428.4666,W,0.00,272.88,190521,,,A*79
$GPGGA,070136.000,4825.1028,N,00428.4666,W,1,06,1.7,89.5,M,52.0,M,,0000*72
$GPGSA,A,3,12,24,32,19,06,02,,,,,,,2.5,1.7,1.8*32
$GPRMC,070136.000,A,4825.1028,N,00428.4666,W,0.00,272.88,190521,,,A*7A
$GPGGA,070137.000,4825.1028,N,00428.4666,W,1,06,1.7,89.5,M,52.0,M,,0000*73
$GPGSA,A,3,12,24,32,19,06,02,,,,,,,2.5,1.7,1.8*32
$GPRMC,070137.000,A,4825.1028,N,00428.4666,W,0.00,272.88,190521,,,A*7B
$GPGGA,070138.000,4825.1028,N,00428.4666,W,1,06,1.7,89.5,M,52.0,M,,0000*7C
$GPGSA,A,3,12,24,32,19,06,02,,,,,,,2.5,1.7,1.8*32
$GPRMC,070138.000,A,4825.1028,N,00428.4666,W,0.00,272.88,190521,,,A*74
$GPGGA,070139.000,4825.1028,N,00428.4666,W,1,06,1.7,89.5,M,52.0,M,,0000*7D
$GPGSA,A,3,12,24,32,19,06,02,,,,,,,2.5,1.7,1.8*32
$GPRMC,070139.000,A,4825.1028,N,00428.4666,W,0.00,272.88,190521,,,A*75
$GPGGA,070140.000,4825.1028,N,00428.4666,W,1,06,1.7,89.5,M,52.0,M,,0000*73
$GPGSA,A,3,12,24,32,19,06,02,,,,,,,2.5,1.7,1.8*32
$GPGSV,3,1,11,12,88,046,46,24,51,110,46,32,41,299,26,19,22,043,42*73
$GPGSV,3,2,11,06,08,076,34,02,06,107,36,08,42,260,,21,36,142,*7C
$GPGSV,3,3,11,07,23,140,,09,20,211,,29,18,196,*4F
$GPRMC,070140.000,A,4825.1028,N,00428.4666,W,0.00,272.88,190521,,,A*7B
$GPGGA,070141.000,4825.1028,N,00428.4666,W,1,06,1.7,89.5,M,52.0,M,,0000*72
$GPGSA,A,3,12,24,32,19,06,02,,,,,,,2.5,1.7,1.8*32
$GPRMC,070141.000,A,4825.1028,N,00428.4666,W,0.00,272.88,190521,,,A*7A
$GPGGA,070142.000,4825.1028,N,00428.4666,W,1,06,1.7,89.5,M,52.0,M,,0000*71
$GPGSA,A,3,12,24,32,19,06,02,,,,,,,2.5,1.7,1.8*32
$GPRMC,070142.000,A,4825.1028,N,00428.4666,W,0.00,272.88,190521,,,A*79
$GPGGA,070143.000,4825.1028,N,00428.4666,W,1,06,1.7,89.5,M,52.0,M,,0000*70
$GPGSA,A,3,12,24,32,19,06,02,,,,,,,2.5,1.7,1.8*32
$GPRMC,070143.000,A,4825.1028,N,00428.4666,W,0.00,272.88,190521,,,A*78
$GPGGA,070144.000,4825.1028,N,00428.4666,W,1,06,1.7,89.4,M,52.0,M,,0000*76
$GPGSA,A,3,12,24,32,19,06,02,,,,,,,2.5,1.7,1.8*32
$GPRMC,070144.000,A,4825.1028,N,00428.4666,W,0.00,272.88,190521,,,A*7F
$GPGGA,070145.000,4825.1027,N,00428.4666,W,1,06,1.7,89.4,M,52.0,M,,0000*78
$GPGSA,A,3,12,24,32,19,06,02,,,,,,,2.5,1.7,1.8*32
$GPGSV,3,1,11,12,88,046,46,24,51,110,47,32,41,299,23,19,22,043,42*77
$GPGSV,3,2,11,06,08,076,35,02,06,107,38,08,42,260,,21,36,142,*73
$GPGSV,3,3,11,07,23,140,,09,20,211,,29,18,196,*4F
$GPRMC,070145.000,A,4825.1027,N,00428.4666,W,0.00,272.88,190521,,,A*71
$GPGGA,070146.000,4825.1027,N,00428.4666,W,1,06,1.7,89.4,M,52.0,M,,0000*7B
$GPGSA,A,3,12,24,32,19,06,02,,,,,,,2.5,1.7,1.8*32
$GPRMC,070146.000,A,4825.1027,N,00428.4666,W,0.00,272.88,190521,,,A*72
$GPGGA,070147.000,4825.1027,N,00428.4666,W,1,06,1.7,89.4,M,52.0,M,,0000*7A
$GPGSA,A,3,12,24,32,19,06,02,,,,,,,2.5,1.7,1.8*32
$GPRMC,070147.000,A,4825.1027,N,00428.4666,W,0.00,272.88,190521,,,A*73
$GPGGA,070148.000,4825.1027,N,00428.4666,W,1,06,1.7,89.4,M,52.0,M,,0000*75
$GPGSA,A,3,12,24,32,19,06,02,,,,,,,2.5,1.7,1.8*32
$GPRMC,070148.000,A,4825.1027,N,00428.4666,W,0.00,272.88,190521,,,A*7C
$GPGGA,070149.000,4825.1027,N,00428.4666,W,1,06,1.7,89.4,M,52.0,M,,0000*74
$GPGSA,A,3,12,24,32,19,06,02,,,,,,,2.5,1.7,1.8*32
$GPRMC,070149.000,A,4825.1027,N,00428.4666,W,0.00,272.88,190521,,,A*7D
$GPGGA,070150.000,4825.1027,N,00428.4666,W,1,06,1.7,89.4,M,52.0,M,,0000*7C
$GPGSA,A,3,12,24,32,19,06,02,,,,,,,2.5,1.7,1.8*32
$GPGSV,3,1,11,12,88,046,45,24,51,110,47,32,41,299,23,19,22,043,42*74
$GPGSV,3,2,11,06,08,076,34,02,06,107,38,08,42,260,,21,36,142,*72
$GPGSV,3,3,11,07,23,140,,09,20,211,,29,18,196,*4F
$GPRMC,070150.000,A,4825.1027,N,00428.4666,W,0.00,272.88,190521,,,A*75
$GPGGA,070151.000,4825.1027,N,00428.4666,W,1,06,1.7,89.4,M,52.0,M,,0000*7D
$GPGSA,A,3,12,24,32,19,06,02,,,,,,,2.5,1.7,1.8*32
$GPRMC,070151.000,A,4825.1027,N,00428.4666,W,0.00,272.88,190521,,,A*74
$GPGGA,070152.000,4825.1027,N,00428.4666,W,1,06,1.7,89.4,M,52.0,M,,0000*7E
$GPGSA,A,3,12,24,32,19,06,02,,,,,,,2.5,1.7,1.8*32
$GPRMC,070152.000,A,4825.1027,N,00428.4666,W,0.00,272.88,190521,,,A*77
$GPGGA,070153.000,4825.1027,N,00428.4666,W,1,06,1.7,89.4,M,52.0,M,,0000*7F
$GPGSA,A,3,12,24,32,19,06,02,,,,,,,2.5,1.7,1.8*32
$GPRMC,070153.000,A,4825.1027,N,00428.4666,W,0.00,272.88,190521,,,A*76
$GPGGA,070154.000,4825.1027,N,00428.4666,W,1,06,1.7,89.4,M,52.0,M,,0000*78
$GPGSA,A,3,12,24,32,19,06,02,,,,,,,2.5,1.7,1.8*32
$GPRMC,070154.000,A,4825.1027,N,00428.4666,W,0.00,272.88,190521,,,A*71
$GPGGA,070155.000,4825.1027,N,00428.4666,W,1,06,1.7,89.4,M,52.0,M,,0000*79
$GPGSA,A,3,12,24,32,19,06,02,,,,,,,2.5,1.7,1.8*32
$GPGSV,3,1,11,12,88,046,45,24,51,110,47,32,41,299,23,19,22,043,42*74
$GPGSV,3,2,11,06,08,076,30,02,06,107,38,08,42,260,,21,36,142,*76
$GPGSV,3,3,11,07,23,140,,09,20,211,,29,18,196,*4F
$GPRMC,070155.000,A,4825.1027,N,00428.4666,W,0.00,272.88,190521,,,A*70
$GPGGA,070156.000,4825.1027,N,00428.4666,W,1,06,1.7,89.4,M,52.0,M,,0000*7A
$GPGSA,A,3,12,24,32,19,06,02,,,,,,,2.5,1.7,1.8*32
$GPRMC,070156.000,A,4825.1027,N,00428.4666,W,0.00,272.88,190521,,,A*73
$GPGGA,070157.000,4825.1027,N,00428.4666,W,1,06,1.7,89.4,M,52.0,M,,0000*7B
$GPGSA,A,3,12,24,32,19,06,02,,,,,,,2.5,1.7,1.8*32
$GPRMC,070157.000,A,4825.1027,N,00428.4666,W,0.00,272.88,190521,,,A*72
$GPGGA,070158.000,4825.1027,N,00428.4666,W,1,06,1.7,89.4,M,52.0,M,,0000*74
$GPGSA,A,3,12,24,32,19,06,02,,,,,,,2.5,1.7,1.8*32
$GPRMC,070158.000,A,4825.1027,N,00428.4666,W,0.00,272.88,190521,,,A*7D
$GPGGA,070159.000,4825.1027,N,00428.4666,W,1,06,1.7,89.4,M,52.0,M,,0000*75
$GPGSA,A,3,12,24,32,19,06,02,,,,,,,2.5,1.7,1.8*32
