$GPGGA,064301.00,4825.105061,N,00428.464730,W,1,20,0.8,91.7,M,52.2,M,,*4A
$GPGSV,3,1,11,12,82,221,40,24,60,103,41,25,41,237,26,32,36,306,34*76
$GPGSV,3,2,11,19,28,050,40,10,17,259,20,15,15,166,32,17,11,032,39*7D
$GPGSV,3,3,11,23,07,229,,06,04,083,,02,00,113,*4E
$GLGSV,3,1,10,79,57,294,33,78,54,048,41,69,51,264,30,88,29,093,43*6C
$GLGSV,3,2,10,87,28,046,43,68,25,202,31,70,20,332,32,81,07,140,27*66
$GLGSV,3,3,10,80,05,266,,77,05,074,*6D
$BDGSV,3,1,12,236,80,034,40,230,31,121,39,227,27,060,35,208,05,057,26*65
$BDGSV,3,2,12,221,32,292,,222,30,231,,205,08,111,,229,05,167,*60
$BDGSV,3,3,12,210,03,054,,219,02,188,,213,00,077,,228,00,018,*62
$GAGSV,2,1,08,127,85,328,,119,41,300,,118,36,077,,121,34,250,*63
$GAGSV,2,2,08,130,33,063,,107,21,174,,136,07,020,,115,07,117,*64
$GPGSA,A,3,10,12,15,17,19,24,25,32,,,,,1.5,0.8,1.2*35
$GNGSA,A,3,10,12,15,17,19,24,25,32,,,,,1.5,0.8,1.2*2B
$GNGSA,A,3,68,69,70,78,79,81,87,88,,,,,1.5,0.8,1.2*22
$GNGSA,A,3,,,,,,,,,,,,,1.5,0.8,1.2*23
$QZGSA,A,3,,,,,,,,,,,,,1.5,0.8,1.2*21
$BDGSA,A,3,208,227,230,236,,,,,,,,,1.5,0.8,1.2*27
$GAGSA,A,3,,,,,,,,,,,,,1.5,0.8,1.2*2C
$GIGSA,A,3,,,,,,,,,,,,,1.5,0.8,1.2*24
$GPRMC,064301.00,A,4825.105061,N,00428.464730,W,000.0,,190521,,,A*68
$GPGGA,064302.00,4825.105045,N,00428.464742,W,1,21,0.8,91.2,M,52.2,M,,*4E
$GPGSV,3,1,11,12,82,221,41,24,60,103,41,25,41,237,26,32,36,306,35*76
$GPGSV,3,2,11,19,28,050,39,10,17,259,22,15,15,166,31,17,11,032,38*73
$GPGSV,3,3,11,23,07,229,,06,04,083,,02,00,113,*4E
$GLGSV,3,1,10,79,57,294,33,78,54,048,42,69,51,264,30,88,29,093,42*6E
$GLGSV,3,2,10,87,28,046,43,68,25,202,30,70,20,332,32,81,07,140,27*67
$GLGSV,3,3,10,80,05,266,,77,05,074,*6D
$BDGSV,3,1,12,236,80,034,40,221,32,292,27,230,31,121,39,227,27,060,35*60
$BDGSV,3,2,12,208,05,057,25,222,30,231,,205,08,111,,229,05,167,*63
$BDGSV,3,3,12,210,03,054,,219,02,188,,213,00,077,,228,00,018,*62
$GAGSV,2,1,08,127,85,328,,119,41,300,,118,36,077,,121,34,250,*63
$GAGSV,2,2,08,130,33,063,,107,21,174,,136,07,020,,115,07,117,*64
$GPGSA,A,3,10,12,15,17,19,24,25,32,,,,,1.5,0.8,1.2*35
$GNGSA,A,3,10,12,15,17,19,24,25,32,,,,,1.5,0.8,1.2*2B
$GNGSA,A,3,68,69,70,78,79,81,87,88,,,,,1.5,0.8,1.2*22
$GNGSA,A,3,,,,,,,,,,,,,1.5,0.8,1.2*23
$QZGSA,A,3,,,,,,,,,,,,,1.5,0.8,1.2*21
$BDGSA,A,3,208,221,227,230,236,,,,,,,,1.5,0.8,1.2*16
$GAGSA,A,3,,,,,,,,,,,,,1.5,0.8,1.2*2C
$GIGSA,A,3,,,,,,,,,,,,,1.5,0.8,1.2*24
$GPRMC,064302.00,A,4825.105045,N,00428.464742,W,000.0,,190521,,,A*68
$GPGGA,064303.00,4825.105035,N,00428.464747,W,1,22,0.8,91.0,M,52.2,M,,*4C
$GPGSV,3,1,11,12,82,221,40,24,60,103,41,25,41,237,26,32,36,306,35*77
$GPGSV,3,2,11,19,28,050,39,10,17,259,22,15,15,166,31,17,11,032,38*73
$GPGSV,3,3,11,23,07,229,,06,04,083,,02,00,113,*4E
$GLGSV,3,1,10,79,57,294,35,78,54,048,43,69,51,264,30,88,29,093,42*69
$GLGSV,3,2,10,87,28,046,42,68,25,202,31,70,20,332,31,81,07,140,26*65
$GLGSV,3,3,10,80,05,266,,77,05,074,*6D
$BDGSV,3,1,12,236,80,034,41,221,32,292,27,230,31,121,39,222,30,231,26*66
$BDGSV,3,2,12,227,27,060,34,208,05,057,25,205,08,111,,229,05,167,*61
$BDGSV,3,3,12,210,03,054,,219,02,188,,213,00,077,,228,00,018,*62
$GAGSV,2,1,08,127,85,329,,119,41,300,,118,36,077,,121,34,250,*62
$GAGSV,2,2,08,130,33,063,,107,21,174,,136,07,020,,115,07,117,*64
$GPGSA,A,3,10,12,15,17,19,24,25,32,,,,,1.4,0.8,1.1*37
$GNGSA,A,3,10,12,15,17,19,24,25,32,,,,,1.4,0.8,1.1*29
$GNGSA,A,3,68,69,70,78,79,81,87,88,,,,,1.4,0.8,1.1*20
$GNGSA,A,3,,,,,,,,,,,,,1.4,0.8,1.1*21
$QZGSA,A,3,,,,,,,,,,,,,1.4,0.8,1.1*23
$BDGSA,A,3,208,221,222,227,230,236,,,,,,,1.4,0.8,1.1*26
$GAGSA,A,3,,,,,,,,,,,,,1.4,0.8,1.1*2E
$GIGSA,A,3,,,,,,,,,,,,,1.4,0.8,1.1*26
$GPRMC,064303.00,A,4825.105035,N,00428.464747,W,000.0,,190521,,,A*6B
$GPGGA,064304.00,4825.105012,N,00428.464757,W,1,22,0.8,90.7,M,52.2,M,,*49
$GPGSV,3,1,11,12,82,221,41,24,60,103,41,25,41,238,26,32,36,306,34*78
$GPGSV,3,2,11,19,28,050,39,10,17,259,25,15,15,166,31,17,11,032,38*74
$GPGSV,3,3,11,23,07,229,,06,04,083,,02,01,113,*4F
$GLGSV,3,1,10,79,57,294,34,78,54,048,44,69,51,264,30,88,29,093,42*6F
$GLGSV,3,2,10,87,28,046,42,68,25,202,30,70,20,332,31,81,07,140,26*64
$GLGSV,3,3,10,77,05,074,,80,05,266,*6D
$BDGSV,3,1,12,236,80,034,41,221,32,292,27,230,31,121,39,222,30,231,26*66
$BDGSV,3,2,12,227,27,060,34,208,05,057,25,205,08,111,,229,05,167,*61
$BDGSV,3,3,12,210,03,054,,219,02,188,,213,00,077,,228,00,018,*62
$GAGSV,2,1,08,127,85,329,,119,41,300,,118,36,077,,121,34,250,*62
$GAGSV,2,2,08,130,33,063,,107,21,174,,136,07,020,,115,07,117,*64
$GPGSA,A,3,10,12,15,17,19,24,25,32,,,,,1.4,0.8,1.1*37
$GNGSA,A,3,10,12,15,17,19,24,25,32,,,,,1.4,0.8,1.1*29
$GNGSA,A,3,68,69,70,78,79,81,87,88,,,,,1.4,0.8,1.1*20
$GNGSA,A,3,,,,,,,,,,,,,1.4,0.8,1.1*21
$QZGSA,A,3,,,,,,,,,,,,,1.4,0.8,1.1*23
$BDGSA,A,3,208,221,222,227,230,236,,,,,,,1.4,0.8,1.1*26
$GAGSA,A,3,,,,,,,,,,,,,1.4,0.8,1.1*2E
$GIGSA,A,3,,,,,,,,,,,,,1.4,0.8,1.1*26
$GPRMC,064304.00,A,4825.105012,N,00428.464757,W,000.0,,190521,,,A*68
$GPGGA,064305.00,4825.104993,N,00428.464756,W,1,22,0.8,91.1,M,52.2,M,,*4F
$GPGSV,3,1,11,12,82,221,42,24,60,103,42,25,41,237,25,32,36,306,34*74
$GPGSV,3,2,11,19,28,050,40,10,17,259,25,15,15,166,33,17,11,032,37*77
$GPGSV,3,3,11,23,07,229,,06,04,083,,02,00,113,*4E
$GLGSV,3,1,10,79,57,294,34,78,54,048,46,69,51,264,31,88,29,093,42*6C
$GLGSV,3,2,10,87,28,046,42,68,25,202,30,70,20,332,30,81,07,140,26*65
$GLGSV,3,3,10,80,05,266,,77,05,074,*6D
$BDGSV,3,1,12,236,80,034,41,221,32,292,27,230,31,121,38,222,30,231,26*67
$BDGSV,3,2,12,227,27,060,34,208,05,057,25,205,08,111,,229,05,167,*61
$BDGSV,3,3,12,210,03,054,,219,02,188,,213,00,077,,228,00,018,*62
$GAGSV,2,1,08,127,85,329,,119,41,300,,118,36,077,,121,34,250,*62
$GAGSV,2,2,08,130,33,063,,107,21,174,,136,07,020,,115,07,117,*64
$GPGSA,A,3,10,12,15,17,19,24,25,32,,,,,1.4,0.8,1.1*37
$GNGSA,A,3,10,12,15,17,19,24,25,32,,,,,1.4,0.8,1.1*29
$GNGSA,A,3,68,69,70,78,79,81,87,88,,,,,1.4,0.8,1.1*20
$GNGSA,A,3,,,,,,,,,,,,,1.4,0.8,1.1*21
$QZGSA,A,3,,,,,,,,,,,,,1.4,0.8,1.1*23
$BDGSA,A,3,208,221,222,227,230,236,,,,,,,1.4,0.8,1.1*26
$GAGSA,A,3,,,,,,,,,,,,,1.4,0.8,1.1*2E
$GIGSA,A,3,,,,,,,,,,,,,1.4,0.8,1.1*26
$GPRMC,064305.00,A,4825.104993,N,00428.464756,W,000.0,,190521,,,A*69
$GPGGA,064306.00,4825.104966,N,00428.464746,W,1,23,0.8,91.0,M,52.2,M,,*47
$GPGSV,3,1,11,12,82,221,42,24,60,103,42,25,41,238,25,32,36,306,33*7C
$GPGSV,3,2,11,19,28,050,40,10,17,259,25,15,15,166,33,17,11,032,37*77
$GPGSV,3,3,11,23,07,229,,06,04,083,,02,01,113,*4F
$GLGSV,3,1,10,79,57,294,35,78,54,048,45,69,51,264,31,88,29,093,42*6E
$GLGSV,3,2,10,87,28,046,42,68,25,202,30,70,20,332,30,81,07,140,26*65
$GLGSV,3,3,10,80,05,266,28,77,05,074,*67
$BDGSV,3,1,12,236,80,034,41,221,32,292,27,230,31,121,38,222,30,231,26*67
$BDGSV,3,2,12,227,27,060,34,208,05,057,24,205,08,111,,229,05,167,*60
$BDGSV,3,3,12,210,03,054,,219,02,188,,213,00,077,,228,00,018,*62
$GAGSV,2,1,08,127,85,329,,119,41,300,,118,36,077,,121,34,250,*62
$GAGSV,2,2,08,130,33,063,,107,21,174,,136,07,020,,115,07,117,*64
$GPGSA,A,3,10,12,15,17,19,24,25,32,,,,,1.4,0.8,1.1*37
$GNGSA,A,3,10,12,15,17,19,24,25,32,,,,,1.4,0.8,1.1*29
$GNGSA,A,3,68,69,70,78,79,80,81,87,88,,,,1.4,0.8,1.1*28
$GNGSA,A,3,,,,,,,,,,,,,1.4,0.8,1.1*21
$QZGSA,A,3,,,,,,,,,,,,,1.4,0.8,1.1*23
$BDGSA,A,3,208,221,222,227,230,236,,,,,,,1.4,0.8,1.1*26
$GAGSA,A,3,,,,,,,,,,,,,1.4,0.8,1.1*2E
$GIGSA,A,3,,,,,,,,,,,,,1.4,0.8,1.1*26
$GPRMC,064306.00,A,4825.104966,N,00428.464746,W,000.0,,190521,,,A*61
$GPGGA,064307.00,4825.104242,N,00428.464654,W,1,23,0.8,90.5,M,52.2,M,,*4D
$GPGSV,3,1,11,12,82,221,42,24,60,103,42,25,41,238,25,32,36,306,33*7C
$GPGSV,3,2,11,19,28,050,40,10,17,259,25,15,15,166,33,17,11,032,36*76
$GPGSV,3,3,11,23,07,229,,06,04,083,,02,01,113,*4F
$GLGSV,3,1,10,79,57,294,35,78,54,048,45,69,51,264,31,88,29,093,42*6E
$GLGSV,3,2,10,87,28,046,42,68,25,202,31,70,20,332,29,81,07,140,25*6F
$GLGSV,3,3,10,80,05,266,28,77,05,074,*67
$BDGSV,3,1,12,236,80,034,42,221,32,292,27,230,31,121,38,222,30,231,28*6A
$BDGSV,3,2,12,227,27,060,34,208,05,057,24,205,08,111,,229,05,167,*60
$BDGSV,3,3,12,210,03,054,,219,02,188,,213,00,077,,228,00,018,*62
$GAGSV,2,1,08,127,85,329,,119,41,300,,118,36,077,,121,34,250,*62
$GAGSV,2,2,08,130,33,063,,107,21,174,,136,07,020,,115,07,117,*64
$GPGSA,A,3,10,12,15,17,19,24,25,32,,,,,1.4,0.8,1.2*34
$GNGSA,A,3,10,12,15,17,19,24,25,32,,,,,1.4,0.8,1.2*2A
$GNGSA,A,3,68,69,70,78,79,80,81,87,88,,,,1.4,0.8,1.2*2B
$GNGSA,A,3,,,,,,,,,,,,,1.4,0.8,1.2*22
$QZGSA,A,3,,,,,,,,,,,,,1.4,0.8,1.2*20
$BDGSA,A,3,208,221,222,227,230,236,,,,,,,1.4,0.8,1.2*25
$GAGSA,A,3,,,,,,,,,,,,,1.4,0.8,1.2*2D
$GIGSA,A,3,,,,,,,,,,,,,1.4,0.8,1.2*25
$GPRMC,064307.00,A,4825.104242,N,00428.464654,W,000.0,,190521,,,A*6F
$GPGGA,064308.00,4825.104223,N,00428.464648,W,1,23,0.6,90.0,M,52.2,M,,*43
$GPGSV,3,1,11,12,82,221,42,24,60,103,42,25,41,238,24,32,36,306,33*7D
$GPGSV,3,2,11,19,28,050,40,10,17,259,25,15,15,166,33,17,11,032,35*75
$GPGSV,3,3,11,23,07,229,,06,04,083,,02,01,113,*4F
$GLGSV,3,1,10,79,57,294,36,78,54,048,45,69,51,264,31,88,29,093,43*6C
$GLGSV,3,2,10,87,28,046,42,68,25,202,32,70,20,332,29,81,07,140,25*6C
$GLGSV,3,3,10,80,05,266,28,77,05,074,*67
$BDGSV,3,1,12,236,80,035,42,221,32,292,28,230,31,121,38,222,30,231,29*65
$BDGSV,3,2,12,227,27,060,34,208,05,057,24,205,08,111,,229,05,167,*60
$BDGSV,3,3,12,210,03,054,,219,02,188,,213,00,077,,228,00,018,*62
$GAGSV,2,1,08,127,85,329,,119,41,300,,118,36,077,,121,34,250,*62
$GAGSV,2,2,08,130,33,063,,107,21,174,,136,07,020,,115,07,117,*64
$GPGSA,A,3,10,12,15,17,19,24,25,32,,,,,1.4,0.8,1.1*37
$GNGSA,A,3,10,12,15,17,19,24,25,32,,,,,1.4,0.8,1.1*29
$GNGSA,A,3,68,69,70,78,79,80,81,87,88,,,,1.4,0.8,1.1*28
$GNGSA,A,3,,,,,,,,,,,,,1.4,0.8,1.1*21
$QZGSA,A,3,,,,,,,,,,,,,1.4,0.8,1.1*23
$BDGSA,A,3,208,221,222,227,230,236,,,,,,,1.4,0.8,1.1*26
$GAGSA,A,3,,,,,,,,,,,,,1.4,0.8,1.1*2E
$GIGSA,A,3,,,,,,,,,,,,,1.4,0.8,1.1*26
$GPRMC,064308.00,A,4825.104223,N,00428.464648,W,000.0,,190521,,,A*6A
$GPGGA,064309.00,4825.104203,N,00428.464651,W,1,24,0.6,89.8,M,52.2,M,,*4F
$GPGSV,3,1,11,12,82,221,42,24,60,103,42,25,41,238,24,32,36,306,33*7D
$GPGSV,3,2,11,19,28,050,40,10,17,259,26,15,15,166,33,17,11,032,35*76
$GPGSV,3,3,11,23,07,229,,06,04,083,,02,01,113,*4F
$GLGSV,3,1,10,79,57,294,36,78,54,048,45,69,51,264,31,88,29,093,43*6C
$GLGSV,3,2,10,87,28,046,42,68,25,202,32,70,20,332,29,81,07,140,26*6F
$GLGSV,3,3,10,80,05,266,28,77,05,074,*67
$BDGSV,3,1,12,236,80,035,42,221,32,292,28,230,31,121,37,222,30,231,29*6A
$BDGSV,3,2,12,227,27,060,34,208,05,057,24,205,08,111,,229,05,167,*60
$BDGSV,3,3,12,210,03,054,,219,02,188,,213,00,077,,228,00,018,*62
$GAGSV,2,1,08,127,85,329,36,119,41,300,,118,36,077,,121,34,250,*67
$GAGSV,2,2,08,130,33,063,,107,21,174,,136,07,020,,115,07,117,*64
$GPGSA,A,3,10,12,15,17,19,24,25,32,,,,,1.4,0.8,1.1*37
$GNGSA,A,3,10,12,15,17,19,24,25,32,,,,,1.4,0.8,1.1*29
$GNGSA,A,3,68,69,70,78,79,80,81,87,88,,,,1.4,0.8,1.1*28
$GNGSA,A,3,,,,,,,,,,,,,1.4,0.8,1.1*21
$QZGSA,A,3,,,,,,,,,,,,,1.4,0.8,1.1*23
$BDGSA,A,3,208,221,222,227,230,236,,,,,,,1.4,0.8,1.1*26
$GAGSA,A,3,127,,,,,,,,,,,,1.4,0.8,1.1*1A
$GIGSA,A,3,,,,,,,,,,,,,1.4,0.8,1.1*26
$GPRMC,064309.00,A,4825.104203,N,00428.464651,W,000.0,,190521,,,A*61
$GPGGA,064310.00,4825.103997,N,00428.464653,W,1,23,0.6,89.3,M,52.2,M,,*48
$GPGSV,3,1,11,12,82,221,42,24,60,103,42,25,41,238,23,32,36,306,32*7B
$GPGSV,3,2,11,19,28,050,40,10,17,259,26,15,15,166,33,17,11,032,35*76
$GPGSV,3,3,11,23,07,229,,06,04,083,,02,01,113,*4F
$GLGSV,3,1,10,79,57,294,36,78,54,048,45,69,51,264,30,88,29,093,43*6D
$GLGSV,3,2,10,87,28,046,42,68,25,202,32,70,20,332,29,81,07,140,26*6F
$GLGSV,3,3,10,80,05,266,28,77,05,074,*67
$BDGSV,3,1,12,236,80,035,42,221,32,292,28,230,31,121,37,222,30,231,29*6A
$BDGSV,3,2,12,227,27,060,34,208,05,057,23,205,08,111,,229,05,167,*67
$BDGSV,3,3,12,210,03,054,,219,02,188,,213,00,077,,228,00,018,*62
$GAGSV,2,1,08,127,85,329,36,119,41,300,,118,36,077,,121,34,250,*67
$GAGSV,2,2,08,130,33,063,,107,21,174,,136,07,020,,115,07,117,*64
$GPGSA,A,3,10,12,15,17,19,24,25,32,,,,,1.4,0.8,1.1*37
$GNGSA,A,3,10,12,15,17,19,24,25,32,,,,,1.4,0.8,1.1*29
$GNGSA,A,3,68,69,70,78,79,80,81,87,88,,,,1.4,0.8,1.1*28
$GNGSA,A,3,,,,,,,,,,,,,1.4,0.8,1.1*21
$QZGSA,A,3,,,,,,,,,,,,,1.4,0.8,1.1*23
$BDGSA,A,3,221,222,227,230,236,,,,,,,,1.4,0.8,1.1*1C
$GAGSA,A,3,127,,,,,,,,,,,,1.4,0.8,1.1*1A
$GIGSA,A,3,,,,,,,,,,,,,1.4,0.8,1.1*26
$GPRMC,064310.00,A,4825.103997,N,00428.464653,W,000.0,,190521,,,A*6A
$GPGGA,064311.00,4825.103993,N,00428.464661,W,1,25,0.6,88.7,M,52.2,M,,*4F
$GPGSV,3,1,11,12,82,221,42,24,60,103,42,25,41,238,23,32,36,306,32*7B
$GPGSV,3,2,11,19,28,050,40,10,17,259,25,15,15,166,33,17,11,032,34*74
$GPGSV,3,3,11,23,07,229,,06,04,083,,02,01,113,*4F
$GLGSV,3,1,10,79,57,294,36,78,54,048,46,69,51,264,30,88,29,093,43*6E
$GLGSV,3,2,10,87,28,046,43,68,25,202,32,70,20,332,29,81,07,140,26*6E
$GLGSV,3,3,10,80,05,266,28,77,05,074,*67
$BDGSV,3,1,12,236,80,035,42,221,32,292,27,230,31,120,37,222,30,231,28*65
$BDGSV,3,2,12,227,27,060,34,208,05,057,23,205,08,111,,229,05,167,*67
$BDGSV,3,3,12,210,03,054,,219,02,188,,213,00,077,,228,00,018,*62
$GAGSV,2,1,08,127,85,329,37,130,33,063,38,119,41,300,,118,36,077,*68
$GAGSV,2,2,08,121,34,250,,107,21,174,,136,07,020,,115,07,117,*61
$GPGSA,A,3,10,12,15,17,19,24,25,32,,,,,1.4,0.8,1.1*37
$GNGSA,A,3,10,12,15,17,19,24,25,32,,,,,1.4,0.8,1.1*29
$GNGSA,A,3,68,69,70,78,79,80,81,87,88,,,,1.4,0.8,1.1*28
$GNGSA,A,3,,,,,,,,,,,,,1.4,0.8,1.1*21
$QZGSA,A,3,,,,,,,,,,,,,1.4,0.8,1.1*23
$BDGSA,A,3,208,221,222,227,230,236,,,,,,,1.4,0.8,1.1*26
$GAGSA,A,3,127,130,,,,,,,,,,,1.4,0.8,1.1*28
$GIGSA,A,3,,,,,,,,,,,,,1.4,0.8,1.1*26
$GPRMC,064311.00,A,4825.103993,N,00428.464661,W,000.0,,190521,,,A*6E
$GPGGA,064312.00,4825.103983,N,00428.464660,W,1,27,0.6,88.2,M,52.2,M,,*4B
$GPGSV,3,1,11,12,82,221,42,24,60,103,42,25,41,238,22,32,36,306,31*79
$GPGSV,3,2,11,19,28,050,40,10,17,259,25,15,15,166,33,17,11,032,34*74
$GPGSV,3,3,11,23,07,229,,06,04,083,,02,01,113,*4F
$GLGSV,3,1,10,79,57,294,36,78,54,048,46,69,51,264,30,88,29,093,43*6E
$GLGSV,3,2,10,87,28,046,43,68,25,202,31,70,20,332,28,81,07,140,27*6D
$GLGSV,3,3,10,80,05,266,27,77,05,074,*68
$BDGSV,3,1,12,236,80,035,42,221,32,292,27,230,31,121,37,222,30,231,28*64
$BDGSV,3,2,12,227,27,060,34,208,05,057,22,205,08,111,,229,05,167,*66
$BDGSV,3,3,12,210,03,054,,219,02,188,,213,00,077,,228,00,018,*62
$GAGSV,2,1,08,127,85,329,37,130,33,063,38,107,21,174,32,115,07,117,36*6C
$GAGSV,2,2,08,119,41,300,,118,36,077,,121,34,250,,136,07,020,*61
$GPGSA,A,3,10,12,15,17,19,24,25,32,,,,,1.5,0.8,1.2*35
$GNGSA,A,3,10,12,15,17,19,24,25,32,,,,,1.5,0.8,1.2*2B
$GNGSA,A,3,68,69,70,78,79,80,81,87,88,,,,1.5,0.8,1.2*2A
$GNGSA,A,3,,,,,,,,,,,,,1.5,0.8,1.2*23
$QZGSA,A,3,,,,,,,,,,,,,1.5,0.8,1.2*21
$BDGSA,A,3,208,221,222,227,230,236,,,,,,,1.5,0.8,1.2*24
$GAGSA,A,3,107,115,127,130,,,,,,,,,1.5,0.8,1.2*29
$GIGSA,A,3,,,,,,,,,,,,,1.5,0.8,1.2*24
$GPRMC,064312.00,A,4825.103983,N,00428.464660,W,000.0,,190521,,,A*6D
$GPGGA,064313.00,4825.103689,N,00428.464815,W,1,29,0.6,87.7,M,52.2,M,,*47
$GPGSV,3,1,11,12,82,221,42,24,60,103,42,25,41,238,26,32,36,306,31*7D
$GPGSV,3,2,11,19,28,050,40,10,17,259,25,15,15,166,33,17,11,032,34*74
$GPGSV,3,3,11,23,07,229,17,06,04,083,,02,01,113,*49
$GLGSV,3,1,10,79,57,294,36,78,54,048,46,69,51,264,30,88,29,093,43*6E
$GLGSV,3,2,10,87,28,046,43,68,25,202,30,70,20,332,28,81,07,140,27*6C
$GLGSV,3,3,10,80,05,266,27,77,05,074,*68
$BDGSV,3,1,12,236,80,035,42,221,32,292,27,230,31,120,37,222,30,231,28*65
$BDGSV,3,2,12,227,27,060,35,208,05,057,22,205,08,111,,229,05,167,*67
$BDGSV,3,3,12,210,03,054,,219,02,188,,213,00,077,,228,00,018,*62
$GAGSV,2,1,08,127,85,329,37,118,36,077,39,130,33,063,38,107,21,174,32*6B
$GAGSV,2,2,08,136,07,020,29,115,07,117,36,119,41,300,,121,34,250,*67
$GPGSA,A,3,10,12,15,17,19,24,25,32,,,,,1.4,0.8,1.1*37
$GNGSA,A,3,10,12,15,17,19,24,25,32,,,,,1.4,0.8,1.1*29
$GNGSA,A,3,68,69,70,78,79,80,81,87,88,,,,1.4,0.8,1.1*28
$GNGSA,A,3,,,,,,,,,,,,,1.4,0.8,1.1*21
$QZGSA,A,3,,,,,,,,,,,,,1.4,0.8,1.1*23
$BDGSA,A,3,208,221,222,227,230,236,,,,,,,1.4,0.8,1.1*26
$GAGSA,A,3,107,115,118,127,130,136,,,,,,,1.4,0.8,1.1*27
$GIGSA,A,3,,,,,,,,,,,,,1.4,0.8,1.1*26
$GPRMC,064313.00,A,4825.103689,N,00428.464815,W,000.0,,190521,,,A*65
$GPGGA,064314.00,4825.103678,N,00428.464812,W,1,29,0.6,87.3,M,52.2,M,,*4D
$GPGSV,3,1,11,12,82,221,42,24,60,103,42,25,41,238,27,32,36,306,31*7C
$GPGSV,3,2,11,19,28,050,40,10,17,259,25,15,15,166,33,17,11,032,33*73
$GPGSV,3,3,11,23,07,229,17,06,04,083,,02,01,113,*49
$GLGSV,3,1,10,79,57,294,36,78,54,048,46,69,51,264,29,88,29,093,43*66
$GLGSV,3,2,10,87,28,046,43,68,25,202,30,70,20,332,28,81,07,140,27*6C
$GLGSV,3,3,10,80,05,266,27,77,05,074,*68
$BDGSV,3,1,12,236,80,035,42,221,32,292,28,230,31,120,37,222,30,230,27*64
$BDGSV,3,2,12,227,27,060,35,208,05,057,22,205,08,111,,229,05,167,*67
$BDGSV,3,3,12,210,03,054,,219,02,188,,213,00,077,,228,00,018,*62
$GAGSV,2,1,08,127,85,329,37,118,36,077,41,130,33,063,38,107,21,174,32*64
$GAGSV,2,2,08,136,07,020,30,115,07,117,36,119,41,300,,121,34,250,*6F
$GPGSA,A,3,10,12,15,17,19,24,25,32,,,,,1.4,0.8,1.1*37
$GNGSA,A,3,10,12,15,17,19,24,25,32,,,,,1.4,0.8,1.1*29
$GNGSA,A,3,68,69,70,78,79,80,81,87,88,,,,1.4,0.8,1.1*28
$GNGSA,A,3,,,,,,,,,,,,,1.4,0.8,1.1*21
$QZGSA,A,3,,,,,,,,,,,,,1.4,0.8,1.1*23
$BDGSA,A,3,208,221,222,227,230,236,,,,,,,1.4,0.8,1.1*26
$GAGSA,A,3,107,115,118,127,130,136,,,,,,,1.4,0.8,1.1*27
$GIGSA,A,3,,,,,,,,,,,,,1.4,0.8,1.1*26
$GPRMC,064314.00,A,4825.103678,N,00428.464812,W,000.0,,190521,,,A*6B
$GPGGA,064315.00,4825.103668,N,00428.464803,W,1,29,0.6,87.1,M,52.2,M,,*4F
$GPGSV,3,1,11,12,82,221,42,24,60,103,42,25,41,238,27,32,36,306,31*7C
$GPGSV,3,2,11,19,28,050,40,10,17,259,25,15,15,166,33,17,11,032,33*73
$GPGSV,3,3,11,23,07,229,17,06,04,083,,02,01,113,*49
$GLGSV,3,1,10,79,57,294,36,78,54,048,46,69,51,264,29,88,29,093,43*66
$GLGSV,3,2,10,87,28,046,43,68,25,202,29,70,20,332,28,81,07,140,27*64
$GLGSV,3,3,10,80,05,266,27,77,05,074,*68
$BDGSV,3,1,12,236,80,035,42,221,32,292,28,230,31,120,37,222,30,230,30*62
$BDGSV,3,2,12,227,27,060,35,208,05,057,22,205,08,111,,229,05,167,*67
$BDGSV,3,3,12,210,03,054,,219,02,188,,213,00,077,,228,00,018,*62
$GAGSV,2,1,08,127,85,329,37,118,36,077,42,130,33,063,38,107,21,174,32*67
$GAGSV,2,2,08,136,07,020,31,115,07,117,36,119,41,300,,121,34,250,*6E
$GPGSA,A,3,10,12,15,17,19,24,25,32,,,,,1.4,0.8,1.1*37
$GNGSA,A,3,10,12,15,17,19,24,25,32,,,,,1.4,0.8,1.1*29
$GNGSA,A,3,68,69,70,78,79,80,81,87,88,,,,1.4,0.8,1.1*28
$GNGSA,A,3,,,,,,,,,,,,,1.4,0.8,1.1*21
$QZGSA,A,3,,,,,,,,,,,,,1.4,0.8,1.1*23
$BDGSA,A,3,208,221,222,227,230,236,,,,,,,1.4,0.8,1.1*26
$GAGSA,A,3,107,115,118,127,130,136,,,,,,,1.4,0.8,1.1*27
$GIGSA,A,3,,,,,,,,,,,,,1.4,0.8,1.1*26
$GPRMC,064315.00,A,4825.103668,N,00428.464803,W,000.0,,190521,,,A*6B
$GPGGA,064316.00,4825.103575,N,00428.464716,W,1,29,0.6,86.9,M,52.2,M,,*41
$GPGSV,3,1,11,12,82,221,42,24,60,103,42,25,41,238,26,32,36,306,32*7E
$GPGSV,3,2,11,19,28,050,40,10,17,259,24,15,15,166,33,17,11,032,35*74
$GPGSV,3,3,11,23,07,229,17,06,04,083,,02,01,113,*49
$GLGSV,3,1,10,79,57,294,35,78,54,048,46,69,51,264,29,88,29,093,43*65
$GLGSV,3,2,10,87,28,046,43,68,25,202,29,70,20,332,28,81,07,140,27*64
$GLGSV,3,3,10,80,05,266,27,77,05,074,*68
$BDGSV,3,1,12,236,80,035,42,221,32,292,28,230,31,120,37,222,30,230,30*62
$BDGSV,3,2,12,227,27,060,35,208,05,057,21,205,08,111,,229,05,167,*64
$BDGSV,3,3,12,210,03,054,,219,02,188,,213,00,077,,228,00,018,*62
$GAGSV,2,1,08,127,85,330,36,118,36,077,42,130,33,063,37,107,21,174,32*61
$GAGSV,2,2,08,136,07,020,31,115,07,117,36,119,41,300,,121,34,250,*6E
$GPGSA,A,3,10,12,15,17,19,24,25,32,,,,,1.4,0.8,1.1*37
$GNGSA,A,3,10,12,15,17,19,24,25,32,,,,,1.4,0.8,1.1*29
$GNGSA,A,3,68,69,70,78,79,80,81,87,88,,,,1.4,0.8,1.1*28
$GNGSA,A,3,,,,,,,,,,,,,1.4,0.8,1.1*21
$QZGSA,A,3,,,,,,,,,,,,,1.4,0.8,1.1*23
$BDGSA,A,3,208,221,222,227,230,236,,,,,,,1.4,0.8,1.1*26
$GAGSA,A,3,107,115,118,127,130,136,,,,,,,1.4,0.8,1.1*27
$GIGSA,A,3,,,,,,,,,,,,,1.4,0.8,1.1*26
$GPRMC,064316.00,A,4825.103575,N,00428.464716,W,000.0,,190521,,,A*6C
$GPGGA,064317.00,4825.103568,N,00428.464716,W,1,29,0.6,86.7,M,52.2,M,,*42
$GPGSV,3,1,11,12,82,221,42,24,60,103,42,25,41,238,26,32,36,306,35*79
$GPGSV,3,2,11,19,28,050,40,10,17,259,24,15,15,166,33,17,11,032,35*74
$GPGSV,3,3,11,23,07,229,16,06,04,083,,02,01,113,*48
$GLGSV,3,1,10,79,57,294,35,78,54,048,46,69,51,264,29,88,29,093,43*65
$GLGSV,3,2,10,87,28,046,42,68,25,202,29,70,20,332,28,81,07,140,27*65
$GLGSV,3,3,10,80,05,266,27,77,05,074,*68
$BDGSV,3,1,12,236,80,035,41,221,32,292,28,230,31,120,37,222,30,230,29*69
$BDGSV,3,2,12,227,27,060,35,208,05,057,21,205,08,111,,229,05,167,*64
$BDGSV,3,3,12,210,03,054,,219,02,188,,213,00,077,,228,00,018,*62
$GAGSV,2,1,08,127,85,330,36,118,36,077,42,130,33,063,37,107,21,174,32*61
$GAGSV,2,2,08,136,07,020,31,115,07,117,36,119,41,300,,121,34,250,*6E
$GPGSA,A,3,10,12,15,17,19,24,25,32,,,,,1.4,0.8,1.1*37
$GNGSA,A,3,10,12,15,17,19,24,25,32,,,,,1.4,0.8,1.1*29
$GNGSA,A,3,68,69,70,78,79,80,81,87,88,,,,1.4,0.8,1.1*28
$GNGSA,A,3,,,,,,,,,,,,,1.4,0.8,1.1*21
$QZGSA,A,3,,,,,,,,,,,,,1.4,0.8,1.1*23
$BDGSA,A,3,208,221,222,227,230,236,,,,,,,1.4,0.8,1.1*26
$GAGSA,A,3,107,115,118,127,130,136,,,,,,,1.4,0.8,1.1*27
$GIGSA,A,3,,,,,,,,,,,,,1.4,0.8,1.1*26
$GPRMC,064317.00,A,4825.103568,N,00428.464716,W,000.0,,190521,,,A*61
$GPGGA,064318.00,4825.103562,N,00428.464714,W,1,29,0.6,86.5,M,52.2,M,,*47
$GPGSV,3,1,11,12,82,221,42,24,60,103,42,25,41,238,26,32,36,306,34*78
$GPGSV,3,2,11,19,28,050,40,10,17,259,24,15,15,166,34,17,11,032,37*71
$GPGSV,3,3,11,23,07,229,16,06,04,083,,02,01,113,*48
$GLGSV,3,1,10,79,57,294,35,78,54,048,46,69,51,264,29,88,29,093,43*65
$GLGSV,3,2,10,87,28,046,42,68,25,202,29,70,20,332,29,81,07,140,27*64
$GLGSV,3,3,10,80,05,266,27,77,05,074,*68
$BDGSV,3,1,12,236,80,035,41,221,32,292,28,230,31,120,36,222,30,230,29*68
$BDGSV,3,2,12,227,27,060,34,208,05,057,21,205,08,111,,229,05,167,*65
$BDGSV,3,3,12,210,03,054,,219,02,188,,213,00,077,,228,00,018,*62
$GAGSV,2,1,08,127,85,330,36,118,36,077,42,130,33,063,37,107,21,174,32*61
$GAGSV,2,2,08,136,07,020,30,115,07,117,36,119,41,300,,121,34,250,*6F
$GPGSA,A,3,10,12,15,17,19,24,25,32,,,,,1.5,0.8,1.2*35
$GNGSA,A,3,10,12,15,17,19,24,25,32,,,,,1.5,0.8,1.2*2B
$GNGSA,A,3,68,69,70,78,79,80,81,87,88,,,,1.5,0.8,1.2*2A
$GNGSA,A,3,,,,,,,,,,,,,1.5,0.8,1.2*23
$QZGSA,A,3,,,,,,,,,,,,,1.5,0.8,1.2*21
$BDGSA,A,3,208,221,222,227,230,236,,,,,,,1.5,0.8,1.2*24
$GAGSA,A,3,107,115,118,127,130,136,,,,,,,1.5,0.8,1.2*25
$GIGSA,A,3,,,,,,,,,,,,,1.5,0.8,1.2*24
$GPRMC,064318.00,A,4825.103562,N,00428.464714,W,000.0,,190521,,,A*66
$GPGGA,064319.00,4825.103481,N,00428.464748,W,1,28,0.6,86.3,M,52.2,M,,*44
$GPGSV,3,1,11,12,82,221,42,24,60,103,42,25,41,238,25,32,36,306,34*7B
$GPGSV,3,2,11,19,28,050,40,10,17,259,23,15,15,166,34,17,11,032,38*79
$GPGSV,3,3,11,23,07,229,16,06,04,083,,02,01,113,*48
$GLGSV,3,1,10,79,57,294,35,78,54,048,46,69,51,264,29,88,29,093,43*65
$GLGSV,3,2,10,87,28,046,42,68,25,202,29,70,20,332,29,81,07,140,26*65
$GLGSV,3,3,10,80,05,266,26,77,05,074,*69
$BDGSV,3,1,12,236,80,035,41,221,32,292,28,230,31,120,36,222,30,230,29*68
$BDGSV,3,2,12,227,27,060,34,208,05,057,20,205,08,111,,229,05,167,*64
$BDGSV,3,3,12,210,03,054,,219,02,188,,213,00,077,,228,00,018,*62
$GAGSV,2,1,08,127,85,330,36,118,36,077,41,130,33,063,37,107,21,174,32*62
$GAGSV,2,2,08,136,07,020,30,115,07,117,36,119,41,300,,121,34,250,*6F
$GPGSA,A,3,10,12,15,17,19,24,25,32,,,,,1.5,0.8,1.2*35
$GNGSA,A,3,10,12,15,17,19,24,25,32,,,,,1.5,0.8,1.2*2B
$GNGSA,A,3,68,69,70,78,79,80,81,87,88,,,,1.5,0.8,1.2*2A
$GNGSA,A,3,,,,,,,,,,,,,1.5,0.8,1.2*23
$QZGSA,A,3,,,,,,,,,,,,,1.5,0.8,1.2*21
$BDGSA,A,3,221,222,227,230,236,,,,,,,,1.5,0.8,1.2*1E
$GAGSA,A,3,107,115,118,127,130,136,,,,,,,1.5,0.8,1.2*25
$GIGSA,A,3,,,,,,,,,,,,,1.5,0.8,1.2*24
$GPRMC,064319.00,A,4825.103481,N,00428.464748,W,000.0,,190521,,,A*62
$GPGGA,064320.00,4825.103477,N,00428.464749,W,1,29,0.6,86.1,M,52.2,M,,*45
$GPGSV,3,1,11,12,82,221,42,24,60,103,42,25,41,238,25,32,36,306,34*7B
$GPGSV,3,2,11,19,28,050,40,10,17,259,23,15,15,166,33,17,11,032,38*7E
$GPGSV,3,3,11,23,07,229,16,06,04,083,,02,01,113,*48
$GLGSV,3,1,10,79,57,294,35,78,54,048,46,69,51,264,29,88,29,093,43*65
$GLGSV,3,2,10,87,28,046,42,68,25,202,29,70,20,332,30,81,07,140,26*6D
$GLGSV,3,3,10,80,05,266,26,77,05,074,*69
$BDGSV,3,1,12,236,80,035,41,221,32,292,27,230,31,120,36,222,30,230,28*66
$BDGSV,3,2,12,227,27,060,34,208,05,057,20,205,08,111,,229,05,167,*64
$BDGSV,3,3,12,210,03,054,,219,02,188,,213,00,077,,228,00,018,*62
$GAGSV,2,1,08,127,85,330,36,118,36,077,41,130,33,063,38,107,21,174,32*6D
$GAGSV,2,2,08,136,07,020,30,115,07,117,36,119,41,300,,121,34,250,*6F
$GPGSA,A,3,10,12,15,17,19,24,25,32,,,,,1.4,0.8,1.2*34
$GNGSA,A,3,10,12,15,17,19,24,25,32,,,,,1.4,0.8,1.2*2A
$GNGSA,A,3,68,69,70,78,79,80,81,87,88,,,,1.4,0.8,1.2*2B
$GNGSA,A,3,,,,,,,,,,,,,1.4,0.8,1.2*22
$QZGSA,A,3,,,,,,,,,,,,,1.4,0.8,1.2*20
$BDGSA,A,3,208,221,222,227,230,236,,,,,,,1.4,0.8,1.2*25
$GAGSA,A,3,107,115,118,127,130,136,,,,,,,1.4,0.8,1.2*24
$GIGSA,A,3,,,,,,,,,,,,,1.4,0.8,1.2*25
$GPRMC,064320.00,A,4825.103477,N,00428.464749,W,000.0,,190521,,,A*60
$GPGGA,064321.00,4825.103477,N,00428.464749,W,1,28,0.6,85.9,M,52.2,M,,*4E
$GPGSV,3,1,11,12,82,221,42,24,60,103,42,25,41,238,24,32,36,306,34*7A
$GPGSV,3,2,11,19,28,050,39,10,17,259,22,15,15,166,33,17,11,032,38*71
$GPGSV,3,3,11,23,07,229,15,06,04,083,,02,01,113,*4B
$GLGSV,3,1,10,79,57,294,35,78,54,048,46,69,51,264,29,88,29,093,43*65
$GLGSV,3,2,10,87,28,046,42,68,25,202,29,70,20,332,30,81,07,140,26*6D
$GLGSV,3,3,10,80,05,266,25,77,05,074,*6A
$BDGSV,3,1,12,236,80,035,41,221,32,292,27,230,31,120,36,222,30,230,28*66
$BDGSV,3,2,12,227,27,060,33,208,05,057,19,205,08,111,,229,05,167,*69
$BDGSV,3,3,12,210,03,054,,219,02,188,,213,00,077,,228,00,018,*62
$GAGSV,2,1,08,127,85,330,36,118,36,077,41,130,33,063,38,107,21,174,32*6D
$GAGSV,2,2,08,136,07,020,29,115,07,117,36,119,41,300,,121,34,250,*67
$GPGSA,A,3,10,12,15,17,19,24,25,32,,,,,1.5,0.8,1.2*35
$GNGSA,A,3,10,12,15,17,19,24,25,32,,,,,1.5,0.8,1.2*2B
$GNGSA,A,3,68,69,70,78,79,80,81,87,88,,,,1.5,0.8,1.2*2A
$GNGSA,A,3,,,,,,,,,,,,,1.5,0.8,1.2*23
$QZGSA,A,3,,,,,,,,,,,,,1.5,0.8,1.2*21
$BDGSA,A,3,221,222,227,230,236,,,,,,,,1.5,0.8,1.2*1E
$GAGSA,A,3,107,115,118,127,130,136,,,,,,,1.5,0.8,1.2*25
$GIGSA,A,3,,,,,,,,,,,,,1.5,0.8,1.2*24
$GPRMC,064321.00,A,4825.103477,N,00428.464749,W,000.0,,190521,,,A*61
$GPGGA,064322.00,4825.103477,N,00428.464749,W,1,36,0.6,85.8,M,52.2,M,,*43
$GPGSV,3,1,11,12,82,221,42,24,60,103,42,25,41,238,24,32,36,306,34*7A
$GPGSV,3,2,11,19,28,050,39,10,17,259,22,15,15,166,33,17,11,032,39*70
$GPGSV,3,3,11,23,07,229,15,06,04,083,,02,01,113,*4B
$GLGSV,3,1,10,79,57,294,35,78,54,048,46,69,51,264,28,88,29,093,43*64
$GLGSV,3,2,10,87,28,046,42,68,25,202,29,70,20,332,30,81,07,140,26*6D
$GLGSV,3,3,10,77,05,074,23,80,05,266,25*6B
$BDGSV,3,1,12,236,80,035,41,221,32,292,26,230,31,120,36,222,30,230,28*67
$BDGSV,3,2,12,227,27,060,33,205,08,111,,229,05,167,19,208,05,057,19*61
$BDGSV,3,3,12,210,03,054,,219,02,188,,213,00,077,,228,00,018,*62
$GAGSV,2,1,08,127,85,330,36,118,36,077,41,130,33,063,37,107,21,174,32*62
$GAGSV,2,2,08,136,07,020,29,115,07,117,36,119,41,300,,121,34,250,*67
$GPGSA,A,3,10,12,15,17,19,24,25,32,,,,,1.5,0.8,1.2*35
$GNGSA,A,3,10,12,15,17,19,24,25,32,,,,,1.5,0.8,1.2*2B
$GNGSA,A,3,68,69,70,77,78,79,80,81,87,88,,,1.5,0.8,1.2*2A
$GNGSA,A,3,,,,,,,,,,,,,1.5,0.8,1.2*23
$QZGSA,A,3,,,,,,,,,,,,,1.5,0.8,1.2*21
$BDGSA,A,3,208,221,222,227,229,230,236,,,,,,1.5,0.8,1.2*1D
$GAGSA,A,3,107,115,118,127,130,136,,,,,,,1.5,0.8,1.2*25
$GIGSA,A,3,,,,,,,,,,,,,1.5,0.8,1.2*24
$GPRMC,064322.00,A,4825.103477,N,00428.464749,W,000.0,,190521,,,A*62
$GPGGA,064323.00,4825.103477,N,00428.464749,W,1,31,0.6,85.6,M,52.2,M,,*4B
$GPGSV,3,1,11,12,82,221,42,24,60,103,42,25,41,238,23,32,36,306,34*7D
$GPGSV,3,2,11,19,28,050,39,10,17,259,21,15,15,166,33,17,11,032,39*73
$GPGSV,3,3,11,23,07,229,16,06,04,083,,02,01,113,*48
$GLGSV,3,1,10,79,57,294,35,78,54,048,45,69,51,264,28,88,29,093,42*66
$GLGSV,3,2,10,87,28,046,42,68,25,202,30,70,20,332,30,81,07,140,26*65
$GLGSV,3,3,10,77,05,074,22,80,05,266,24*6B
$BDGSV,3,1,12,236,80,035,41,221,32,292,26,230,31,120,35,222,30,230,27*6B
$BDGSV,3,2,12,227,27,060,33,205,08,111,,229,05,167,19,208,05,057,19*61
$BDGSV,3,3,12,210,03,054,,219,02,188,,213,00,077,,228,00,018,*62
$GAGSV,2,1,08,127,85,330,36,118,36,077,41,130,33,063,37,107,21,174,32*62
$GAGSV,2,2,08,136,07,020,28,115,07,117,36,119,41,300,,121,34,250,*66
$GPGSA,A,3,10,12,15,17,19,24,25,32,,,,,1.5,0.8,1.2*35
$GNGSA,A,3,10,12,15,17,19,24,25,32,,,,,1.5,0.8,1.2*2B
$GNGSA,A,3,68,69,70,77,78,79,80,81,87,88,,,1.5,0.8,1.2*2A
$GNGSA,A,3,,,,,,,,,,,,,1.5,0.8,1.2*23
$QZGSA,A,3,,,,,,,,,,,,,1.5,0.8,1.2*21
$BDGSA,A,3,221,222,227,230,236,,,,,,,,1.5,0.8,1.2*1E
$GAGSA,A,3,107,115,118,127,130,136,,,,,,,1.5,0.8,1.2*25
$GIGSA,A,3,,,,,,,,,,,,,1.5,0.8,1.2*24
$GPRMC,064323.00,A,4825.103477,N,00428.464749,W,000.0,,190521,,,A*63
$GPGGA,064324.00,4825.103477,N,00428.464749,W,1,31,0.4,85.5,M,52.2,M,,*4D
$GPGSV,3,1,11,12,82,221,42,24,60,103,42,25,41,238,23,32,36,306,34*7D
$GPGSV,3,2,11,19,28,050,39,10,17,259,21,15,15,166,33,17,11,032,39*73
$GPGSV,3,3,11,23,07,229,17,06,04,083,,02,01,113,*49
$GLGSV,3,1,10,79,57,294,34,78,54,048,45,69,51,264,28,88,29,093,42*67
$GLGSV,3,2,10,87,28,046,42,68,25,202,30,70,20,332,30,81,07,140,26*65
$GLGSV,3,3,10,77,05,074,22,80,05,266,24*6B
$BDGSV,3,1,12,236,80,035,41,221,32,292,26,230,31,120,35,222,30,230,27*6B
$BDGSV,3,2,12,227,27,060,33,205,08,111,13,229,05,167,,208,05,057,19*6B
$BDGSV,3,3,12,210,03,054,,219,02,188,,213,00,077,,228,00,018,*62
$GAGSV,2,1,08,127,85,330,36,118,36,077,42,130,33,063,38,107,21,174,33*6F
$GAGSV,2,2,08,136,07,020,28,115,07,117,36,119,41,300,,121,34,250,*66
$GPGSA,A,3,10,12,15,17,19,24,25,32,,,,,1.5,0.8,1.2*35
$GNGSA,A,3,10,12,15,17,19,24,25,32,,,,,1.5,0.8,1.2*2B
$GNGSA,A,3,68,69,70,77,78,79,80,81,87,88,,,1.5,0.8,1.2*2A
$GNGSA,A,3,,,,,,,,,,,,,1.5,0.8,1.2*23
$QZGSA,A,3,,,,,,,,,,,,,1.5,0.8,1.2*21
$BDGSA,A,3,221,222,227,230,236,,,,,,,,1.5,0.8,1.2*1E
$GAGSA,A,3,107,115,118,127,130,136,,,,,,,1.5,0.8,1.2*25
$GIGSA,A,3,,,,,,,,,,,,,1.5,0.8,1.2*24
$GPRMC,064324.00,A,4825.103477,N,00428.464749,W,000.0,,190521,,,A*64
$GPGGA,064325.00,4825.103477,N,00428.464749,W,1,33,0.4,85.3,M,52.2,M,,*48
$GPGSV,3,1,11,12,82,221,42,24,60,103,42,25,41,238,23,32,36,306,34*7D
$GPGSV,3,2,11,19,28,050,39,10,17,259,21,15,15,166,33,17,11,032,39*73
$GPGSV,3,3,11,23,07,229,17,06,04,083,,02,01,113,*49
$GLGSV,3,1,10,79,57,294,34,78,54,048,45,69,51,264,27,88,29,093,42*68
$GLGSV,3,2,10,87,28,046,41,68,25,202,30,70,20,332,30,81,07,140,26*66
$GLGSV,3,3,10,77,05,074,22,80,05,266,23*6C
$BDGSV,3,1,12,236,80,035,41,221,32,292,26,230,31,120,35,222,30,230,27*6B
$BDGSV,3,2,12,227,27,060,33,205,08,111,,208,05,057,18,229,05,167,*68
$BDGSV,3,3,12,210,03,054,,219,02,188,,213,00,077,,228,00,018,*62
$GAGSV,2,1,08,127,85,330,36,119,41,300,24,118,36,077,41,121,34,250,20*6E
$GAGSV,2,2,08,130,33,063,38,107,21,174,32,136,07,020,27,115,07,117,36*6E
$GPGSA,A,3,10,12,15,17,19,24,25,32,,,,,1.5,0.8,1.2*35
$GNGSA,A,3,10,12,15,17,19,24,25,32,,,,,1.5,0.8,1.2*2B
$GNGSA,A,3,68,69,70,77,78,79,80,81,87,88,,,1.5,0.8,1.2*2A
$GNGSA,A,3,,,,,,,,,,,,,1.5,0.8,1.2*23
$QZGSA,A,3,,,,,,,,,,,,,1.5,0.8,1.2*21
$BDGSA,A,3,221,222,227,230,236,,,,,,,,1.5,0.8,1.2*1E
$GAGSA,A,3,107,115,118,119,121,127,130,136,,,,,1.5,0.8,1.2*2E
$GIGSA,A,3,,,,,,,,,,,,,1.5,0.8,1.2*24
$GPRMC,064325.00,A,4825.103477,N,00428.464749,W,000.0,,190521,,,A*65
$GPGGA,064326.00,4825.103477,N,00428.464749,W,1,35,0.4,85.2,M,52.2,M,,*4C
$GPGSV,3,1,11,12,82,221,42,24,60,103,43,25,41,238,22,32,36,306,34*7D
$GPGSV,3,2,11,19,28,050,39,10,17,259,21,15,15,166,34,17,11,032,39*74
$GPGSV,3,3,11,23,07,229,18,06,04,083,,02,01,113,*46
$GLGSV,3,1,10,79,57,294,34,78,54,048,46,69,51,264,27,88,29,093,43*6A
$GLGSV,3,2,10,87,28,046,41,68,25,202,31,70,20,332,30,81,07,140,25*64
$GLGSV,3,3,10,77,05,074,22,80,05,266,23*6C
$BDGSV,3,1,12,236,80,035,42,221,32,292,26,230,31,120,36,222,30,230,27*6B
$BDGSV,3,2,12,227,27,060,32,205,08,111,,208,05,057,18,229,05,167,*69
$BDGSV,3,3,12,210,03,054,,219,02,188,,213,00,077,,228,00,018,*62
$GAGSV,2,1,08,127,85,330,37,119,41,300,25,118,36,077,42,121,34,250,21*6C
$GAGSV,2,2,08,130,33,063,38,107,21,174,33,136,07,020,27,115,07,117,36*6F
$GPGSA,A,3,10,12,15,17,19,23,24,25,32,,,,1.5,0.8,1.2*34
$GNGSA,A,3,10,12,15,17,19,23,24,25,32,,,,1.5,0.8,1.2*2A
$GNGSA,A,3,68,69,70,77,78,79,80,81,87,88,,,1.5,0.8,1.2*2A
$GNGSA,A,3,,,,,,,,,,,,,1.5,0.8,1.2*23
$QZGSA,A,3,,,,,,,,,,,,,1.5,0.8,1.2*21
$BDGSA,A,3,208,221,222,227,230,236,,,,,,,1.5,0.8,1.2*24
$GAGSA,A,3,107,115,118,119,121,127,130,136,,,,,1.5,0.8,1.2*2E
$GIGSA,A,3,,,,,,,,,,,,,1.5,0.8,1.2*24
$GPRMC,064326.00,A,4825.103477,N,00428.464749,W,000.0,,190521,,,A*66
$GPGGA,064327.00,4825.103477,N,00428.464749,W,1,33,0.4,85.1,M,52.2,M,,*48
$GPGSV,3,1,11,12,82,221,42,24,60,103,42,25,41,238,22,32,36,306,34*7C
$GPGSV,3,2,11,19,28,050,39,10,17,259,20,15,15,166,33,17,11,032,39*72
$GPGSV,3,3,11,23,07,229,17,06,04,083,,02,01,113,*49
$GLGSV,3,1,10,79,57,294,34,78,54,048,46,69,51,264,27,88,29,093,43*6A
$GLGSV,3,2,10,87,28,046,41,68,25,202,31,70,20,332,30,81,07,140,25*64
$GLGSV,3,3,10,77,05,074,,80,05,266,22*6D
$BDGSV,3,1,12,236,80,035,42,221,32,292,26,230,31,120,35,222,30,230,27*68
$BDGSV,3,2,12,227,27,060,32,205,08,111,13,208,05,057,18,229,05,167,17*6D
$BDGSV,3,3,12,210,03,054,,219,02,188,,213,00,077,,228,00,018,*62
$GAGSV,2,1,08,127,85,330,37,119,41,300,25,118,36,077,42,121,34,250,33*6F
$GAGSV,2,2,08,130,33,063,38,107,21,174,33,136,07,020,27,115,07,117,36*6F
$GPGSA,A,3,10,12,15,17,19,23,24,25,32,,,,1.5,0.8,1.2*34
$GNGSA,A,3,10,12,15,17,19,23,24,25,32,,,,1.5,0.8,1.2*2A
$GNGSA,A,3,68,69,70,78,79,80,81,87,88,,,,1.5,0.8,1.2*2A
$GNGSA,A,3,,,,,,,,,,,,,1.5,0.8,1.2*23
$QZGSA,A,3,,,,,,,,,,,,,1.5,0.8,1.2*21
$BDGSA,A,3,221,222,227,230,236,,,,,,,,1.5,0.8,1.2*1E
$GAGSA,A,3,107,115,118,119,121,127,130,136,,,,,1.5,0.8,1.2*2E
$GIGSA,A,3,,,,,,,,,,,,,1.5,0.8,1.2*24
$GPRMC,064327.00,A,4825.103477,N,00428.464749,W,000.0,,190521,,,A*67
$GPGGA,064328.00,4825.103477,N,00428.464749,W,1,35,0.4,85.0,M,52.2,M,,*40
$GPGSV,3,1,11,12,82,221,42,24,60,103,42,25,41,238,22,32,36,306,34*7C
$GPGSV,3,2,11,19,28,050,39,10,17,259,20,15,15,166,33,17,11,032,39*72
$GPGSV,3,3,11,23,07,229,17,06,04,083,,02,01,113,*49
$GLGSV,3,1,10,79,57,294,34,78,54,048,45,69,51,264,27,88,29,093,43*69
$GLGSV,3,2,10,87,28,046,41,68,25,202,31,70,20,332,30,81,07,140,25*64
$GLGSV,3,3,10,77,05,074,22,80,05,266,22*6D
$BDGSV,3,1,12,236,80,035,42,221,32,292,25,230,31,120,35,222,30,230,27*6B
$BDGSV,3,2,12,227,27,060,32,205,08,111,16,208,05,057,18,229,05,167,*6E
$BDGSV,3,3,12,210,03,054,,219,02,188,,213,00,077,,228,00,018,*62
$GAGSV,2,1,08,127,85,330,37,119,41,300,25,118,36,077,42,121,34,250,32*6E
$GAGSV,2,2,08,130,33,063,38,107,21,174,33,136,07,020,26,115,07,117,36*6E
$GPGSA,A,3,10,12,15,17,19,23,24,25,32,,,,1.5,0.8,1.2*34
$GNGSA,A,3,10,12,15,17,19,23,24,25,32,,,,1.5,0.8,1.2*2A
$GNGSA,A,3,68,69,70,77,78,79,80,81,87,88,,,1.5,0.8,1.2*2A
$GNGSA,A,3,,,,,,,,,,,,,1.5,0.8,1.2*23
$QZGSA,A,3,,,,,,,,,,,,,1.5,0.8,1.2*21
$BDGSA,A,3,208,221,222,227,230,236,,,,,,,1.5,0.8,1.2*24
$GAGSA,A,3,107,115,118,119,121,127,130,136,,,,,1.5,0.8,1.2*2E
$GIGSA,A,3,,,,,,,,,,,,,1.5,0.8,1.2*24
$GPRMC,064328.00,A,4825.103477,N,00428.464749,W,000.0,,190521,,,A*68
$GPGGA,064329.00,4825.103477,N,00428.464749,W,1,34,0.4,84.9,M,52.2,M,,*48
$GPGSV,3,1,11,12,82,221,42,24,60,103,42,25,41,238,22,32,36,306,34*7C
$GPGSV,3,2,11,19,28,050,39,10,17,259,20,15,15,166,33,17,11,032,39*72
$GPGSV,3,3,11,23,07,229,17,06,04,083,,02,01,113,*49
$GLGSV,3,1,10,79,57,294,34,78,54,048,45,69,51,264,26,88,29,093,43*68
$GLGSV,3,2,10,87,28,046,41,68,25,202,31,70,20,332,30,81,07,140,25*64
$GLGSV,3,3,10,80,06,266,22,77,05,074,*6E
$BDGSV,3,1,12,236,80,035,42,221,32,292,25,230,31,120,35,222,30,230,27*6B
$BDGSV,3,2,12,227,27,060,32,205,08,111,,208,05,057,18,229,05,167,*69
$BDGSV,3,3,12,210,02,054,,219,02,188,,213,00,077,,228,00,018,*63
$GAGSV,2,1,08,127,85,331,37,119,41,300,,118,36,077,42,121,34,250,31*6B
$GAGSV,2,2,08,130,33,063,38,107,21,174,33,136,07,020,26,115,07,117,36*6E
$GPGSA,A,3,10,12,15,17,19,23,24,25,32,,,,1.5,0.8,1.2*34
$GNGSA,A,3,10,12,15,17,19,23,24,25,32,,,,1.5,0.8,1.2*2A
$GNGSA,A,3,68,69,70,78,79,80,81,87,88,,,,1.5,0.8,1.2*2A
$GNGSA,A,3,,,,,,,,,,,,,1.5,0.8,1.2*23
$QZGSA,A,3,,,,,,,,,,,,,1.5,0.8,1.2*21
$BDGSA,A,3,221,222,227,230,236,,,,,,,,1.5,0.8,1.2*1E
$GAGSA,A,3,107,115,118,121,127,130,136,,,,,,1.5,0.8,1.2*17
$GIGSA,A,3,,,,,,,,,,,,,1.5,0.8,1.2*24
$GPRMC,064329.00,A,4825.103477,N,00428.464749,W,000.0,,190521,,,A*69
$GPGGA,064330.00,4825.103477,N,00428.464749,W,1,31,0.4,84.9,M,52.2,M,,*45
$GPGSV,3,1,11,12,82,221,42,24,60,103,42,25,41,238,21,32,36,306,35*7E
$GPGSV,3,2,11,19,28,050,39,10,17,259,20,15,15,166,33,17,11,032,39*72
$GPGSV,3,3,11,23,07,229,18,06,04,083,,02,01,113,*46
$GLGSV,3,1,10,79,57,294,34,78,54,048,45,69,51,263,26,88,29,093,42*6E
$GLGSV,3,2,10,87,28,046,41,68,25,202,31,70,20,332,30,81,07,140,25*64
$GLGSV,3,3,10,80,06,266,21,77,05,074,*6D
$BDGSV,3,1,12,236,80,035,42,221,32,292,26,230,31,120,35,222,30,230,27*68
$BDGSV,3,2,12,227,27,060,32,205,08,111,,208,05,057,17,229,05,167,*66
$BDGSV,3,3,12,219,02,188,,210,02,054,,213,01,077,,228,00,018,*62
$GAGSV,2,1,08,127,85,331,36,119,41,300,,118,36,077,42,121,34,250,31*6A
$GAGSV,2,2,08,130,33,063,38,107,21,174,33,136,07,020,26,115,07,117,36*6E
$GPGSA,A,3,10,12,15,17,19,23,24,25,32,,,,1.5,0.8,1.2*34
$GNGSA,A,3,10,12,15,17,19,23,24,25,32,,,,1.5,0.8,1.2*2A
$GNGSA,A,3,68,69,70,78,79,80,81,87,88,,,,1.5,0.8,1.2*2A
$GNGSA,A,3,,,,,,,,,,,,,1.5,0.8,1.2*23
$QZGSA,A,3,,,,,,,,,,,,,1.5,0.8,1.2*21
$BDGSA,A,3,221,222,227,230,236,,,,,,,,1.5,0.8,1.2*1E
$GAGSA,A,3,107,115,118,121,127,130,136,,,,,,1.5,0.8,1.2*17
$GIGSA,A,3,,,,,,,,,,,,,1.5,0.8,1.2*24
$GPRMC,064330.00,A,4825.103477,N,00428.464749,W,000.0,,190521,,,A*61
$GPGGA,064331.00,4825.103477,N,00428.464749,W,1,32,0.4,84.8,M,52.2,M,,*46
$GPGSV,3,1,11,12,82,221,42,24,60,103,42,25,41,238,21,32,36,306,35*7E
$GPGSV,3,2,11,19,28,050,39,10,17,259,20,15,15,166,33,17,11,032,39*72
$GPGSV,3,3,11,23,07,229,18,06,04,083,,02,01,113,*46
$GLGSV,3,1,10,79,57,294,34,78,54,048,45,69,51,263,26,88,29,093,42*6E
$GLGSV,3,2,10,87,28,046,41,68,25,202,31,70,20,332,30,81,07,140,27*66
$GLGSV,3,3,10,80,06,266,21,77,05,074,20*6F
$BDGSV,3,1,12,236,80,035,41,221,32,292,26,230,31,120,35,222,30,230,27*6B
$BDGSV,3,2,12,227,27,060,32,205,08,111,,208,05,057,17,229,05,167,15*62
$BDGSV,3,3,12,219,02,188,,210,02,054,,213,01,077,,228,00,018,*62
$GAGSV,2,1,08,127,85,331,36,119,41,300,21,118,36,076,42,121,34,250,30*69
$GAGSV,2,2,08,130,33,063,38,107,21,174,33,136,07,020,25,115,07,117,35*6E
$GPGSA,A,3,10,12,15,17,19,23,24,25,32,,,,1.5,0.8,1.2*34
$GNGSA,A,3,10,12,15,17,19,23,24,25,32,,,,1.5,0.8,1.2*2A
$GNGSA,A,3,68,69,70,77,78,79,80,81,87,88,,,1.5,0.8,1.2*2A
$GNGSA,A,3,,,,,,,,,,,,,1.5,0.8,1.2*23
$QZGSA,A,3,,,,,,,,,,,,,1.5,0.8,1.2*21
$BDGSA,A,3,221,222,227,230,236,,,,,,,,1.5,0.8,1.2*1E
$GAGSA,A,3,107,115,118,121,127,130,136,,,,,,1.5,0.8,1.2*17
$GIGSA,A,3,,,,,,,,,,,,,1.5,0.8,1.2*24
$GPRMC,064331.00,A,4825.103477,N,00428.464749,W,000.0,,190521,,,A*60
$GPGGA,064332.00,4825.103477,N,00428.464749,W,1,30,0.4,84.7,M,52.2,M,,*48
$GPGSV,3,1,11,12,82,221,42,24,60,103,42,25,41,238,21,32,36,306,35*7E
$GPGSV,3,2,11,19,28,050,39,10,17,259,20,15,15,166,33,17,11,032,39*72
$GPGSV,3,3,11,23,07,229,18,06,04,083,,02,01,113,*46
$GLGSV,3,1,10,79,57,294,34,78,54,048,45,69,51,263,28,88,29,093,43*61
$GLGSV,3,2,10,87,28,046,41,68,25,202,31,70,20,332,30,81,07,140,26*67
$GLGSV,3,3,10,80,06,266,21,77,05,074,*6D
$BDGSV,3,1,12,236,80,035,41,221,32,292,26,230,31,120,35,222,30,230,26*6A
$BDGSV,3,2,12,227,27,060,32,205,08,111,,208,05,057,17,229,05,167,*66
$BDGSV,3,3,12,219,02,188,,210,02,054,,213,01,077,,228,00,018,*62
$GAGSV,2,1,08,127,85,331,36,119,41,300,,118,36,077,42,121,34,250,30*6B
$GAGSV,2,2,08,130,33,063,38,107,21,174,33,136,07,020,24,115,07,117,35*6F
$GPGSA,A,3,10,12,15,17,19,23,24,25,32,,,,1.5,0.8,1.2*34
$GNGSA,A,3,10,12,15,17,19,23,24,25,32,,,,1.5,0.8,1.2*2A
$GNGSA,A,3,68,69,70,78,79,80,81,87,88,,,,1.5,0.8,1.2*2A
$GNGSA,A,3,,,,,,,,,,,,,1.5,0.8,1.2*23
$QZGSA,A,3,,,,,,,,,,,,,1.5,0.8,1.2*21
$BDGSA,A,3,221,222,227,230,236,,,,,,,,1.5,0.8,1.2*1E
$GAGSA,A,3,107,115,118,121,127,130,136,,,,,,1.5,0.8,1.2*17
$GIGSA,A,3,,,,,,,,,,,,,1.5,0.8,1.2*24
$GPRMC,064332.00,A,4825.103477,N,00428.464749,W,000.0,,190521,,,A*63
$GPGGA,064333.00,4825.103477,N,00428.464749,W,1,30,0.4,84.6,M,52.2,M,,*48
$GPGSV,3,1,11,12,82,221,42,24,60,103,42,25,41,238,21,32,36,306,35*7E
$GPGSV,3,2,11,19,28,050,39,10,17,259,20,15,15,166,33,17,11,032,39*72
$GPGSV,3,3,11,23,07,229,18,06,04,083,,02,01,113,*46
$GLGSV,3,1,10,79,57,294,34,78,54,048,45,69,51,263,28,88,29,093,43*61
$GLGSV,3,2,10,87,28,046,41,68,25,202,31,70,20,332,30,81,07,140,26*67
$GLGSV,3,3,10,80,06,266,20,77,05,074,*6C
$BDGSV,3,1,12,236,80,035,41,221,32,292,25,230,31,120,35,222,30,230,26*69
$BDGSV,3,2,12,227,27,060,32,205,08,111,,208,05,057,17,229,05,167,*66
$BDGSV,3,3,12,219,02,188,,210,02,054,,213,01,077,,228,00,018,*62
$GAGSV,2,1,08,127,85,331,37,119,41,300,,118,36,077,42,121,34,250,29*62
$GAGSV,2,2,08,130,33,063,38,107,21,174,33,136,07,020,24,115,07,117,35*6F
$GPGSA,A,3,10,12,15,17,19,23,24,25,32,,,,1.5,0.8,1.2*34
$GNGSA,A,3,10,12,15,17,19,23,24,25,32,,,,1.5,0.8,1.2*2A
$GNGSA,A,3,68,69,70,78,79,80,81,87,88,,,,1.5,0.8,1.2*2A
$GNGSA,A,3,,,,,,,,,,,,,1.5,0.8,1.2*23
$QZGSA,A,3,,,,,,,,,,,,,1.5,0.8,1.2*21
$BDGSA,A,3,221,222,227,230,236,,,,,,,,1.5,0.8,1.2*1E
$GAGSA,A,3,107,115,118,121,127,130,136,,,,,,1.5,0.8,1.2*17
$GIGSA,A,3,,,,,,,,,,,,,1.5,0.8,1.2*24
$GPRMC,064333.00,A,4825.103477,N,00428.464749,W,000.0,,190521,,,A*62
$GPGGA,064334.00,4825.103477,N,00428.464749,W,1,31,0.4,84.6,M,52.2,M,,*4E
$GPGSV,3,1,11,12,82,221,42,24,60,103,42,25,41,238,21,32,36,306,35*7E
$GPGSV,3,2,11,19,28,050,39,10,17,259,20,15,14,166,33,17,11,032,39*73
$GPGSV,3,3,11,23,07,229,18,06,04,083,,02,01,113,*46
$GLGSV,3,1,10,79,57,294,34,78,54,048,45,69,51,263,28,88,29,093,43*61
$GLGSV,3,2,10,87,28,046,41,68,25,202,31,70,20,332,30,81,07,140,26*67
$GLGSV,3,3,10,80,06,266,20,77,05,074,*6C
$BDGSV,3,1,12,236,80,035,41,221,32,292,25,230,31,120,35,222,30,230,26*69
$BDGSV,3,2,12,227,27,060,32,205,08,111,,208,05,057,17,229,05,167,*66
$BDGSV,3,3,12,219,02,188,,210,02,054,,213,01,077,,228,00,018,*62
$GAGSV,2,1,08,127,85,331,37,119,41,300,21,118,36,076,42,121,34,250,28*61
$GAGSV,2,2,08,130,32,063,38,107,21,174,33,136,07,020,24,115,07,117,35*6E
$GPGSA,A,3,10,12,15,17,19,23,24,25,32,,,,1.5,0.8,1.2*34
$GNGSA,A,3,10,12,15,17,19,23,24,25,32,,,,1.5,0.8,1.2*2A
$GNGSA,A,3,68,69,70,78,79,80,81,87,88,,,,1.5,0.8,1.2*2A
$GNGSA,A,3,,,,,,,,,,,,,1.5,0.8,1.2*23
$QZGSA,A,3,,,,,,,,,,,,,1.5,0.8,1.2*21
$BDGSA,A,3,221,222,227,230,236,,,,,,,,1.5,0.8,1.2*1E
$GAGSA,A,3,107,115,118,119,121,127,130,136,,,,,1.5,0.8,1.2*2E
$GIGSA,A,3,,,,,,,,,,,,,1.5,0.8,1.2*24
$GPRMC,064334.00,A,4825.103477,N,00428.464749,W,000.0,,190521,,,A*65
$GPGGA,064335.00,4825.103477,N,00428.464749,W,1,32,0.4,84.5,M,52.2,M,,*4F
$GPGSV,3,1,11,12,82,221,42,24,60,103,42,25,41,238,21,32,36,306,35*7E
$GPGSV,3,2,11,19,28,050,39,10,17,259,20,15,14,166,34,17,11,032,39*74
$GPGSV,3,3,11,23,07,229,18,06,04,083,,02,01,113,*46
$GLGSV,3,1,10,79,57,294,34,78,54,048,45,69,51,263,28,88,29,093,43*61
$GLGSV,3,2,10,87,28,046,41,68,25,202,31,70,20,332,30,81,07,140,26*67
$GLGSV,3,3,10,80,06,266,20,77,05,074,23*6D
$BDGSV,3,1,12,236,80,035,41,221,32,292,25,230,31,120,35,222,30,230,26*69
$BDGSV,3,2,12,227,27,060,32,205,08,111,,208,05,057,16,229,05,167,*67
$BDGSV,3,3,12,219,02,188,,210,02,054,,213,01,077,,228,00,018,*62
$GAGSV,2,1,08,127,85,331,37,119,41,300,,118,36,076,42,121,34,250,28*62
$GAGSV,2,2,08,130,32,063,38,107,21,174,33,136,07,020,23,115,07,117,35*69
$GPGSA,A,3,10,12,15,17,19,23,24,25,32,,,,1.5,0.8,1.2*34
$GNGSA,A,3,10,12,15,17,19,23,24,25,32,,,,1.5,0.8,1.2*2A
$GNGSA,A,3,68,69,70,77,78,79,80,81,87,88,,,1.5,0.8,1.2*2A
$GNGSA,A,3,,,,,,,,,,,,,1.5,0.8,1.2*23
$QZGSA,A,3,,,,,,,,,,,,,1.5,0.8,1.2*21
$BDGSA,A,3,221,222,227,230,236,,,,,,,,1.5,0.8,1.2*1E
$GAGSA,A,3,107,115,118,121,127,130,136,,,,,,1.5,0.8,1.2*17
$GIGSA,A,3,,,,,,,,,,,,,1.5,0.8,1.2*24
$GPRMC,064335.00,A,4825.103477,N,00428.464749,W,000.0,,190521,,,A*64
$GPGGA,064336.00,4825.103477,N,00428.464749,W,1,30,0.4,84.4,M,52.2,M,,*4F
$GPGSV,3,1,11,12,82,221,42,24,60,103,42,25,41,238,21,32,36,306,35*7E
$GPGSV,3,2,11,19,28,050,40,10,17,259,20,15,14,166,34,17,11,032,39*7A
$GPGSV,3,3,11,23,07,229,18,06,04,083,,02,01,113,*46
$GLGSV,3,1,10,79,57,294,34,78,54,048,46,69,51,263,28,88,29,093,43*62
$GLGSV,3,2,10,87,28,046,41,68,25,202,31,70,20,332,30,81,07,140,26*67
$GLGSV,3,3,10,80,06,266,20,77,05,074,*6C
$BDGSV,3,1,12,236,80,035,41,221,32,292,25,230,31,120,35,222,30,230,26*69
$BDGSV,3,2,12,227,27,060,32,205,08,111,,208,05,057,16,229,05,167,*67
$BDGSV,3,3,12,219,02,188,,210,02,054,,213,01,077,,228,00,018,*62
$GAGSV,2,1,08,127,85,331,37,119,41,300,20,118,36,076,42,121,34,250,27*6F
$GAGSV,2,2,08,130,32,063,38,107,21,174,33,136,07,020,23,115,07,117,35*69
$GPGSA,A,3,10,12,15,17,19,24,25,32,,,,,1.5,0.8,1.2*35
$GNGSA,A,3,10,12,15,17,19,24,25,32,,,,,1.5,0.8,1.2*2B
$GNGSA,A,3,68,69,70,78,79,80,81,87,88,,,,1.5,0.8,1.2*2A
$GNGSA,A,3,,,,,,,,,,,,,1.5,0.8,1.2*23
$QZGSA,A,3,,,,,,,,,,,,,1.5,0.8,1.2*21
$BDGSA,A,3,221,222,227,230,236,,,,,,,,1.5,0.8,1.2*1E
$GAGSA,A,3,107,115,118,119,121,127,130,136,,,,,1.5,0.8,1.2*2E
$GIGSA,A,3,,,,,,,,,,,,,1.5,0.8,1.2*24
$GPRMC,064336.00,A,4825.103477,N,00428.464749,W,000.0,,190521,,,A*67
$GPGGA,064337.00,4825.103477,N,00428.464749,W,1,28,0.4,84.4,M,52.2,M,,*47
$GPGSV,3,1,11,12,82,221,42,24,60,103,42,25,41,238,22,32,36,306,35*7D
$GPGSV,3,2,11,19,28,050,39,10,17,259,20,15,14,166,34,17,11,032,39*74
$GPGSV,3,3,11,23,07,229,18,06,04,083,,02,01,113,*46
$GLGSV,3,1,10,79,57,294,34,78,54,048,46,69,51,263,27,88,29,093,43*6D
$GLGSV,3,2,10,87,28,046,41,68,25,202,31,70,20,332,30,81,07,140,26*67
$GLGSV,3,3,10,80,06,266,20,77,05,074,*6C
$BDGSV,3,1,12,236,80,035,41,221,32,292,25,230,31,120,35,222,30,230,26*69
$BDGSV,3,2,12,227,27,060,32,205,08,111,,208,05,057,16,229,05,167,*67
$BDGSV,3,3,12,219,02,188,,210,02,054,,213,01,077,,228,00,018,*62
$GAGSV,2,1,08,127,85,331,37,119,41,300,,118,36,076,42,121,34,250,*68
$GAGSV,2,2,08,130,32,063,38,107,21,174,33,136,07,020,23,115,07,117,35*69
$GPGSA,A,3,10,12,15,17,19,24,25,32,,,,,1.5,0.8,1.2*35
$GNGSA,A,3,10,12,15,17,19,24,25,32,,,,,1.5,0.8,1.2*2B
$GNGSA,A,3,68,69,70,78,79,80,81,87,88,,,,1.5,0.8,1.2*2A
$GNGSA,A,3,,,,,,,,,,,,,1.5,0.8,1.2*23
$QZGSA,A,3,,,,,,,,,,,,,1.5,0.8,1.2*21
$BDGSA,A,3,221,222,227,230,236,,,,,,,,1.5,0.8,1.2*1E
$GAGSA,A,3,107,115,118,127,130,136,,,,,,,1.5,0.8,1.2*25
$GIGSA,A,3,,,,,,,,,,,,,1.5,0.8,1.2*24
$GPRMC,064337.00,A,4825.103477,N,00428.464749,W,000.0,,190521,,,A*66
$GPGGA,064338.00,4825.103477,N,00428.464749,W,1,29,0.4,84.4,M,52.2,M,,*49
$GPGSV,3,1,11,12,82,221,42,24,60,103,42,25,41,238,23,32,36,306,35*7C
$GPGSV,3,2,11,19,28,050,40,10,17,259,20,15,14,166,34,17,11,032,39*7A
$GPGSV,3,3,11,23,07,229,18,06,04,083,,02,01,113,*46
$GLGSV,3,1,10,79,57,294,34,78,54,048,46,69,51,263,27,88,29,093,42*6C
$GLGSV,3,2,10,87,28,046,41,68,25,202,31,70,20,332,30,81,07,140,27*66
$GLGSV,3,3,10,80,06,266,20,77,05,074,*6C
$BDGSV,3,1,12,236,80,036,41,221,32,292,25,230,31,120,35,222,30,230,26*6A
$BDGSV,3,2,12,227,27,060,33,205,08,111,13,208,05,057,16,229,05,167,*64
$BDGSV,3,3,12,219,02,188,,210,02,054,,213,01,077,,228,00,018,*62
$GAGSV,2,1,08,127,85,331,37,119,41,300,19,118,36,076,42,121,34,250,*60
$GAGSV,2,2,08,130,32,063,38,107,21,174,33,136,07,020,23,115,07,117,35*69
$GPGSA,A,3,10,12,15,17,19,24,25,32,,,,,1.5,0.8,1.2*35
$GNGSA,A,3,10,12,15,17,19,24,25,32,,,,,1.5,0.8,1.2*2B
$GNGSA,A,3,68,69,70,78,79,80,81,87,88,,,,1.5,0.8,1.2*2A
$GNGSA,A,3,,,,,,,,,,,,,1.5,0.8,1.2*23
$QZGSA,A,3,,,,,,,,,,,,,1.5,0.8,1.2*21
$BDGSA,A,3,221,222,227,230,236,,,,,,,,1.5,0.8,1.2*1E
$GAGSA,A,3,107,115,118,119,127,130,136,,,,,,1.5,0.8,1.2*1C
$GIGSA,A,3,,,,,,,,,,,,,1.5,0.8,1.2*24
$GPRMC,064338.00,A,4825.103477,N,00428.464749,W,000.0,,190521,,,A*69
$GPGGA,064339.00,4825.103477,N,00428.464749,W,1,29,0.4,84.3,M,52.2,M,,*4F
$GPGSV,3,1,11,12,82,221,42,24,60,103,42,25,41,238,23,32,36,306,35*7C
$GPGSV,3,2,11,19,28,050,40,10,17,259,19,15,14,166,34,17,11,032,39*70
$GPGSV,3,3,11,23,07,229,17,06,04,083,,02,01,113,*49
$GLGSV,3,1,10,79,57,294,34,78,54,048,46,69,51,263,27,88,29,093,42*6C
$GLGSV,3,2,10,87,28,046,41,68,25,202,30,70,20,332,30,81,07,140,27*67
$GLGSV,3,3,10,80,06,266,20,77,05,074,*6C
$BDGSV,3,1,12,236,80,036,41,221,32,292,25,230,31,120,35,222,30,230,27*6B
$BDGSV,3,2,12,227,27,060,33,205,08,111,,208,05,057,,229,05,167,*61
$BDGSV,3,3,12,219,02,188,,210,02,054,,213,01,077,,228,00,018,*62
$GAGSV,2,1,08,127,85,331,37,119,41,300,,118,36,076,42,121,34,250,24*6E
$GAGSV,2,2,08,130,32,063,38,107,21,174,33,136,07,020,23,115,07,117,35*69
$GPGSA,A,3,10,12,15,17,19,24,25,32,,,,,1.5,0.8,1.2*35
$GNGSA,A,3,10,12,15,17,19,24,25,32,,,,,1.5,0.8,1.2*2B
$GNGSA,A,3,68,69,70,78,79,80,81,87,88,,,,1.5,0.8,1.2*2A
$GNGSA,A,3,,,,,,,,,,,,,1.5,0.8,1.2*23
$QZGSA,A,3,,,,,,,,,,,,,1.5,0.8,1.2*21
$BDGSA,A,3,221,222,227,230,236,,,,,,,,1.5,0.8,1.2*1E
$GAGSA,A,3,107,115,118,121,127,130,136,,,,,,1.5,0.8,1.2*17
$GIGSA,A,3,,,,,,,,,,,,,1.5,0.8,1.2*24
$GPRMC,064339.00,A,4825.103477,N,00428.464749,W,000.0,,190521,,,A*68
$GPGGA,064340.00,4825.103477,N,00428.464749,W,1,31,0.4,84.3,M,52.2,M,,*48
$GPGSV,3,1,11,12,82,221,42,24,60,103,42,25,41,238,22,32,36,306,35*7D
$GPGSV,3,2,11,19,28,050,40,10,17,259,19,15,14,166,34,17,11,032,39*70
$GPGSV,3,3,11,23,07,229,17,06,04,083,,02,01,113,*49
$GLGSV,3,1,10,79,57,294,34,78,54,048,46,69,51,263,27,88,29,093,42*6C
$GLGSV,3,2,10,87,28,046,41,68,25,202,30,70,20,332,30,81,07,140,27*67
$GLGSV,3,3,10,80,06,266,20,77,05,074,*6C
$BDGSV,3,1,12,236,80,036,41,221,32,292,25,230,31,120,35,222,30,230,27*6B
$BDGSV,3,2,12,227,27,060,33,205,08,111,14,208,05,057,,229,05,167,*64
$BDGSV,3,3,12,219,02,188,,210,02,054,,213,01,077,,228,00,018,*62
$GAGSV,2,1,08,127,85,331,37,119,41,300,18,118,36,076,42,121,34,250,26*65
$GAGSV,2,2,08,130,32,063,38,107,21,174,33,136,07,020,22,115,07,117,35*68
$GPGSA,A,3,10,12,15,17,19,23,24,25,32,,,,1.5,0.8,1.2*34
$GNGSA,A,3,10,12,15,17,19,23,24,25,32,,,,1.5,0.8,1.2*2A
$GNGSA,A,3,68,69,70,78,79,80,81,87,88,,,,1.5,0.8,1.2*2A
$GNGSA,A,3,,,,,,,,,,,,,1.5,0.8,1.2*23
$QZGSA,A,3,,,,,,,,,,,,,1.5,0.8,1.2*21
$BDGSA,A,3,221,222,227,230,236,,,,,,,,1.5,0.8,1.2*1E
$GAGSA,A,3,107,115,118,121,127,130,136,,,,,,1.5,0.8,1.2*17
$GIGSA,A,3,,,,,,,,,,,,,1.5,0.8,1.2*24
$GPRMC,064340.00,A,4825.103477,N,00428.464749,W,000.0,,190521,,,A*66
$GPGGA,064341.00,4825.103477,N,00428.464749,W,1,32,0.4,84.4,M,52.2,M,,*4D
$GPGSV,3,1,11,12,82,221,42,24,60,103,42,25,41,238,22,32,36,306,35*7D
$GPGSV,3,2,11,19,28,050,40,10,17,259,19,15,14,166,34,17,11,032,39*70
$GPGSV,3,3,11,23,07,229,18,06,04,083,,02,01,113,*46
$GLGSV,3,1,10,79,57,294,34,78,54,048,46,69,51,263,28,88,29,093,42*63
$GLGSV,3,2,10,87,28,046,41,68,25,202,30,70,20,332,30,81,07,140,27*67
$GLGSV,3,3,10,80,06,266,20,77,05,074,20*6E
$BDGSV,3,1,12,236,80,036,41,221,32,292,25,230,31,120,35,222,30,230,27*6B
$BDGSV,3,2,12,227,27,060,33,205,08,111,,208,05,057,15,229,05,167,*65
$BDGSV,3,3,12,219,02,188,,210,02,054,,213,01,077,,228,00,018,*62
$GAGSV,2,1,08,127,85,331,37,119,41,300,,118,36,076,42,121,34,250,26*6C
$GAGSV,2,2,08,130,32,063,38,107,21,174,33,136,07,020,23,115,07,117,35*69
$GPGSA,A,3,10,12,15,17,19,23,24,25,32,,,,1.5,0.8,1.2*34
$GNGSA,A,3,10,12,15,17,19,23,24,25,32,,,,1.5,0.8,1.2*2A
$GNGSA,A,3,68,69,70,77,78,79,80,81,87,88,,,1.5,0.8,1.2*2A
$GNGSA,A,3,,,,,,,,,,,,,1.5,0.8,1.2*23
$QZGSA,A,3,,,,,,,,,,,,,1.5,0.8,1.2*21
$BDGSA,A,3,221,222,227,230,236,,,,,,,,1.5,0.8,1.2*1E
$GAGSA,A,3,107,115,118,121,127,130,136,,,,,,1.5,0.8,1.2*17
$GIGSA,A,3,,,,,,,,,,,,,1.5,0.8,1.2*24
$GPRMC,064341.00,A,4825.103477,N,00428.464749,W,000.0,,190521,,,A*67
$GPGGA,064342.00,4825.103477,N,00428.464749,W,1,31,0.4,84.5,M,52.2,M,,*4C
$GPGSV,3,1,11,12,82,221,42,24,60,103,42,25,41,238,23,32,36,306,35*7C
$GPGSV,3,2,11,19,28,050,40,10,17,259,19,15,14,166,34,17,11,032,39*70
$GPGSV,3,3,11,23,06,229,18,06,04,083,,02,01,113,*47
$GLGSV,3,1,10,79,57,294,34,78,54,048,45,69,51,263,28,88,29,093,42*60
$GLGSV,3,2,10,87,28,046,41,68,25,202,30,70,20,332,30,81,07,140,27*67
$GLGSV,3,3,10,80,06,266,20,77,05,074,20*6E
$BDGSV,3,1,12,236,80,036,41,221,32,292,25,230,31,120,35,222,30,230,26*6A
$BDGSV,3,2,12,227,27,060,33,205,08,111,,208,05,057,15,229,05,167,*65
$BDGSV,3,3,12,219,02,188,,210,02,054,,213,01,077,,228,00,018,*62
$GAGSV,2,1,08,127,85,331,36,119,41,300,25,118,35,076,42,121,34,250,26*69
$GAGSV,2,2,08,130,32,063,38,107,21,174,33,115,07,117,35,136,07,020,23*69
$GPGSA,A,3,10,12,15,17,19,23,24,25,32,,,,1.5,0.8,1.2*34
$GNGSA,A,3,10,12,15,17,19,23,24,25,32,,,,1.5,0.8,1.2*2A
$GNGSA,A,3,68,69,70,78,79,80,81,87,88,,,,1.5,0.8,1.2*2A
$GNGSA,A,3,,,,,,,,,,,,,1.5,0.8,1.2*23
$QZGSA,A,3,,,,,,,,,,,,,1.5,0.8,1.2*21
$BDGSA,A,3,221,222,227,230,236,,,,,,,,1.5,0.8,1.2*1E
$GAGSA,A,3,107,115,118,119,121,127,130,136,,,,,1.5,0.8,1.2*2E
$GIGSA,A,3,,,,,,,,,,,,,1.5,0.8,1.2*24
$GPRMC,064342.00,A,4825.103477,N,00428.464749,W,000.0,,190521,,,A*64
$GPGGA,064343.00,4825.103477,N,00428.464749,W,1,32,0.4,84.6,M,52.2,M,,*4D
$GPGSV,3,1,11,12,82,221,42,24,60,103,42,25,41,238,23,32,36,306,35*7C
$GPGSV,3,2,11,19,28,050,40,10,17,259,19,15,14,166,34,17,11,032,39*70
$GPGSV,3,3,11,23,06,229,18,06,04,083,,02,01,113,*47
$GLGSV,3,1,10,79,57,294,34,78,54,048,45,69,51,263,28,88,29,093,42*60
$GLGSV,3,2,10,87,28,046,41,68,25,202,30,70,20,332,31,81,07,140,29*68
$GLGSV,3,3,10,80,06,266,19,77,05,074,21*65
$BDGSV,3,1,12,236,80,036,41,221,32,292,25,230,31,120,35,222,30,230,26*6A
$BDGSV,3,2,12,227,27,060,33,205,08,111,,208,05,057,15,229,05,167,*65
$BDGSV,3,3,12,219,02,188,,210,02,054,,213,01,077,,228,00,018,*62
$GAGSV,2,1,08,127,85,332,36,119,41,300,24,118,35,076,42,121,34,250,26*6B
$GAGSV,2,2,08,130,32,063,38,107,21,174,33,115,07,117,35,136,07,020,23*69
$GPGSA,A,3,10,12,15,17,19,23,24,25,32,,,,1.4,0.8,1.2*35
$GNGSA,A,3,10,12,15,17,19,23,24,25,32,,,,1.4,0.8,1.2*2B
$GNGSA,A,3,68,69,70,77,78,79,80,81,87,88,,,1.4,0.8,1.2*2B
$GNGSA,A,3,,,,,,,,,,,,,1.4,0.8,1.2*22
$QZGSA,A,3,,,,,,,,,,,,,1.4,0.8,1.2*20
$BDGSA,A,3,221,222,227,230,236,,,,,,,,1.4,0.8,1.2*1F
$GAGSA,A,3,107,115,118,121,127,130,136,,,,,,1.4,0.8,1.2*16
$GIGSA,A,3,,,,,,,,,,,,,1.4,0.8,1.2*25
$GPRMC,064343.00,A,4825.103477,N,00428.464749,W,000.0,,190521,,,A*65
$GPGGA,064344.00,4825.103477,N,00428.464749,W,1,31,0.4,84.6,M,52.2,M,,*49
$GPGSV,3,1,11,12,82,221,42,24,60,103,42,25,41,238,23,32,36,306,35*7C
$GPGSV,3,2,11,19,28,050,40,10,17,259,19,15,14,166,34,17,11,032,39*70
$GPGSV,3,3,11,23,06,229,18,06,04,083,,02,01,113,*47
$GLGSV,3,1,10,79,57,294,34,78,54,048,45,69,51,263,29,88,29,093,42*61
$GLGSV,3,2,10,87,28,046,41,68,25,202,29,70,20,332,31,81,07,140,29*60
$GLGSV,3,3,10,80,06,266,19,77,05,074,20*64
$BDGSV,3,1,12,236,80,036,41,221,32,292,25,230,31,120,35,222,30,230,26*6A
$BDGSV,3,2,12,227,27,060,33,205,08,111,,208,05,057,19,229,05,167,*69
$BDGSV,3,3,12,219,02,188,,210,02,054,,213,01,077,,228,00,018,*62
$GAGSV,2,1,08,127,85,332,36,119,41,300,23,118,35,076,42,121,34,250,*68
$GAGSV,2,2,08,130,32,063,38,107,21,174,33,115,07,117,35,136,07,020,23*69
$GPGSA,A,3,10,12,15,17,19,23,24,25,32,,,,1.4,0.8,1.2*35
$GNGSA,A,3,10,12,15,17,19,23,24,25,32,,,,1.4,0.8,1.2*2B
$GNGSA,A,3,68,69,70,78,79,80,81,87,88,,,,1.4,0.8,1.2*2B
$GNGSA,A,3,,,,,,,,,,,,,1.4,0.8,1.2*22
$QZGSA,A,3,,,,,,,,,,,,,1.4,0.8,1.2*20
$BDGSA,A,3,208,221,222,227,230,236,,,,,,,1.4,0.8,1.2*25
$GAGSA,A,3,107,115,118,127,130,136,,,,,,,1.4,0.8,1.2*24
$GIGSA,A,3,,,,,,,,,,,,,1.4,0.8,1.2*25
$GPRMC,064344.00,A,4825.103477,N,00428.464749,W,000.0,,190521,,,A*62
$GPGGA,064345.00,4825.103477,N,00428.464749,W,1,29,0.4,84.7,M,52.2,M,,*40
$GPGSV,3,1,11,12,82,221,42,24,60,103,42,25,41,238,23,32,36,306,35*7C
$GPGSV,3,2,11,19,28,050,40,10,17,259,19,15,14,166,34,17,11,032,39*70
$GPGSV,3,3,11,23,06,229,18,06,05,083,21,02,01,113,*45
$GLGSV,3,1,10,79,57,294,34,78,53,048,45,69,51,263,30,88,29,092,42*6F
$GLGSV,3,2,10,87,28,046,41,68,25,202,29,70,20,332,31,81,08,140,29*6F
$GLGSV,3,3,10,80,06,266,19,77,05,074,20*64
$BDGSV,3,1,12,236,80,036,41,221,32,292,26,230,31,120,35,222,30,230,26*69
$BDGSV,3,2,12,227,27,060,33,205,08,111,,208,06,057,19,229,05,167,*6A
$BDGSV,3,3,12,219,02,188,,210,02,054,,213,01,077,,228,00,018,*62
$GAGSV,2,1,08,127,85,332,36,119,41,300,23,118,35,076,42,121,34,250,*68
$GAGSV,2,2,08,130,32,063,38,107,21,174,33,115,07,117,35,136,07,020,23*69
$GPGSA,A,3,10,12,15,17,19,23,24,25,32,,,,1.4,0.8,1.2*35
$GNGSA,A,3,10,12,15,17,19,23,24,25,32,,,,1.4,0.8,1.2*2B
$GNGSA,A,3,68,69,70,78,79,81,87,88,,,,,1.4,0.8,1.2*23
$GNGSA,A,3,,,,,,,,,,,,,1.4,0.8,1.2*22
$QZGSA,A,3,,,,,,,,,,,,,1.4,0.8,1.2*20
$BDGSA,A,3,221,222,227,230,236,,,,,,,,1.4,0.8,1.2*1F
$GAGSA,A,3,107,115,118,127,130,136,,,,,,,1.4,0.8,1.2*24
$GIGSA,A,3,,,,,,,,,,,,,1.4,0.8,1.2*25
$GPRMC,064345.00,A,4825.103477,N,00428.464749,W,000.0,,190521,,,A*63
$GPGGA,064346.00,4825.103477,N,00428.464749,W,1,30,0.4,84.7,M,52.2,M,,*4B
$GPGSV,3,1,11,12,82,221,42,24,60,103,42,25,41,238,22,32,36,306,35*7D
$GPGSV,3,2,11,19,28,050,40,10,17,259,18,15,14,166,34,17,11,032,39*71
$GPGSV,3,3,11,23,06,229,18,06,05,083,21,02,01,113,*45
$GLGSV,3,1,10,79,57,294,34,78,53,048,45,69,51,263,30,88,29,092,42*6F
$GLGSV,3,2,10,87,28,046,41,68,25,202,29,70,20,332,31,81,08,140,29*6F
$GLGSV,3,3,10,80,06,266,19,77,05,074,20*64
$BDGSV,3,1,12,236,80,036,41,221,32,292,25,230,31,120,35,222,30,230,26*6A
$BDGSV,3,2,12,227,27,060,33,205,08,111,,208,06,057,19,229,05,167,*6A
$BDGSV,3,3,12,219,02,188,,210,02,054,,213,01,077,,228,00,018,*62
$GAGSV,2,1,08,127,85,332,36,119,41,300,22,118,35,076,42,121,34,250,*69
$GAGSV,2,2,08,130,32,063,38,107,21,174,33,115,07,117,35,136,07,020,23*69
$GPGSA,A,3,10,12,15,17,19,23,24,25,32,,,,1.4,0.8,1.2*35
$GNGSA,A,3,10,12,15,17,19,23,24,25,32,,,,1.4,0.8,1.2*2B
$GNGSA,A,3,68,69,70,78,79,80,81,87,88,,,,1.4,0.8,1.2*2B
$GNGSA,A,3,,,,,,,,,,,,,1.4,0.8,1.2*22
$QZGSA,A,3,,,,,,,,,,,,,1.4,0.8,1.2*20
$BDGSA,A,3,208,221,222,227,230,236,,,,,,,1.4,0.8,1.2*25
$GAGSA,A,3,107,115,118,127,130,136,,,,,,,1.4,0.8,1.2*24
$GIGSA,A,3,,,,,,,,,,,,,1.4,0.8,1.2*25
$GPRMC,064346.00,A,4825.103477,N,00428.464749,W,000.0,,190521,,,A*60
$GPGGA,064347.00,4825.103477,N,00428.464749,W,1,31,0.4,84.9,M,52.2,M,,*45
$GPGSV,3,1,11,12,82,221,42,24,60,103,42,25,41,238,22,32,36,306,35*7D
$GPGSV,3,2,11,19,28,050,40,10,17,259,18,15,14,166,34,17,11,032,39*71
$GPGSV,3,3,11,23,06,229,18,06,05,083,20,02,01,113,*44
$GLGSV,3,1,10,79,57,294,34,78,53,048,45,69,51,263,30,88,29,092,42*6F
$GLGSV,3,2,10,87,28,046,41,68,25,202,29,70,20,332,31,81,08,140,29*6F
$GLGSV,3,3,10,80,06,266,19,77,05,074,19*6E
$BDGSV,3,1,12,236,80,036,41,221,32,292,25,230,31,120,35,222,30,230,26*6A
$BDGSV,3,2,12,227,27,060,34,205,08,111,17,208,06,057,19,229,05,167,*6B
$BDGSV,3,3,12,219,02,188,,210,02,054,,213,01,077,,228,00,018,*62
$GAGSV,2,1,08,127,85,332,37,119,41,300,21,118,35,076,42,121,34,250,22*6B
$GAGSV,2,2,08,130,32,063,38,107,21,174,32,115,07,117,35,136,07,020,23*68
$GPGSA,A,3,12,15,17,19,23,24,25,32,,,,,1.5,0.8,1.2*35
$GNGSA,A,3,12,15,17,19,23,24,25,32,,,,,1.5,0.8,1.2*2B
$GNGSA,A,3,68,69,70,78,79,80,81,87,88,,,,1.5,0.8,1.2*2A
$GNGSA,A,3,,,,,,,,,,,,,1.5,0.8,1.2*23
$QZGSA,A,3,,,,,,,,,,,,,1.5,0.8,1.2*21
$BDGSA,A,3,208,221,222,227,230,236,,,,,,,1.5,0.8,1.2*24
$GAGSA,A,3,107,115,118,121,127,130,136,,,,,,1.5,0.8,1.2*17
$GIGSA,A,3,,,,,,,,,,,,,1.5,0.8,1.2*24
$GPRMC,064347.00,A,4825.103477,N,00428.464749,W,000.0,,190521,,,A*61
$GPGGA,064348.00,4825.103477,N,00428.464749,W,1,31,0.4,84.9,M,52.2,M,,*4A
$GPGSV,3,1,11,12,82,221,42,24,60,103,42,25,41,238,22,32,36,306,35*7D
$GPGSV,3,2,11,19,28,050,40,10,17,259,18,15,14,166,34,17,11,032,39*71
$GPGSV,3,3,11,23,06,229,18,06,05,083,,02,01,113,*46
$GLGSV,3,1,10,79,57,294,34,78,53,048,45,69,51,263,30,88,29,092,42*6F
$GLGSV,3,2,10,87,28,046,41,68,25,202,29,70,20,332,31,81,08,140,29*6F
$GLGSV,3,3,10,80,06,266,19,77,05,074,19*6E
$BDGSV,3,1,12,236,80,036,41,221,32,292,25,230,31,120,35,222,30,230,27*6B
$BDGSV,3,2,12,227,27,060,34,205,08,111,,208,06,057,19,229,05,167,*6D
$BDGSV,3,3,12,219,02,188,,210,02,054,,213,01,077,,228,00,018,*62
$GAGSV,2,1,08,127,85,332,37,119,41,300,21,118,35,076,42,121,34,250,22*6B
$GAGSV,2,2,08,130,32,063,38,107,21,174,32,115,07,117,35,136,07,020,23*68
$GPGSA,A,3,10,12,15,17,19,23,24,25,32,,,,1.4,0.8,1.2*35
$GNGSA,A,3,10,12,15,17,19,23,24,25,32,,,,1.4,0.8,1.2*2B
$GNGSA,A,3,68,69,70,78,79,80,81,87,88,,,,1.4,0.8,1.2*2B
$GNGSA,A,3,,,,,,,,,,,,,1.4,0.8,1.2*22
$QZGSA,A,3,,,,,,,,,,,,,1.4,0.8,1.2*20
$BDGSA,A,3,221,222,227,230,236,,,,,,,,1.4,0.8,1.2*1F
$GAGSA,A,3,107,115,118,121,127,130,136,,,,,,1.4,0.8,1.2*16
$GIGSA,A,3,,,,,,,,,,,,,1.4,0.8,1.2*25
$GPRMC,064348.00,A,4825.103477,N,00428.464749,W,000.0,,190521,,,A*6E
$GPGGA,064349.00,4825.103477,N,00428.464749,W,1,30,0.4,85.0,M,52.2,M,,*42
