$GPGSV,3,2,11,06,12,069,38,02,11,101,34,08,38,250,,07,30,136,*78
$GPGSV,3,3,11,21,28,144,,09,28,214,,29,10,194,*43
$GPRMC,071937.000,A,4825.1039,N,00428.4576,W,0.00,244.11,190521,,,A*75
$GPGGA,071938.000,4825.1039,N,00428.4576,W,1,06,1.8,99.4,M,52.0,M,,0000*78
$GPGSA,A,3,12,32,24,19,06,02,,,,,,,2.8,1.8,2.1*3A
$GPRMC,071938.000,A,4825.1039,N,00428.4576,W,0.00,244.11,190521,,,A*7A
$GPGGA,071939.000,4825.1039,N,00428.4576,W,1,06,1.8,99.4,M,52.0,M,,0000*79
$GPGSA,A,3,12,32,24,19,06,02,,,,,,,2.8,1.8,2.1*3A
$GPRMC,071939.000,A,4825.1039,N,00428.4576,W,0.00,244.11,190521,,,A*7B
$GPGGA,071940.000,4825.1039,N,00428.4576,W,1,06,1.8,99.4,M,52.0,M,,0000*77
$GPGSA,A,3,12,32,24,19,06,02,,,,,,,2.8,1.8,2.1*3A
$GPRMC,071940.000,A,4825.1039,N,00428.4576,W,0.00,244.11,190521,,,A*75
$GPGGA,071941.000,4825.1039,N,00428.4577,W,1,06,1.8,99.4,M,52.0,M,,0000*77
$GPGSA,A,3,12,32,24,19,06,02,,,,,,,2.8,1.8,2.1*3A
$GPRMC,071941.000,A,4825.1039,N,00428.4577,W,0.00,244.11,190521,,,A*75
$GPGGA,071942.000,4825.1039,N,00428.4577,W,1,06,1.8,99.4,M,52.0,M,,0000*74
$GPGSA,A,3,12,32,24,19,06,02,,,,,,,2.8,1.8,2.1*3A
$GPGSV,3,1,11,12,79,049,47,32,46,290,31,24,44,115,45,19,17,038,38*7E
$GPGSV,3,2,11,06,12,069,37,02,11,101,35,08,38,250,,07,30,136,*76
$GPGSV,3,3,11,21,28,144,,09,28,214,,29,10,194,*43
$GPRMC,071942.000,A,4825.1039,N,00428.4577,W,0.00,244.11,190521,,,A*76
$GPGGA,071943.000,4825.1039,N,00428.4577,W,1,06,1.8,99.4,M,52.0,M,,0000*75
$GPGSA,A,3,12,32,24,19,06,02,,,,,,,2.8,1.8,2.1*3A
$GPRMC,071943.000,A,4825.1039,N,00428.4577,W,0.00,244.11,190521,,,A*77
$GPGGA,071944.000,4825.1039,N,00428.4577,W,1,06,1.8,99.4,M,52.0,M,,0000*72
$GPGSA,A,3,12,32,24,19,06,02,,,,,,,2.8,1.8,2.1*3A
$GPRMC,071944.000,A,4825.1039,N,00428.4577,W,0.00,244.11,190521,,,A*70
$GPGGA,071945.000,4825.1039,N,00428.4577,W,1,06,1.8,99.4,M,52.0,M,,0000*73
$GPGSA,A,3,12,32,24,19,06,02,,,,,,,2.8,1.8,2.2*39
$GPRMC,071945.000,A,4825.1039,N,00428.4577,W,0.00,244.11,190521,,,A*71
$GPGGA,071946.000,4825.1039,N,00428.4577,W,1,06,1.8,99.4,M,52.0,M,,0000*70
$GPGSA,A,3,12,32,24,19,06,02,,,,,,,2.8,1.8,2.2*39
$GPRMC,071946.000,A,4825.1039,N,00428.4577,W,0.00,244.11,190521,,,A*72
$GPGGA,071947.000,4825.1039,N,00428.4577,W,1,06,1.8,99.4,M,52.0,M,,0000*71
$GPGSA,A,3,12,32,24,19,06,02,,,,,,,2.8,1.8,2.2*39
$GPGSV,3,1,11,12,79,049,47,32,46,290,31,24,44,115,45,19,17,038,38*7E
$GPGSV,3,2,11,06,12,069,37,02,11,101,35,08,38,250,,07,30,136,*76
$GPGSV,3,3,11,21,28,144,,09,28,214,,29,10,194,*43
$GPRMC,071947.000,A,4825.1039,N,00428.4577,W,0.00,244.11,190521,,,A*73
$GPGGA,071948.000,4825.1039,N,00428.4577,W,1,06,1.8,99.4,M,52.0,M,,0000*7E
$GPGSA,A,3,12,32,24,19,06,02,,,,,,,2.8,1.8,2.2*39
$GPRMC,071948.000,A,4825.1039,N,00428.4577,W,0.00,244.11,190521,,,A*7C
$GPGGA,071949.000,4825.1039,N,00428.4577,W,1,06,1.8,99.4,M,52.0,M,,0000*7F
$GPGSA,A,3,12,32,24,19,06,02,,,,,,,2.8,1.8,2.2*39
$GPRMC,071949.000,A,4825.1039,N,00428.4577,W,0.00,244.11,190521,,,A*7D
$GPGGA,071950.000,4825.1039,N,00428.4577,W,1,06,1.8,99.4,M,52.0,M,,0000*77
$GPGSA,A,3,12,32,24,19,06,02,,,,,,,2.8,1.8,2.2*39
$GPRMC,071950.000,A,4825.1039,N,00428.4577,W,0.00,244.11,190521,,,A*75
$GPGGA,071951.000,4825.1039,N,00428.4577,W,1,06,1.8,99.4,M,52.0,M,,0000*76
$GPGSA,A,3,12,32,24,19,06,02,,,,,,,2.8,1.8,2.2*39
$GPRMC,071951.000,A,4825.1039,N,00428.4577,W,0.00,244.11,190521,,,A*74
$GPGGA,071952.000,4825.1039,N,00428.4577,W,1,06,1.8,99.4,M,52.0,M,,0000*75
$GPGSA,A,3,12,32,24,19,06,02,,,,,,,2.8,1.8,2.2*39
$GPGSV,3,1,11,12,79,049,47,32,46,290,32,24,44,115,45,19,17,038,37*72
$GPGSV,3,2,11,06,12,069,38,02,11,101,34,08,38,250,,07,30,136,*78
$GPGSV,3,3,11,21,28,144,,09,28,214,,29,10,194,*43
$GPRMC,071952.000,A,4825.1039,N,00428.4577,W,0.00,244.11,190521,,,A*77
$GPGGA,071953.000,4825.1039,N,00428.4577,W,1,06,1.8,99.4,M,52.0,M,,0000*74
$GPGSA,A,3,12,32,24,19,06,02,,,,,,,2.8,1.8,2.2*39
$GPRMC,071953.000,A,4825.1039,N,00428.4577,W,0.00,244.11,190521,,,A*76
$GPGGA,071954.000,4825.1039,N,00428.4577,W,1,06,1.8,99.3,M,52.0,M,,0000*74
$GPGSA,A,3,12,32,24,19,06,02,,,,,,,2.8,1.8,2.2*39
$GPRMC,071954.000,A,4825.1039,N,00428.4577,W,0.00,244.11,190521,,,A*71
$GPGGA,071955.000,4825.1039,N,00428.4578,W,1,06,1.8,99.3,M,52.0,M,,0000*7A
$GPGSA,A,3,12,32,24,19,06,02,,,,,,,2.8,1.8,2.2*39
$GPRMC,071955.000,A,4825.1039,N,00428.4578,W,0.00,244.11,190521,,,A*7F
$GPGGA,071956.000,4825.1039,N,00428.4578,W,1,06,1.8,99.3,M,52.0,M,,0000*79
$GPGSA,A,3,12,32,24,19,06,02,,,,,,,2.8,1.8,2.2*39
$GPRMC,071956.000,A,4825.1039,N,00428.4578,W,0.00,244.11,190521,,,A*7C
$GPGGA,071957.000,4825.1039,N,00428.4578,W,1,06,1.8,99.3,M,52.0,M,,0000*78
$GPGSA,A,3,12,32,24,19,06,02,,,,,,,2.8,1.8,2.2*39
$GPGSV,3,1,11,12,79,049,47,32,46,290,32,24,44,115,45,19,17,038,37*72
$GPGSV,3,2,11,06,12,069,37,02,11,101,35,08,38,250,,07,30,136,*76
$GPGSV,3,3,11,21,28,144,,09,28,214,,29,10,194,*43
$GPRMC,071957.000,A,4825.1039,N,00428.4578,W,0.00,244.11,190521,,,A*7D
$GPGGA,071958.000,4825.1039,N,00428.4578,W,1,06,1.8,99.3,M,52.0,M,,0000*77
$GPGSA,A,3,12,32,24,19,06,02,,,,,,,2.8,1.8,2.2*39
$GPRMC,071958.000,A,4825.1039,N,00428.4578,W,0.00,244.11,190521,,,A*72
$GPGGA,071959.000,4825.1039,N,00428.4578,W,1,06,1.8,99.3,M,52.0,M,,0000*76
$GPGSA,A,3,12,32,24,19,06,02,,,,,,,2.8,1.8,2.2*39
$GPRMC,071959.000,A,4825.1039,N,00428.4578,W,0.00,244.11,190521,,,A*73
$GPGGA,072000.000,4825.1039,N,00428.4578,W,1,06,1.8,99.3,M,52.0,M,,0000*70
$GPGSA,A,3,12,32,24,19,06,02,,,,,,,2.8,1.8,2.2*39
$GPRMC,072000.000,A,4825.1039,N,00428.4578,W,0.00,244.11,190521,,,A*75
$GPGGA,072001.000,4825.1039,N,00428.4578,W,1,06,1.8,99.3,M,52.0,M,,0000*71
$GPGSA,A,3,12,32,24,19,06,02,,,,,,,2.8,1.8,2.2*39
$GPRMC,072001.000,A,4825.1039,N,00428.4578,W,0.00,244.11,190521,,,A*74
$GPGGA,072002.000,4825.1039,N,00428.4578,W,1,06,1.8,99.3,M,52.0,M,,0000*72
$GPGSA,A,3,12,32,24,19,06,02,,,,,,,2.8,1.8,2.2*39
$GPGSV,3,1,11,12,79,049,47,32,46,290,33,24,44,115,45,19,17,038,37*73
$GPGSV,3,2,11,06,12,069,37,02,11,101,36,08,38,250,,07,30,136,*75
$GPGSV,3,3,11,21,28,144,,09,28,214,,29,10,194,*43
$GPRMC,072002.000,A,4825.1039,N,00428.4578,W,0.00,244.11,190521,,,A*77
$GPGGA,072003.000,4825.1039,N,00428.4578,W,1,06,1.8,99.3,M,52.0,M,,0000*73
$GPGSA,A,3,12,32,24,19,06,02,,,,,,,2.8,1.8,2.2*39
$GPRMC,072003.000,A,4825.1039,N,00428.4578,W,0.00,244.11,190521,,,A*76
$GPGGA,072004.000,4825.1039,N,00428.4578,W,1,06,1.8,99.3,M,52.0,M,,0000*74
$GPGSA,A,3,12,32,24,19,06,02,,,,,,,2.8,1.8,2.2*39
$GPRMC,072004.000,A,4825.1039,N,00428.4578,W,0.00,244.11,190521,,,A*71
$GPGGA,072005.000,4825.1039,N,00428.4578,W,1,06,1.8,99.3,M,52.0,M,,0000*75
$GPGSA,A,3,12,32,24,19,06,02,,,,,,,2.8,1.8,2.2*39
$GPRMC,072005.000,A,4825.1039,N,00428.4578,W,0.00,244.11,190521,,,A*70
$GPGGA,072006.000,4825.1039,N,00428.4578,W,1,06,1.8,99.3,M,52.0,M,,0000*76
$GPGSA,A,3,12,32,24,19,06,02,,,,,,,2.8,1.8,2.2*39
$GPRMC,072006.000,A,4825.1039,N,00428.4578,W,0.00,244.11,190521,,,A*73
$GPGGA,072007.000,4825.1039,N,00428.4578,W,1,06,1.8,99.3,M,52.0,M,,0000*77
$GPGSA,A,3,12,32,24,19,06,02,,,,,,,2.8,1.8,2.2*39
$GPGSV,3,1,11,12,79,049,47,32,46,290,32,24,44,115,45,19,17,038,37*72
$GPGSV,3,2,11,06,12,069,37,02,11,101,36,08,38,250,,07,30,136,*75
$GPGSV,3,3,11,21,28,144,,09,28,214,,29,10,194,*43
$GPRMC,072007.000,A,4825.1039,N,00428.4578,W,0.00,244.11,190521,,,A*72
$GPGGA,072008.000,4825.1039,N,00428.4578,W,1,06,1.8,99.3,M,52.0,M,,0000*78
$GPGSA,A,3,12,32,24,19,06,02,,,,,,,2.8,1.8,2.2*39
$GPRMC,072008.000,A,4825.1039,N,00428.4578,W,0.00,244.11,190521,,,A*7D
$GPGGA,072009.000,4825.1039,N,00428.4578,W,1,06,1.8,99.3,M,52.0,M,,0000*79
$GPGSA,A,3,12,32,24,19,06,02,,,,,,,2.8,1.8,2.2*39
$GPRMC,072009.000,A,4825.1039,N,00428.4578,W,0.00,244.11,190521,,,A*7C
$GPGGA,072010.000,4825.1039,N,00428.4578,W,1,06,1.8,99.3,M,52.0,M,,0000*71
$GPGSA,A,3,12,32,24,19,06,02,,,,,,,2.8,1.8,2.2*39
$GPRMC,072010.000,A,4825.1039,N,00428.4578,W,0.00,244.11,190521,,,A*74
$GPGGA,072011.000,4825.1039,N,00428.4578,W,1,06,1.8,99.3,M,52.0,M,,0000*70
$GPGSA,A,3,12,32,24,19,06,02,,,,,,,2.8,1.8,2.2*39
$GPRMC,072011.000,A,4825.1039,N,00428.4578,W,0.00,244.11,190521,,,A*75
$GPGGA,072012.000,4825.1039,N,00428.4579,W,1,06,1.8,99.3,M,52.0,M,,0000*72
$GPGSA,A,3,12,32,24,19,06,02,,,,,,,2.8,1.8,2.2*39
$GPGSV,3,1,11,12,79,049,47,32,46,290,32,24,44,115,45,19,17,038,37*72
$GPGSV,3,2,11,06,12,069,36,02,11,101,37,08,38,250,,07,30,136,*75
$GPGSA,A,3,12,32,24,19,06,02,,,,,,,2.8,1.8,2.2*39
$GPGSV,3,1,11,12,79,049,46,32,46,290,33,24,44,115,45,19,17,038,38*7D
$GPGSV,3,2,11,06,12,069,36,02,11,101,38,08,38,250,,07,30,136,*7A
$GPGSV,3,3,11,21,28,144,,09,28,214,,29,10,194,*43
$GPRMC,072107.000,A,4825.1039,N,00428.4581,W,0.00,244.11,190521,,,A*75
$GPGGA,072108.000,4825.1039,N,00428.4581,W,1,06,1.8,99.2,M,52.0,M,,0000*7E
$GPGSA,A,3,12,32,24,19,06,02,,,,,,,2.8,1.8,2.2*39
$GPRMC,072108.000,A,4825.1039,N,00428.4581,W,0.00,244.11,190521,,,A*7A
$GPGGA,072109.000,4825.1039,N,00428.4581,W,1,06,1.8,99.2,M,52.0,M,,0000*7F
$GPGSA,A,3,12,32,24,19,06,02,,,,,,,2.8,1.8,2.2*39
$GPRMC,072109.000,A,4825.1039,N,00428.4581,W,0.00,244.11,190521,,,A*7B
$GPGGA,072110.000,4825.1039,N,00428.4581,W,1,06,1.8,99.2,M,52.0,M,,0000*77
$GPGSA,A,3,12,32,24,19,06,02,,,,,,,2.8,1.8,2.2*39
$GPRMC,072110.000,A,4825.1039,N,00428.4581,W,0.00,244.11,190521,,,A*73
$GPGGA,072111.000,4825.1039,N,00428.4581,W,1,06,1.8,99.2,M,52.0,M,,0000*76
$GPGSA,A,3,12,32,24,19,06,02,,,,,,,2.8,1.8,2.2*39
$GPRMC,072111.000,A,4825.1039,N,00428.4581,W,0.00,244.11,190521,,,A*72
$GPGGA,072112.000,4825.1039,N,00428.4581,W,1,06,1.8,99.2,M,52.0,M,,0000*75
$GPGSA,A,3,12,32,24,19,06,02,,,,,,,2.8,1.8,2.2*39
$GPGSV,3,1,11,12,79,049,46,32,46,290,33,24,44,115,45,19,17,038,39*7C
$GPGSV,3,2,11,06,12,069,36,02,11,101,38,08,38,250,,07,30,136,*7A
$GPGSV,3,3,11,21,28,144,,09,28,214,,29,10,194,*43
$GPRMC,072112.000,A,4825.1039,N,00428.4581,W,0.00,244.11,190521,,,A*71
$GPGGA,072113.000,4825.1039,N,00428.4581,W,1,06,1.8,99.2,M,52.0,M,,0000*74
$GPGSA,A,3,12,32,24,19,06,02,,,,,,,2.8,1.8,2.2*39
$GPRMC,072113.000,A,4825.1039,N,00428.4581,W,0.00,244.11,190521,,,A*70
$GPGGA,072114.000,4825.1039,N,00428.4581,W,1,06,1.8,99.2,M,52.0,M,,0000*73
$GPGSA,A,3,12,32,24,19,06,02,,,,,,,2.8,1.8,2.2*39
$GPRMC,072114.000,A,4825.1039,N,00428.4581,W,0.00,244.11,190521,,,A*77
$GPGGA,072115.000,4825.1039,N,00428.4582,W,1,06,1.8,99.2,M,52.0,M,,0000*71
$GPGSA,A,3,12,32,24,19,06,02,,,,,,,2.8,1.8,2.2*39
$GPRMC,072115.000,A,4825.1039,N,00428.4582,W,0.00,244.11,190521,,,A*75
$GPGGA,072116.000,4825.1039,N,00428.4582,W,1,06,1.8,99.2,M,52.0,M,,0000*72
$GPGSA,A,3,12,32,24,19,06,02,,,,,,,2.8,1.8,2.2*39
$GPRMC,072116.000,A,4825.1039,N,00428.4582,W,0.00,244.11,190521,,,A*76
$GPGGA,072117.000,4825.1039,N,00428.4582,W,1,06,1.8,99.2,M,52.0,M,,0000*73
$GPGSA,A,3,12,32,24,19,06,02,,,,,,,2.8,1.8,2.2*39
$GPGSV,3,1,11,12,79,049,46,32,46,290,34,24,44,115,45,19,17,038,40*75
$GPGSV,3,2,11,06,12,069,37,02,11,101,37,08,38,250,,07,30,136,*74
$GPGSV,3,3,11,21,28,144,,09,28,214,,29,10,194,*43
$GPRMC,072117.000,A,4825.1039,N,00428.4582,W,0.00,244.11,190521,,,A*77
$GPGGA,072118.000,4825.1039,N,00428.4582,W,1,06,1.8,99.2,M,52.0,M,,0000*7C
$GPGSA,A,3,12,32,24,19,06,02,,,,,,,2.8,1.8,2.2*39
$GPRMC,072118.000,A,4825.1039,N,00428.4582,W,0.00,244.11,190521,,,A*78
$GPGGA,072119.000,4825.1039,N,00428.4582,W,1,06,1.8,99.2,M,52.0,M,,0000*7D
$GPGSA,A,3,12,32,24,19,06,02,,,,,,,2.8,1.8,2.2*39
$GPRMC,072119.000,A,4825.1039,N,00428.4582,W,0.00,244.11,190521,,,A*79
$GPGGA,072120.000,4825.1039,N,00428.4582,W,1,06,1.8,99.2,M,52.0,M,,0000*77
$GPGSA,A,3,12,32,24,19,06,02,,,,,,,2.8,1.8,2.2*39
$GPRMC,072120.000,A,4825.1039,N,00428.4582,W,0.00,244.11,190521,,,A*73
$GPGGA,072121.000,4825.1039,N,00428.4582,W,1,06,1.8,99.2,M,52.0,M,,0000*76
$GPGSA,A,3,12,32,24,19,06,02,,,,,,,2.8,1.8,2.2*39
$GPRMC,072121.000,A,4825.1039,N,00428.4582,W,0.00,244.11,190521,,,A*72
$GPGGA,072122.000,4825.1039,N,00428.4582,W,1,06,1.8,99.2,M,52.0,M,,0000*75
$GPGSA,A,3,12,32,24,19,06,02,,,,,,,2.8,1.8,2.2*39
$GPGSV,3,1,11,12,78,049,46,32,46,289,34,24,43,116,46,19,16,037,39*7B
$GPGSV,3,2,11,06,13,068,37,02,12,100,37,08,37,249,,07,31,135,*73
$GPGSV,3,3,11,09,29,214,,21,27,145,,29,09,193,*43
$GPRMC,072122.000,A,4825.1039,N,00428.4582,W,0.00,244.11,190521,,,A*71
$GPGGA,072123.000,4825.1039,N,00428.4582,W,1,06,1.8,99.2,M,52.0,M,,0000*74
$GPGSA,A,3,12,32,24,19,06,02,,,,,,,2.8,1.8,2.2*39
$GPRMC,072123.000,A,4825.1039,N,00428.4582,W,0.00,244.11,190521,,,A*70
$GPGGA,072124.000,4825.1039,N,00428.4582,W,1,06,1.8,99.2,M,52.0,M,,0000*73
$GPGSA,A,3,12,32,24,19,06,02,,,,,,,2.8,1.8,2.2*39
$GPRMC,072124.000,A,4825.1039,N,00428.4582,W,0.00,244.11,190521,,,A*77
$GPGGA,072125.000,4825.1039,N,00428.4582,W,1,06,1.8,99.2,M,52.0,M,,0000*72
$GPGSA,A,3,12,32,24,19,06,02,,,,,,,2.8,1.8,2.2*39
$GPRMC,072125.000,A,4825.1039,N,00428.4582,W,0.00,244.11,190521,,,A*76
$GPGGA,072126.000,4825.1039,N,00428.4582,W,1,06,1.8,99.2,M,52.0,M,,0000*71
$GPGSA,A,3,12,32,24,19,06,02,,,,,,,2.8,1.8,2.2*39
$GPRMC,072126.000,A,4825.1039,N,00428.4582,W,0.00,244.11,190521,,,A*75
$GPGGA,072127.000,4825.1039,N,00428.4582,W,1,06,1.8,99.2,M,52.0,M,,0000*70
$GPGSA,A,3,12,32,24,19,06,02,,,,,,,2.8,1.8,2.2*39
$GPGSV,3,1,11,12,78,049,46,32,46,289,33,24,43,116,46,19,16,037,39*7C
$GPGSV,3,2,11,06,13,068,35,02,12,100,38,08,37,249,,07,31,135,*7E
$GPGSV,3,3,11,09,29,214,,21,27,145,,29,09,193,*43
$GPRMC,072127.000,A,4825.1039,N,00428.4582,W,0.00,244.11,190521,,,A*74
$GPGGA,072128.000,4825.1039,N,00428.4582,W,1,06,1.8,99.2,M,52.0,M,,0000*7F
$GPGSA,A,3,12,32,24,19,06,02,,,,,,,2.8,1.8,2.2*39
$GPRMC,072128.000,A,4825.1039,N,00428.4582,W,0.00,244.11,190521,,,A*7B
$GPGGA,072129.000,4825.1039,N,00428.4582,W,1,06,1.8,99.2,M,52.0,M,,0000*7E
$GPGSA,A,3,12,32,24,19,06,02,,,,,,,2.8,1.8,2.2*39
$GPRMC,072129.000,A,4825.1039,N,00428.4582,W,0.00,244.11,190521,,,A*7A
$GPGGA,072130.000,4825.1039,N,00428.4582,W,1,06,1.8,99.2,M,52.0,M,,0000*76
$GPGSA,A,3,12,32,24,19,06,02,,,,,,,2.8,1.8,2.2*39
$GPRMC,072130.000,A,4825.1039,N,00428.4582,W,0.00,244.11,190521,,,A*72
$GPGGA,072131.000,4825.1039,N,00428.4582,W,1,06,1.8,99.2,M,52.0,M,,0000*77
$GPGSA,A,3,12,32,24,19,06,02,,,,,,,2.8,1.8,2.2*39
$GPRMC,072131.000,A,4825.1039,N,00428.4582,W,0.00,244.11,190521,,,A*73
$GPGGA,072132.000,4825.1039,N,00428.4582,W,1,06,1.8,99.2,M,52.0,M,,0000*74
$GPGSA,A,3,12,32,24,19,06,02,,,,,,,2.8,1.8,2.2*39
$GPGSV,3,1,11,12,78,049,46,32,46,289,33,24,43,116,46,19,16,037,40*72
$GPGSV,3,2,11,06,13,068,35,02,12,100,38,08,37,249,,07,31,135,*7E
$GPGSV,3,3,11,09,29,214,,21,27,145,,29,09,193,*43
$GPRMC,072132.000,A,4825.1039,N,00428.4582,W,0.00,244.11,190521,,,A*70
$GPGGA,072133.000,4825.1039,N,00428.4582,W,1,06,1.8,99.2,M,52.0,M,,0000*75
$GPGSA,A,3,12,32,24,19,06,02,,,,,,,2.8,1.8,2.2*39
$GPRMC,072133.000,A,4825.1039,N,00428.4582,W,0.00,244.11,190521,,,A*71
$GPGGA,072134.000,4825.1039,N,00428.4582,W,1,06,1.8,99.2,M,52.0,M,,0000*72
$GPGSA,A,3,12,32,24,19,06,02,,,,,,,2.8,1.8,2.2*39
$GPRMC,072134.000,A,4825.1039,N,00428.4582,W,0.00,244.11,190521,,,A*76
$GPGGA,072135.000,4825.1039,N,00428.4582,W,1,06,1.8,99.2,M,52.0,M,,0000*73
$GPGSA,A,3,12,32,24,19,06,02,,,,,,,2.8,1.8,2.2*39
$GPRMC,072135.000,A,4825.1039,N,00428.4582,W,0.00,244.11,190521,,,A*77
$GPGGA,072136.000,4825.1039,N,00428.4582,W,1,06,1.8,99.2,M,52.0,M,,0000*70
$GPGSA,A,3,12,32,24,19,06,02,,,,,,,2.8,1.8,2.2*39
$GPRMC,072136.000,A,4825.1039,N,00428.4582,W,0.00,244.11,190521,,,A*74
$GPGGA,072137.000,4825.1039,N,00428.4583,W,1,06,1.8,99.2,M,52.0,M,,0000*70
$GPGSA,A,3,12,32,24,19,06,02,,,,,,,2.8,1.8,2.2*39
$GPGSV,3,1,11,12,78,049,46,32,46,289,33,24,43,116,46,19,16,037,39*7C
$GPGSV,3,2,11,06,13,068,35,02,12,100,38,08,37,249,,07,31,135,*7E
$GPGSV,3,3,11,09,29,214,,21,27,145,,29,09,193,*43
$GPRMC,072137.000,A,4825.1039,N,00428.4583,W,0.00,244.11,190521,,,A*74
$GPGGA,072138.000,4825.1039,N,00428.4583,W,1,06,1.8,99.2,M,52.0,M,,0000*7F
$GPGSA,A,3,12,32,24,19,06,02,,,,,,,2.8,1.8,2.2*39
$GPRMC,072138.000,A,4825.1039,N,00428.4583,W,0.00,244.11,190521,,,A*7B
$GPGGA,072139.000,4825.1039,N,00428.4583,W,1,06,1.8,99.2,M,52.0,M,,0000*7E
$GPGSA,A,3,12,32,24,19,06,02,,,,,,,2.8,1.8,2.2*39
$GPRMC,072139.000,A,4825.1039,N,00428.4583,W,0.00,244.11,190521,,,A*7A
$GPGGA,072140.000,4825.1039,N,00428.4583,W,1,06,1.8,99.2,M,52.0,M,,0000*70
$GPGSA,A,3,12,32,24,19,06,02,,,,,,,2.8,1.8,2.2*39
$GPRMC,072140.000,A,4825.1039,N,00428.4583,W,0.00,244.11,190521,,,A*74
$GPGGA,072141.000,4825.1039,N,00428.4583,W,1,06,1.8,99.2,M,52.0,M,,0000*71
$GPGSA,A,3,12,32,24,19,06,02,,,,,,,2.8,1.8,2.2*39
$GPRMC,072141.000,A,4825.1039,N,00428.4583,W,0.00,244.11,190521,,,A*75
$GPGGA,072142.000,4825.1039,N,00428.4583,W,1,06,1.8,99.2,M,52.0,M,,0000*72
$GPGSA,A,3,12,32,24,19,06,02,,,,,,,2.8,1.8,2.2*39
$GPGSV,3,1,11,12,78,049,46,32,46,289,33,24,43,116,46,19,16,037,39*7C
$GPGSV,3,2,11,06,13,068,35,02,12,100,37,08,37,249,,07,31,135,*71
$GPGSV,3,3,11,09,29,214,,21,27,145,,29,09,193,*43
$GPRMC,072142.000,A,4825.1039,N,00428.4583,W,0.00,244.11,190521,,,A*76
$GPGGA,072143.000,4825.1039,N,00428.4583,W,1,06,1.8,99.2,M,52.0,M,,0000*73
$GPGSA,A,3,12,32,24,19,06,02,,,,,,,2.8,1.8,2.2*39
$GPRMC,072143.000,A,4825.1039,N,00428.4583,W,0.00,244.11,190521,,,A*77
$GPGGA,072144.000,4825.1039,N,00428.4583,W,1,06,1.8,99.2,M,52.0,M,,0000*74
$GPGSA,A,3,12,32,24,19,06,02,,,,,,,2.8,1.8,2.2*39
$GPRMC,072144.000,A,4825.1039,N,00428.4583,W,0.00,244.11,190521,,,A*70
$GPGGA,072145.000,4825.1039,N,00428.4583,W,1,06,1.8,99.2,M,52.0,M,,0000*75
$GPGSA,A,3,12,32,24,19,06,02,,,,,,,2.8,1.8,2.2*39
$GPRMC,072145.000,A,4825.1039,N,00428.4583,W,0.00,244.11,190521,,,A*71
$GPGGA,072146.000,4825.1039,N,00428.4583,W,1,06,1.8,99.2,M,52.0,M,,0000*76
$GPGSA,A,3,12,32,24,19,06,02,,,,,,,2.8,1.8,2.2*39
$GPRMC,072146.000,A,4825.1039,N,00428.4583,W,0.00,244.11,190521,,,A*72
$GPGGA,072147.000,4825.1039,N,00428.4583,W,1,06,1.8,99.2,M,52.0,M,,0000*77
$GPGSA,A,3,12,32,24,19,06,02,,,,,,,2.8,1.8,2.2*39
$GPGSV,3,1,11,12,78,049,46,32,46,289,34,24,43,116,46,19,16,037,38*7A
$GPGSV,3,2,11,06,13,068,35,02,12,100,30,08,37,249,,07,31,135,*76
$GPGSV,3,3,11,09,29,214,,21,27,145,,29,09,193,*43
$GPRMC,072147.000,A,4825.1039,N,00428.4583,W,0.00,244.11,190521,,,A*73
$GPGGA,072148.000,4825.1039,N,00428.4583,W,1,06,1.8,99.1,M,52.0,M,,0000*7B
$GPGSA,A,3,12,32,24,19,06,02,,,,,,,2.8,1.8,2.2*39
$GPRMC,072148.000,A,4825.1039,N,00428.4583,W,0.00,244.11,190521,,,A*7C
$GPGGA,072149.000,4825.1039,N,00428.4583,W,1,06,1.8,99.1,M,52.0,M,,0000*7A
$GPGSA,A,3,12,32,24,19,06,02,,,,,,,2.8,1.8,2.2*39
$GPRMC,072149.000,A,4825.1039,N,00428.4583,W,0.00,244.11,190521,,,A*7D
$GPGGA,072150.000,4825.1039,N,00428.4583,W,1,06,1.8,99.1,M,52.0,M,,0000*72
$GPGSA,A,3,12,32,24,19,06,02,,,,,,,2.8,1.8,2.2*39
$GPRMC,072150.000,A,4825.1039,N,00428.4583,W,0.00,244.11,190521,,,A*75
$GPGGA,072151.000,4825.1039,N,00428.4583,W,1,06,1.8,99.1,M,52.0,M,,0000*73
$GPGSA,A,3,12,32,24,19,06,02,,,,,,,2.8,1.8,2.2*39
$GPRMC,072151.000,A,4825.1039,N,00428.4583,W,0.00,244.11,190521,,,A*74
$GPGGA,072152.000,4825.1039,N,00428.4583,W,1,06,1.8,99.1,M,52.0,M,,0000*70
$GPGSA,A,3,12,32,24,19,06,02,,,,,,,2.8,1.8,2.2*39
$GPGSV,3,1,11,12,78,049,46,32,46,289,34,24,43,116,46,19,16,037,35*77
$GPGSV,3,2,11,06,13,068,35,02,12,100,26,08,37,249,,07,31,135,*71
$GPGSV,3,3,11,09,29,214,,21,27,145,,29,09,193,*43
$GPRMC,072152.000,A,4825.1039,N,00428.4583,W,0.00,244.11,190521,,,A*77
$GPGGA,072153.000,4825.1039,N,00428.4583,W,1,06,1.8,99.1,M,52.0,M,,0000*71
$GPGSA,A,3,12,32,24,19,06,02,,,,,,,2.8,1.8,2.2*39
$GPRMC,072153.000,A,4825.1039,N,00428.4583,W,0.00,244.11,190521,,,A*76
$GPGGA,072154.000,4825.1039,N,00428.4583,W,1,06,1.8,99.1,M,52.0,M,,0000*76
$GPGSA,A,3,12,32,24,19,06,02,,,,,,,2.8,1.8,2.2*39
$GPRMC,072154.000,A,4825.1039,N,00428.4583,W,0.00,244.11,190521,,,A*71
$GPGGA,072155.000,4825.1039,N,00428.4583,W,1,06,1.8,99.1,M,52.0,M,,0000*77
$GPGSA,A,3,12,32,24,19,06,02,,,,,,,2.8,1.8,2.2*39
$GPRMC,072155.000,A,4825.1039,N,00428.4583,W,0.00,244.11,190521,,,A*70
$GPGGA,072156.000,4825.1039,N,00428.4583,W,1,06,1.8,99.1,M,52.0,M,,0000*74
$GPGSA,A,3,12,32,24,19,06,02,,,,,,,2.8,1.8,2.2*39
$GPRMC,072156.000,A,4825.1039,N,00428.4583,W,0.00,244.11,190521,,,A*73
$GPGGA,072157.000,4825.1039,N,00428.4583,W,1,06,1.8,99.1,M,52.0,M,,0000*75
$GPGSA,A,3,12,32,24,19,06,02,,,,,,,2.8,1.8,2.2*39
$GPGSV,3,1,11,12,78,049,47,32,46,289,33,24,43,116,45,19,16,037,36*71
$GPGSV,3,2,11,06,13,068,34,02,12,100,30,08,37,249,,07,31,135,*77
$GPGSV,3,3,11,09,29,214,,21,27,145,,29,09,193,*43
$GPRMC,072157.000,A,4825.1039,N,00428.4583,W,0.00,244.11,190521,,,A*72
$GPGGA,072158.000,4825.1039,N,00428.4583,W,1,06,1.8,99.1,M,52.0,M,,0000*7A
$GPGSA,A,3,12,32,24,19,06,02,,,,,,,2.8,1.8,2.2*39
$GPRMC,072158.000,A,4825.1039,N,00428.4583,W,0.00,244.11,190521,,,A*7D
$GPGGA,072159.000,4825.1039,N,00428.4583,W,1,06,1.8,99.1,M,52.0,M,,0000*7B
$GPGSA,A,3,12,32,24,19,06,02,,,,,,,2.8,1.8,2.2*39
$GPRMC,072159.000,A,4825.1039,N,00428.4583,W,0.00,244.11,190521,,,A*7C
$GPGGA,072200.000,4825.1039,N,00428.4583,W,1,06,1.8,99.1,M,52.0,M,,0000*74
$GPGSA,A,3,12,32,24,19,06,02,,,,,,,2.8,1.8,2.2*39
$GPRMC,072200.000,A,4825.1039,N,00428.4583,W,0.00,244.11,190521,,,A*73
$GPGGA,072201.000,4825.1039,N,00428.4583,W,1,06,1.8,99.1,M,52.0,M,,0000*75
$GPGSA,A,3,12,32,24,19,06,02,,,,,,,2.8,1.8,2.2*39
$GPRMC,072201.000,A,4825.1039,N,00428.4583,W,0.00,244.11,190521,,,A*72
$GPGGA,072202.000,4825.1039,N,00428.4583,W,1,06,1.8,99.1,M,52.0,M,,0000*76
$GPGSA,A,3,12,32,24,19,06,02,,,,,,,2.8,1.8,2.2*39
$GPGSV,3,1,11,12,78,049,47,32,46,289,33,24,43,116,45,19,16,037,36*71
$GPGSV,3,2,11,06,13,068,34,02,12,100,30,08,37,249,,07,31,135,*77
$GPGSV,3,3,11,09,29,214,,21,27,145,,29,09,193,*43
$GPRMC,072202.000,A,4825.1039,N,00428.4583,W,0.00,244.11,190521,,,A*71
$GPGGA,072203.000,4825.1039,N,00428.4584,W,1,06,1.8,99.1,M,52.0,M,,0000*70
$GPGSA,A,3,12,32,24,19,06,02,,,,,,,2.8,1.8,2.2*39
$GPRMC,072203.000,A,4825.1039,N,00428.4584,W,0.00,244.11,190521,,,A*77
$GPGGA,072204.000,4825.1039,N,00428.4584,W,1,06,1.8,99.1,M,52.0,M,,0000*77
$GPGSA,A,3,12,32,24,19,06,02,,,,,,,2.8,1.8,2.2*39
$GPRMC,072204.000,A,4825.1039,N,00428.4584,W,0.00,244.11,190521,,,A*70
$GPGGA,072205.000,4825.1039,N,00428.4584,W,1,06,1.8,99.1,M,52.0,M,,0000*76
$GPGSA,A,3,12,32,24,19,06,02,,,,,,,2.8,1.8,2.2*39
$GPRMC,072205.000,A,4825.1039,N,00428.4584,W,0.00,244.11,190521,,,A*71
$GPGGA,072206.000,4825.1039,N,00428.4584,W,1,06,1.8,99.1,M,52.0,M,,0000*75
$GPGSA,A,3,12,32,24,19,06,02,,,,,,,2.8,1.8,2.2*39
$GPRMC,072206.000,A,4825.1039,N,00428.4584,W,0.00,244.11,190521,,,A*72
$GPGGA,072207.000,4825.1039,N,00428.4584,W,1,06,1.8,99.1,M,52.0,M,,0000*74
$GPGSA,A,3,12,32,24,19,06,02,,,,,,,2.8,1.8,2.2*39

