$GPGGA,073721.000,4825.1432,N,00428.4544,W,1,08,1.3,93.0,M,52.0,M,,0000*79
$GPGSA,A,3,25,29,31,12,32,02,06,26,,,,,2.0,1.3,1.6*39
$GPGSV,3,1,12,25,72,056,43,29,60,184,39,31,40,303,43,12,34,075,44*73
$GPGSV,3,1,12,25,72,056,43,29,60,184,39,31,40,303,43,12,34,075,44*73
$GPGSV,3,2,12,32,32,229,37,02,26,058,43,06,10,029,15,26,07,270,32*75
$GPGSV,3,2,12,32,32,229,37,02,26,058,43,06,10,029,15,26,07,270,32*75
$GPGSV,3,3,12,57,68,131,,58,68,131,,59,68,131,,07,50,077,*76
$GPGSV,3,3,12,57,68,131,,58,68,131,,59,68,131,,07,50,077,*76
$GPRMC,073721.000,A,4825.1432,N,00428.4544,W,0.00,259.32,090621,,,A*7F
$GPGGA,073722.000,4825.1432,N,00428.4544,W,1,08,1.3,93.0,M,52.0,M,,0000*7A
$GPGSA,A,3,25,29,31,12,32,02,06,26,,,,,2.0,1.3,1.6*39
$GPRMC,073722.000,A,4825.1432,N,00428.4544,W,0.00,259.32,090621,,,A*7C
$GPGGA,073723.000,4825.1432,N,00428.4544,W,1,08,1.3,93.0,M,52.0,M,,0000*7B
$GPGSA,A,3,25,29,31,12,32,02,06,26,,,,,2.0,1.3,1.6*39
$GPRMC,073723.000,A,4825.1432,N,00428.4544,W,0.00,259.32,090621,,,A*7D
$GPGGA,073724.000,4825.1432,N,00428.4544,W,1,08,1.3,93.0,M,52.0,M,,0000*7C
$GPGSA,A,3,25,29,31,12,32,02,06,26,,,,,2.0,1.3,1.6*39
$GPRMC,073724.000,A,4825.1432,N,00428.4544,W,0.00,259.32,090621,,,A*7A
$GPGGA,073725.000,4825.1432,N,00428.4544,W,1,08,1.3,93.0,M,52.0,M,,0000*7D
$GPGSA,A,3,25,29,31,12,32,02,06,26,,,,,2.0,1.3,1.6*39
$GPRMC,073725.000,A,4825.1432,N,00428.4544,W,0.00,259.32,090621,,,A*7B
$GPGGA,073726.000,4825.1432,N,00428.4544,W,1,08,1.3,93.0,M,52.0,M,,0000*7E
$GPGSA,A,3,25,29,31,12,32,02,06,26,,,,,2.0,1.3,1.6*39
$GPGSV,3,1,12,25,72,056,43,29,60,184,39,31,40,303,43,12,34,075,44*73
$GPGSV,3,1,12,25,72,056,43,29,60,184,39,31,40,303,43,12,34,075,44*73
$GPGSV,3,2,12,32,32,229,38,02,26,058,43,06,10,029,15,26,07,270,32*7A
$GPGSV,3,2,12,32,32,229,38,02,26,058,43,06,10,029,15,26,07,270,32*7A
$GPGSV,3,3,12,57,68,131,,58,68,131,,59,68,131,,07,50,077,*76
$GPGSV,3,3,12,57,68,131,,58,68,131,,59,68,131,,07,50,077,*76
$GPRMC,073726.000,A,4825.1432,N,00428.4544,W,0.00,259.32,090621,,,A*78
$GPGGA,073727.000,4825.1432,N,00428.4544,W,1,08,1.3,93.0,M,52.0,M,,0000*7F
$GPGSA,A,3,25,29,31,12,32,02,06,26,,,,,2.0,1.3,1.6*39
$GPRMC,073727.000,A,4825.1432,N,00428.4544,W,0.00,259.32,090621,,,A*79
$GPGGA,073728.000,4825.1432,N,00428.4544,W,1,08,1.3,93.0,M,52.0,M,,0000*70
$GPGSA,A,3,25,29,31,12,32,02,06,26,,,,,2.0,1.3,1.6*39
$GPRMC,073728.000,A,4825.1432,N,00428.4544,W,0.00,259.32,090621,,,A*76
$GPGGA,073729.000,4825.1432,N,00428.4544,W,1,08,1.3,92.9,M,52.0,M,,0000*79
$GPGSA,A,3,25,29,31,12,32,02,06,26,,,,,2.0,1.3,1.6*39
$GPRMC,073729.000,A,4825.1432,N,00428.4544,W,0.00,259.32,090621,,,A*77
$GPGGA,073730.000,4825.1432,N,00428.4544,W,1,08,1.3,92.9,M,52.0,M,,0000*71
$GPGSA,A,3,25,29,31,12,32,02,06,26,,,,,2.0,1.3,1.6*39
$GPRMC,073730.000,A,4825.1432,N,00428.4544,W,0.00,259.32,090621,,,A*7F
$GPGGA,073731.000,4825.1432,N,00428.4544,W,1,08,1.3,92.9,M,52.0,M,,0000*70
$GPGSA,A,3,25,29,31,12,32,02,06,26,,,,,2.0,1.3,1.6*39
$GPGSV,3,1,12,25,72,056,43,29,60,184,39,31,40,303,43,12,34,075,37*77
$GPGSV,3,1,12,25,72,056,43,29,60,184,39,31,40,303,43,12,34,075,37*77
$GPGSV,3,2,12,32,32,229,38,02,26,058,42,06,10,029,16,26,07,270,32*78
$GPGSV,3,2,12,32,32,229,38,02,26,058,42,06,10,029,16,26,07,270,32*78
$GPGSV,3,3,12,57,68,131,,58,68,131,,59,68,131,,07,50,077,*76
$GPGSV,3,3,12,57,68,131,,58,68,131,,59,68,131,,07,50,077,*76
$GPRMC,073731.000,A,4825.1432,N,00428.4544,W,0.00,259.32,090621,,,A*7E
$GPGGA,073732.000,4825.1432,N,00428.4544,W,1,08,1.3,92.9,M,52.0,M,,0000*73
$GPGSA,A,3,25,29,31,12,32,02,06,26,,,,,2.0,1.3,1.6*39
$GPRMC,073732.000,A,4825.1432,N,00428.4544,W,0.00,259.32,090621,,,A*7D
$GPGGA,073733.000,4825.1432,N,00428.4544,W,1,08,1.3,92.9,M,52.0,M,,0000*72
$GPGSA,A,3,25,29,31,12,32,02,06,26,,,,,2.0,1.3,1.6*39
$GPRMC,073733.000,A,4825.1432,N,00428.4544,W,0.00,259.32,090621,,,A*7C
$GPGGA,073734.000,4825.1432,N,00428.4544,W,1,08,1.3,92.9,M,52.0,M,,0000*75
$GPGSA,A,3,25,29,31,12,32,02,06,26,,,,,2.0,1.3,1.6*39
$GPRMC,073734.000,A,4825.1432,N,00428.4544,W,0.00,259.32,090621,,,A*7B
$GPGGA,073735.000,4825.1432,N,00428.4544,W,1,08,1.3,92.9,M,52.0,M,,0000*74
$GPGSA,A,3,25,29,31,12,32,02,06,26,,,,,2.0,1.3,1.6*39
$GPRMC,073735.000,A,4825.1432,N,00428.4544,W,0.00,259.32,090621,,,A*7A
$GPGGA,073736.000,4825.1432,N,00428.4544,W,1,08,1.3,92.9,M,52.0,M,,0000*77
$GPGSA,A,3,25,29,31,12,32,02,06,26,,,,,2.0,1.3,1.6*39
$GPGSV,3,1,12,25,72,056,43,29,60,184,39,31,40,303,43,12,34,075,44*73
$GPGSV,3,1,12,25,72,056,43,29,60,184,39,31,40,303,43,12,34,075,44*73
$GPGSV,3,2,12,32,32,229,37,02,26,058,42,06,10,029,17,26,07,270,32*76
$GPGSV,3,2,12,32,32,229,37,02,26,058,42,06,10,029,17,26,07,270,32*76
$GPGSV,3,3,12,57,68,131,,58,68,131,,59,68,131,,07,50,077,*76
$GPGSV,3,3,12,57,68,131,,58,68,131,,59,68,131,,07,50,077,*76
$GPRMC,073736.000,A,4825.1432,N,00428.4544,W,0.00,259.32,090621,,,A*79
$GPGGA,073737.000,4825.1432,N,00428.4544,W,1,08,1.3,92.9,M,52.0,M,,0000*76
$GPGSA,A,3,25,29,31,12,32,02,06,26,,,,,2.0,1.3,1.6*39
$GPRMC,073737.000,A,4825.1432,N,00428.4544,W,0.00,259.32,090621,,,A*78
$GPGGA,073738.000,4825.1432,N,00428.4544,W,1,08,1.3,92.9,M,52.0,M,,0000*79
$GPGSA,A,3,25,29,31,12,32,02,06,26,,,,,2.0,1.3,1.6*39
$GPRMC,073738.000,A,4825.1432,N,00428.4544,W,0.00,259.32,090621,,,A*77
$GPGGA,073739.000,4825.1432,N,00428.4544,W,1,08,1.3,92.9,M,52.0,M,,0000*78
$GPGSA,A,3,25,29,31,12,32,02,06,26,,,,,2.0,1.3,1.6*39
$GPRMC,073739.000,A,4825.1432,N,00428.4544,W,0.00,259.32,090621,,,A*76
$GPGGA,073740.000,4825.1432,N,00428.4544,W,1,08,1.3,92.9,M,52.0,M,,0000*76
$GPGSA,A,3,25,29,31,12,32,02,06,26,,,,,2.0,1.3,1.6*39
$GPRMC,073740.000,A,4825.1432,N,00428.4544,W,0.00,259.32,090621,,,A*78
$GPGGA,073741.000,4825.1432,N,00428.4544,W,1,08,1.3,92.9,M,52.0,M,,0000*77
$GPGSA,A,3,25,29,31,12,32,02,06,26,,,,,2.0,1.3,1.6*39
$GPGSV,3,1,12,25,72,056,43,29,60,184,39,31,40,303,43,12,34,075,44*73
$GPGSV,3,1,12,25,72,056,43,29,60,184,39,31,40,303,43,12,34,075,44*73
$GPGSV,3,2,12,32,32,229,37,02,26,058,42,06,10,029,15,26,07,270,32*74
$GPGSV,3,2,12,32,32,229,37,02,26,058,42,06,10,029,15,26,07,270,32*74
$GPGSV,3,3,12,57,68,131,,58,68,131,,59,68,131,,07,50,077,*76
$GPGSV,3,3,12,57,68,131,,58,68,131,,59,68,131,,07,50,077,*76
$GPRMC,073741.000,A,4825.1432,N,00428.4544,W,0.00,259.32,090621,,,A*79
$GPGGA,073742.000,4825.1432,N,00428.4544,W,1,08,1.3,92.9,M,52.0,M,,0000*74
$GPGSA,A,3,25,29,31,12,32,02,06,26,,,,,2.0,1.3,1.6*39
$GPRMC,073742.000,A,4825.1432,N,00428.4544,W,0.00,259.32,090621,,,A*7A
$GPGGA,073743.000,4825.1432,N,00428.4544,W,1,08,1.3,92.9,M,52.0,M,,0000*75
$GPGSA,A,3,25,29,31,12,32,02,06,26,,,,,2.0,1.3,1.6*39
$GPRMC,073743.000,A,4825.1432,N,00428.4544,W,0.00,259.32,090621,,,A*7B
$GPGGA,073744.000,4825.1432,N,00428.4544,W,1,08,1.3,92.9,M,52.0,M,,0000*72
$GPGSA,A,3,25,29,31,12,32,02,06,26,,,,,2.0,1.3,1.6*39
$GPRMC,073744.000,A,4825.1432,N,00428.4544,W,0.00,259.32,090621,,,A*7C
$GPGGA,073745.000,4825.1432,N,00428.4544,W,1,08,1.3,92.9,M,52.0,M,,0000*73
$GPGSA,A,3,25,29,31,12,32,02,06,26,,,,,2.0,1.3,1.6*39
$GPRMC,073745.000,A,4825.1432,N,00428.4544,W,0.00,259.32,090621,,,A*7D
$GPGGA,073746.000,4825.1432,N,00428.4544,W,1,08,1.3,92.9,M,52.0,M,,0000*70
$GPGSA,A,3,25,29,31,12,32,02,06,26,,,,,2.0,1.3,1.6*39
$GPGSV,3,1,12,25,72,056,42,29,60,184,39,31,40,303,43,12,34,075,43*75
$GPGSV,3,1,12,25,72,056,42,29,60,184,39,31,40,303,43,12,34,075,43*75
$GPGSV,3,2,12,32,32,229,37,02,26,058,38,06,10,029,11,26,07,270,33*7C
$GPGSV,3,2,12,32,32,229,37,02,26,058,38,06,10,029,11,26,07,270,33*7C
$GPGSV,3,3,12,57,68,131,,58,68,131,,59,68,131,,07,50,077,*76
$GPGSV,3,3,12,57,68,131,,58,68,131,,59,68,131,,07,50,077,*76
$GPRMC,073746.000,A,4825.1432,N,00428.4544,W,0.00,259.32,090621,,,A*7E
$GPGGA,073747.000,4825.1432,N,00428.4544,W,1,08,1.3,92.9,M,52.0,M,,0000*71
$GPGSA,A,3,25,29,31,12,32,02,06,26,,,,,2.0,1.3,1.6*39
$GPRMC,073747.000,A,4825.1432,N,00428.4544,W,0.00,259.32,090621,,,A*7F
$GPGGA,073748.000,4825.1432,N,00428.4544,W,1,08,1.3,92.9,M,52.0,M,,0000*7E
$GPGSA,A,3,25,29,31,12,32,02,06,26,,,,,2.0,1.3,1.6*39
$GPRMC,073748.000,A,4825.1432,N,00428.4544,W,0.00,259.32,090621,,,A*70
$GPGGA,073749.000,4825.1432,N,00428.4544,W,1,08,1.3,92.9,M,52.0,M,,0000*7F
$GPGSA,A,3,25,29,31,12,32,02,06,26,,,,,2.0,1.3,1.6*39
$GPRMC,073749.000,A,4825.1432,N,00428.4544,W,0.00,259.32,090621,,,A*71
$GPGGA,073750.000,4825.1432,N,00428.4544,W,1,08,1.3,92.9,M,52.0,M,,0000*77
$GPGSA,A,3,25,29,31,12,32,02,06,26,,,,,2.0,1.3,1.6*39
$GPRMC,073750.000,A,4825.1432,N,00428.4544,W,0.00,259.32,090621,,,A*79
$GPGGA,073751.000,4825.1432,N,00428.4544,W,1,08,1.3,92.9,M,52.0,M,,0000*76
$GPGSA,A,3,25,29,31,12,32,02,06,26,,,,,2.0,1.3,1.6*39
$GPGSV,3,1,12,25,72,056,42,29,60,184,39,31,40,303,43,12,34,075,43*75
$GPGSV,3,1,12,25,72,056,42,29,60,184,39,31,40,303,43,12,34,075,43*75
$GPGSV,3,2,12,32,32,229,37,02,26,058,42,06,10,029,11,26,07,270,33*71
$GPGSV,3,2,12,32,32,229,37,02,26,058,42,06,10,029,11,26,07,270,33*71
$GPGSV,3,3,12,57,68,131,,58,68,131,,59,68,131,,07,50,077,*76
$GPGSV,3,3,12,57,68,131,,58,68,131,,59,68,131,,07,50,077,*76
$GPRMC,073751.000,A,4825.1432,N,00428.4544,W,0.00,259.32,090621,,,A*78
$GPGGA,073752.000,4825.1432,N,00428.4544,W,1,08,1.3,92.9,M,52.0,M,,0000*75
$GPGSA,A,3,25,29,31,12,32,02,06,26,,,,,2.0,1.3,1.6*39
$GPRMC,073752.000,A,4825.1432,N,00428.4544,W,0.00,259.32,090621,,,A*7B
$GPGGA,073753.000,4825.1432,N,00428.4544,W,1,08,1.3,92.9,M,52.0,M,,0000*74
$GPGSA,A,3,25,29,31,12,32,02,06,26,,,,,2.0,1.3,1.6*39
$GPRMC,073753.000,A,4825.1432,N,00428.4544,W,0.00,259.32,090621,,,A*7A
$GPGGA,073754.000,4825.1432,N,00428.4544,W,1,08,1.3,92.9,M,52.0,M,,0000*73
$GPGSA,A,3,25,29,31,12,32,02,06,26,,,,,2.0,1.3,1.6*39
$GPRMC,073754.000,A,4825.1432,N,00428.4544,W,0.00,259.32,090621,,,A*7D
$GPGGA,073755.000,4825.1432,N,00428.4544,W,1,08,1.3,92.9,M,52.0,M,,0000*72
$GPGSA,A,3,25,29,31,12,32,02,06,26,,,,,2.0,1.3,1.6*39
$GPRMC,073755.000,A,4825.1432,N,00428.4544,W,0.00,259.32,090621,,,A*7C
$GPGGA,073756.000,4825.1432,N,00428.4544,W,1,08,1.3,92.9,M,52.0,M,,0000*71
$GPGSA,A,3,25,29,31,12,32,02,06,26,,,,,2.0,1.3,1.6*39
$GPGSV,3,1,12,25,72,056,42,29,60,184,40,31,40,303,43,12,34,075,44*7C
$GPGSV,3,1,12,25,72,056,42,29,60,184,40,31,40,303,43,12,34,075,44*7C
$GPGSV,3,2,12,32,32,229,37,02,26,058,42,06,10,029,12,26,07,270,33*72
$GPGSV,3,2,12,32,32,229,37,02,26,058,42,06,10,029,12,26,07,270,33*72
$GPGSV,3,3,12,57,68,131,,58,68,131,,59,68,131,,07,50,077,*76
$GPGSV,3,3,12,57,68,131,,58,68,131,,59,68,131,,07,50,077,*76
$GPRMC,073756.000,A,4825.1432,N,00428.4544,W,0.00,259.32,090621,,,A*7F
$GPGGA,073757.000,4825.1432,N,00428.4544,W,1,08,1.3,92.9,M,52.0,M,,0000*70
$GPGSA,A,3,25,29,31,12,32,02,06,26,,,,,2.0,1.3,1.6*39
$GPRMC,073757.000,A,4825.1432,N,00428.4544,W,0.00,259.32,090621,,,A*7E
$GPGGA,073758.000,4825.1432,N,00428.4544,W,1,08,1.3,92.9,M,52.0,M,,0000*7F
$GPGSA,A,3,25,29,31,12,32,02,06,26,,,,,2.0,1.3,1.6*39
$GPRMC,073758.000,A,4825.1432,N,00428.4544,W,0.00,259.32,090621,,,A*71
$GPGGA,073759.000,4825.1432,N,00428.4544,W,1,08,1.3,92.9,M,52.0,M,,0000*7E
$GPGSA,A,3,25,29,31,12,32,02,06,26,,,,,2.0,1.3,1.6*39
$GPRMC,073759.000,A,4825.1432,N,00428.4544,W,0.00,259.32,090621,,,A*70
$GPGGA,073800.000,4825.1432,N,00428.4544,W,1,08,1.3,92.9,M,52.0,M,,0000*7D
$GPGSA,A,3,25,29,31,12,32,02,06,26,,,,,2.0,1.3,1.6*39
$GPRMC,073800.000,A,4825.1432,N,00428.4544,W,0.00,259.32,090621,,,A*73
$GPGGA,073801.000,4825.1432,N,00428.4544,W,1,08,1.3,92.9,M,52.0,M,,0000*7C
$GPGSA,A,3,25,29,31,12,32,02,06,26,,,,,2.0,1.3,1.6*39
$GPGSV,3,1,12,25,72,056,42,29,60,184,40,31,40,303,43,12,34,075,44*7C
$GPGSV,3,1,12,25,72,056,42,29,60,184,40,31,40,303,43,12,34,075,44*7C
$GPGSV,3,2,12,32,32,229,37,02,26,058,42,06,10,029,14,26,07,270,33*74
$GPGSV,3,2,12,32,32,229,37,02,26,058,42,06,10,029,14,26,07,270,33*74
$GPGSV,3,3,12,57,68,131,,58,68,131,,59,68,131,,07,50,077,*76
$GPGSV,3,3,12,57,68,131,,58,68,131,,59,68,131,,07,50,077,*76
$GPRMC,073801.000,A,4825.1432,N,00428.4544,W,0.00,259.32,090621,,,A*72
$GPGGA,073802.000,4825.1432,N,00428.4544,W,1,08,1.3,92.9,M,52.0,M,,0000*7F
$GPGSA,A,3,25,29,31,12,32,02,06,26,,,,,2.0,1.3,1.6*39
$GPRMC,073802.000,A,4825.1432,N,00428.4544,W,0.00,259.32,090621,,,A*71
$GPGGA,073803.000,4825.1432,N,00428.4544,W,1,08,1.3,92.9,M,52.0,M,,0000*7E
$GPGSA,A,3,25,29,31,12,32,02,06,26,,,,,2.0,1.3,1.6*39
$GPRMC,073803.000,A,4825.1432,N,00428.4544,W,0.00,259.32,090621,,,A*70
$GPGGA,073804.000,4825.1432,N,00428.4544,W,1,08,1.3,92.9,M,52.0,M,,0000*79
$GPGSA,A,3,25,29,31,12,32,02,06,26,,,,,2.0,1.3,1.6*39
$GPRMC,073804.000,A,4825.1432,N,00428.4544,W,0.00,259.32,090621,,,A*77
$GPGGA,073805.000,4825.1432,N,00428.4544,W,1,08,1.3,92.9,M,52.0,M,,0000*78
$GPGSA,A,3,25,29,31,12,32,02,06,26,,,,,2.0,1.3,1.6*39
$GPRMC,073805.000,A,4825.1432,N,00428.4544,W,0.00,259.32,090621,,,A*76
$GPGGA,073806.000,4825.1432,N,00428.4544,W,1,08,1.3,92.8,M,52.0,M,,0000*7A
$GPGSA,A,3,25,29,31,12,32,02,06,26,,,,,2.0,1.3,1.6*39
$GPGSV,3,1,12,25,72,056,42,29,60,184,39,31,40,303,43,12,34,075,44*72
$GPGSV,3,1,12,25,72,056,42,29,60,184,39,31,40,303,43,12,34,075,44*72
$GPGSV,3,2,12,32,32,229,37,02,26,058,42,06,10,029,14,26,07,270,33*74
$GPGSV,3,2,12,32,32,229,37,02,26,058,42,06,10,029,14,26,07,270,33*74
$GPGSV,3,3,12,57,68,131,,58,68,131,,59,68,131,,07,50,077,*76
$GPGSV,3,3,12,57,68,131,,58,68,131,,59,68,131,,07,50,077,*76
$GPRMC,073806.000,A,4825.1432,N,00428.4544,W,0.00,259.32,090621,,,A*75
$GPGGA,073807.000,4825.1432,N,00428.4544,W,1,08,1.3,92.8,M,52.0,M,,0000*7B
$GPGSA,A,3,25,29,31,12,32,02,06,26,,,,,2.0,1.3,1.6*39
$GPRMC,073807.000,A,4825.1432,N,00428.4544,W,0.00,259.32,090621,,,A*74
$GPGGA,073808.000,4825.1432,N,00428.4544,W,1,08,1.3,92.8,M,52.0,M,,0000*74
$GPGSA,A,3,25,29,31,12,32,02,06,26,,,,,2.0,1.3,1.6*39
$GPRMC,073808.000,A,4825.1432,N,00428.4544,W,0.00,259.32,090621,,,A*7B
$GPGGA,073809.000,4825.1432,N,00428.4544,W,1,08,1.3,92.8,M,52.0,M,,0000*75
$GPGSA,A,3,25,29,31,12,32,02,06,26,,,,,2.0,1.3,1.6*39
$GPRMC,073809.000,A,4825.1432,N,00428.4544,W,0.00,259.32,090621,,,A*7A
$GPGGA,073810.000,4825.1432,N,00428.4544,W,1,08,1.3,92.8,M,52.0,M,,0000*7D
$GPGSA,A,3,25,29,31,12,32,02,06,26,,,,,2.0,1.3,1.6*39
$GPRMC,073810.000,A,4825.1432,N,00428.4544,W,0.00,259.32,090621,,,A*72
$GPGGA,073811.000,4825.1432,N,00428.4544,W,1,08,1.3,92.8,M,52.0,M,,0000*7C
$GPGSA,A,3,25,29,31,12,32,02,06,26,,,,,2.0,1.3,1.6*39
$GPGSV,3,1,12,25,72,056,42,29,60,184,39,31,40,303,43,12,34,075,43*75
$GPGSV,3,1,12,25,72,056,42,29,60,184,39,31,40,303,43,12,34,075,43*75
$GPGSV,3,2,12,32,32,229,38,02,26,058,42,06,10,029,14,26,07,270,33*7B
$GPGSV,3,2,12,32,32,229,38,02,26,058,42,06,10,029,14,26,07,270,33*7B
$GPGSV,3,3,12,57,68,131,,58,68,131,,59,68,131,,07,50,077,*76
$GPGSV,3,3,12,57,68,131,,58,68,131,,59,68,131,,07,50,077,*76
$GPRMC,073811.000,A,4825.1432,N,00428.4544,W,0.00,259.32,090621,,,A*73
$GPGGA,073812.000,4825.1432,N,00428.4544,W,1,08,1.3,92.8,M,52.0,M,,0000*7F
$GPGSA,A,3,25,29,31,12,32,02,06,26,,,,,2.0,1.3,1.6*39
$GPRMC,073812.000,A,4825.1432,N,00428.4544,W,0.00,259.32,090621,,,A*70
$GPGGA,073813.000,4825.1432,N,00428.4544,W,1,08,1.3,92.8,M,52.0,M,,0000*7E
$GPGSA,A,3,25,29,31,12,32,02,06,26,,,,,2.0,1.3,1.6*39
$GPRMC,073813.000,A,4825.1432,N,00428.4544,W,0.00,259.32,090621,,,A*71
$GPGGA,073814.000,4825.1432,N,00428.4544,W,1,08,1.3,92.8,M,52.0,M,,0000*79
$GPGSA,A,3,25,29,31,12,32,02,06,26,,,,,2.0,1.3,1.6*39
$GPRMC,073814.000,A,4825.1432,N,00428.4544,W,0.00,259.32,090621,,,A*76
$GPGGA,073815.000,4825.1432,N,00428.4544,W,1,08,1.3,92.8,M,52.0,M,,0000*78
$GPGSA,A,3,25,29,31,12,32,02,06,26,,,,,2.0,1.3,1.6*39
$GPRMC,073815.000,A,4825.1432,N,00428.4544,W,0.00,259.32,090621,,,A*77
$GPGGA,073816.000,4825.1432,N,00428.4544,W,1,08,1.3,92.8,M,52.0,M,,0000*7B
$GPGSA,A,3,25,29,31,12,32,02,06,26,,,,,2.0,1.3,1.6*39
$GPGSV,3,1,12,25,72,056,43,29,60,184,40,31,40,303,43,12,34,075,44*7D
$GPGSV,3,1,12,25,72,056,43,29,60,184,40,31,40,303,43,12,34,075,44*7D
$GPGSV,3,2,12,32,32,229,37,02,26,058,43,06,10,029,14,26,07,270,33*75
$GPGSV,3,2,12,32,32,229,37,02,26,058,43,06,10,029,14,26,07,270,33*75
$GPGSV,3,3,12,57,68,131,,58,68,131,,59,68,131,,07,50,077,*76
$GPGSV,3,3,12,57,68,131,,58,68,131,,59,68,131,,07,50,077,*76
$GPRMC,073816.000,A,4825.1432,N,00428.4544,W,0.00,259.32,090621,,,A*74
$GPGGA,073817.000,4825.1432,N,00428.4544,W,1,08,1.3,92.8,M,52.0,M,,0000*7A
$GPGSA,A,3,25,29,31,12,32,02,06,26,,,,,2.0,1.3,1.6*39
$GPRMC,073817.000,A,4825.1432,N,00428.4544,W,0.00,259.32,090621,,,A*75
$GPGGA,073818.000,4825.1432,N,00428.4544,W,1,08,1.3,92.8,M,52.0,M,,0000*75
$GPGSA,A,3,25,29,31,12,32,02,06,26,,,,,2.0,1.3,1.6*39
$GPRMC,073818.000,A,4825.1432,N,00428.4544,W,0.00,259.32,090621,,,A*7A
$GPGGA,073819.000,4825.1432,N,00428.4544,W,1,08,1.3,92.8,M,52.0,M,,0000*74
$GPGSA,A,3,25,29,31,12,32,02,06,26,,,,,2.0,1.3,1.6*39
$GPRMC,073819.000,A,4825.1432,N,00428.4544,W,0.00,259.32,090621,,,A*7B
$GPGGA,073820.000,4825.1432,N,00428.4544,W,1,08,1.3,92.8,M,52.0,M,,0000*7E
$GPGSA,A,3,25,29,31,12,32,02,06,26,,,,,2.0,1.3,1.6*39
$GPRMC,073820.000,A,4825.1432,N,00428.4544,W,0.00,259.32,090621,,,A*71
$GPGGA,073821.000,4825.1432,N,00428.4544,W,1,08,1.3,92.8,M,52.0,M,,0000*7F
$GPGSA,A,3,25,29,31,12,32,02,06,26,,,,,2.0,1.3,1.6*39
$GPGSV,3,1,12,25,72,056,43,29,60,184,40,31,40,303,43,12,34,075,44*7D
$GPGSV,3,1,12,25,72,056,43,29,60,184,40,31,40,303,43,12,34,075,44*7D
$GPGSV,3,2,12,32,32,229,37,02,26,058,42,06,10,029,14,26,07,270,33*74
$GPGSV,3,2,12,32,32,229,37,02,26,058,42,06,10,029,14,26,07,270,33*74
$GPGSV,3,3,12,57,68,131,,58,68,131,,59,68,131,,07,50,077,*76
$GPGSV,3,3,12,57,68,131,,58,68,131,,59,68,131,,07,50,077,*76
$GPRMC,073821.000,A,4825.1432,N,00428.4544,W,0.00,259.32,090621,,,A*70
$GPGGA,073822.000,4825.1432,N,00428.4544,W,1,08,1.3,92.8,M,52.0,M,,0000*7C
$GPGSA,A,3,25,29,31,12,32,02,06,26,,,,,2.0,1.3,1.6*39
$GPRMC,073822.000,A,4825.1432,N,00428.4544,W,0.00,259.32,090621,,,A*73
$GPGGA,073823.000,4825.1432,N,00428.4544,W,1,08,1.3,92.8,M,52.0,M,,0000*7D
$GPGSA,A,3,25,29,31,12,32,02,06,26,,,,,2.0,1.3,1.6*39
$GPRMC,073823.000,A,4825.1432,N,00428.4544,W,0.00,259.32,090621,,,A*72
$GPGGA,073824.000,4825.1432,N,00428.4544,W,1,08,1.3,92.8,M,52.0,M,,0000*7A
$GPGSA,A,3,25,29,31,12,32,02,06,26,,,,,2.0,1.3,1.6*39
$GPRMC,073824.000,A,4825.1432,N,00428.4544,W,0.00,259.32,090621,,,A*75
$GPGGA,073825.000,4825.1432,N,00428.4544,W,1,08,1.3,92.8,M,52.0,M,,0000*7B
$GPGSA,A,3,25,29,31,12,32,02,06,26,,,,,2.0,1.3,1.6*39
$GPRMC,073825.000,A,4825.1432,N,00428.4544,W,0.00,259.32,090621,,,A*74
$GPGGA,073826.000,4825.1432,N,00428.4544,W,1,08,1.3,92.8,M,52.0,M,,0000*78
$GPGSA,A,3,25,29,31,12,32,02,06,26,,,,,2.0,1.3,1.6*39
$GPGSV,3,1,12,25,72,056,43,29,60,184,40,31,40,303,43,12,34,075,44*7D
$GPGSV,3,1,12,25,72,056,43,29,60,184,40,31,40,303,43,12,34,075,44*7D
$GPGSV,3,2,12,32,32,229,37,02,26,058,43,06,10,029,13,26,07,270,33*72
$GPGSV,3,2,12,32,32,229,37,02,26,058,43,06,10,029,13,26,07,270,33*72
$GPGSV,3,3,12,57,68,131,,58,68,131,,59,68,131,,07,50,077,*76
$GPGSV,3,3,12,57,68,131,,58,68,131,,59,68,131,,07,50,077,*76
$GPRMC,073826.000,A,4825.1432,N,00428.4544,W,0.00,259.32,090621,,,A*77
$GPGGA,073827.000,4825.1432,N,00428.4544,W,1,08,1.3,92.8,M,52.0,M,,0000*79
$GPGSA,A,3,25,29,31,12,32,02,06,26,,,,,2.0,1.3,1.6*39
$GPRMC,073827.000,A,4825.1432,N,00428.4544,W,0.00,259.32,090621,,,A*76
$GPGGA,073828.000,4825.1432,N,00428.4544,W,1,08,1.3,92.8,M,52.0,M,,0000*76
$GPGSA,A,3,25,29,31,12,32,02,06,26,,,,,2.0,1.3,1.6*39
$GPRMC,073828.000,A,4825.1432,N,00428.4544,W,0.00,259.32,090621,,,A*79
$GPGGA,073829.000,4825.1432,N,00428.4544,W,1,08,1.3,92.8,M,52.0,M,,0000*77
$GPGSA,A,3,25,29,31,12,32,02,06,26,,,,,2.0,1.3,1.6*39
$GPRMC,073829.000,A,4825.1432,N,00428.4544,W,0.00,259.32,090621,,,A*78
$GPGGA,073830.000,4825.1432,N,00428.4544,W,1,08,1.3,92.8,M,52.0,M,,0000*7F
$GPGSA,A,3,25,29,31,12,32,02,06,26,,,,,2.0,1.3,1.6*39
$GPRMC,073830.000,A,4825.1432,N,00428.4544,W,0.00,259.32,090621,,,A*70
$GPGGA,073831.000,4825.1432,N,00428.4544,W,1,08,1.3,92.8,M,52.0,M,,0000*7E
$GPGSA,A,3,25,29,31,12,32,02,06,26,,,,,2.0,1.3,1.6*39
$GPGSV,3,1,12,25,72,056,43,29,60,184,40,31,40,303,43,12,34,075,44*7D
$GPGSV,3,1,12,25,72,056,43,29,60,184,40,31,40,303,43,12,34,075,44*7D
$GPGSV,3,2,12,32,32,229,37,02,26,058,43,06,10,029,13,26,07,270,33*72
$GPGSV,3,2,12,32,32,229,37,02,26,058,43,06,10,029,13,26,07,270,33*72
$GPGSV,3,3,12,57,68,131,,58,68,131,,59,68,131,,07,50,077,*76
$GPGSV,3,3,12,57,68,131,,58,68,131,,59,68,131,,07,50,077,*76
$GPRMC,073831.000,A,4825.1432,N,00428.4544,W,0.00,259.32,090621,,,A*71
$GPGGA,073832.000,4825.1432,N,00428.4544,W,1,08,1.3,92.8,M,52.0,M,,0000*7D
$GPGSA,A,3,25,29,31,12,32,02,06,26,,,,,2.0,1.3,1.6*39
$GPRMC,073832.000,A,4825.1432,N,00428.4544,W,0.00,259.32,090621,,,A*72
$GPGGA,073833.000,4825.1432,N,00428.4544,W,1,08,1.3,92.8,M,52.0,M,,0000*7C
$GPGSA,A,3,25,29,31,12,32,02,06,26,,,,,2.0,1.3,1.6*39
$GPRMC,073833.000,A,4825.1432,N,00428.4544,W,0.00,259.32,090621,,,A*73
$GPGGA,073834.000,4825.1432,N,00428.4544,W,1,08,1.3,92.8,M,52.0,M,,0000*7B
$GPGSA,A,3,25,29,31,12,32,02,06,26,,,,,2.0,1.3,1.6*39
$GPRMC,073834.000,A,4825.1432,N,00428.4544,W,0.00,259.32,090621,,,A*74
$GPGGA,073835.000,4825.1432,N,00428.4544,W,1,08,1.3,92.8,M,52.0,M,,0000*7A
$GPGSA,A,3,25,29,31,12,32,02,06,26,,,,,2.0,1.3,1.6*39
$GPRMC,073835.000,A,4825.1432,N,00428.4544,W,0.00,259.32,090621,,,A*75
$GPGGA,073836.000,4825.1432,N,00428.4544,W,1,08,1.3,92.8,M,52.0,M,,0000*79
$GPGSA,A,3,25,29,31,12,32,02,06,26,,,,,2.0,1.3,1.6*39
$GPGSV,3,1,12,25,72,056,43,29,60,184,40,31,40,303,43,12,34,075,44*7D
$GPGSV,3,1,12,25,72,056,43,29,60,184,40,31,40,303,43,12,34,075,44*7D
$GPGSV,3,2,12,32,32,229,37,02,26,058,43,06,10,029,15,26,07,270,33*74
$GPGSV,3,2,12,32,32,229,37,02,26,058,43,06,10,029,15,26,07,270,33*74
$GPGSV,3,3,12,57,68,131,,58,68,131,,59,68,131,,07,50,077,*76
$GPGSV,3,3,12,57,68,131,,58,68,131,,59,68,131,,07,50,077,*76
$GPRMC,073836.000,A,4825.1432,N,00428.4544,W,0.00,259.32,090621,,,A*76
$GPGGA,073837.000,4825.1432,N,00428.4544,W,1,08,1.3,92.8,M,52.0,M,,0000*78
$GPGSA,A,3,25,29,31,12,32,02,06,26,,,,,2.0,1.3,1.6*39
$GPRMC,073837.000,A,4825.1432,N,00428.4544,W,0.00,259.32,090621,,,A*77
$GPGGA,073838.000,4825.1432,N,00428.4544,W,1,08,1.3,92.8,M,52.0,M,,0000*77
$GPGSA,A,3,25,29,31,12,32,02,06,26,,,,,2.0,1.3,1.6*39
$GPRMC,073838.000,A,4825.1432,N,00428.4544,W,0.00,259.32,090621,,,A*78
$GPGGA,073839.000,4825.1432,N,00428.4544,W,1,08,1.3,92.8,M,52.0,M,,0000*76
$GPGSA,A,3,25,29,31,12,32,02,06,26,,,,,2.0,1.3,1.6*39
$GPRMC,073839.000,A,4825.1432,N,00428.4544,W,0.00,259.32,090621,,,A*79
$GPGGA,073840.000,4825.1432,N,00428.4544,W,1,08,1.3,92.8,M,52.0,M,,0000*78
$GPGSA,A,3,25,29,31,12,32,02,06,26,,,,,2.0,1.3,1.6*39
$GPRMC,073840.000,A,4825.1432,N,00428.4544,W,0.00,259.32,090621,,,A*77
$GPGGA,073841.000,4825.1432,N,00428.4544,W,1,08,1.3,92.8,M,52.0,M,,0000*79
$GPGSA,A,3,25,29,31,12,32,02,06,26,,,,,2.0,1.3,1.6*39
$GPGSV,3,1,12,25,72,056,42,29,60,184,40,31,40,303,43,12,34,075,43*7B
$GPGSV,3,1,12,25,72,056,42,29,60,184,40,31,40,303,43,12,34,075,43*7B
$GPGSV,3,2,12,32,32,229,37,02,26,058,42,06,10,029,15,26,07,270,33*75
$GPGSV,3,2,12,32,32,229,37,02,26,058,42,06,10,029,15,26,07,270,33*75
$GPGSV,3,3,12,57,68,131,,58,68,131,,59,68,131,,07,50,077,*76
$GPGSV,3,3,12,57,68,131,,58,68,131,,59,68,131,,07,50,077,*76
$GPRMC,073841.000,A,4825.1432,N,00428.4544,W,0.00,259.32,090621,,,A*76
$GPGGA,073842.000,4825.1432,N,00428.4544,W,1,08,1.3,92.7,M,52.0,M,,0000*75
$GPGSA,A,3,25,29,31,12,32,02,06,26,,,,,2.0,1.3,1.6*39
$GPRMC,073842.000,A,4825.1432,N,00428.4544,W,0.00,259.32,090621,,,A*75
$GPGGA,073843.000,4825.1432,N,00428.4544,W,1,08,1.3,92.7,M,52.0,M,,0000*74
$GPGSA,A,3,25,29,31,12,32,02,06,26,,,,,2.0,1.3,1.6*39
$GPRMC,073843.000,A,4825.1432,N,00428.4544,W,0.00,259.32,090621,,,A*74
$GPGGA,073844.000,4825.1432,N,00428.4544,W,1,08,1.3,92.7,M,52.0,M,,0000*73
$GPGSA,A,3,25,29,31,12,32,02,06,26,,,,,2.0,1.3,1.6*39
$GPRMC,073844.000,A,4825.1432,N,00428.4544,W,0.00,259.32,090621,,,A*73
$GPGGA,073845.000,4825.1432,N,00428.4544,W,1,08,1.3,92.7,M,52.0,M,,0000*72
$GPGSA,A,3,25,29,31,12,32,02,06,26,,,,,2.0,1.3,1.6*39
$GPRMC,073845.000,A,4825.1432,N,00428.4544,W,0.00,259.32,090621,,,A*72
$GPGGA,073846.000,4825.1432,N,00428.4544,W,1,08,1.3,92.7,M,52.0,M,,0000*71
$GPGSA,A,3,25,29,31,12,32,02,06,26,,,,,2.0,1.3,1.6*39
$GPGSV,3,1,12,25,72,056,42,29,60,184,40,31,40,303,43,12,34,075,44*7C
$GPGSV,3,1,12,25,72,056,42,29,60,184,40,31,40,303,43,12,34,075,44*7C
$GPGSV,3,2,12,32,32,229,37,02,26,058,43,06,10,029,16,26,07,270,33*77
$GPGSV,3,2,12,32,32,229,37,02,26,058,43,06,10,029,16,26,07,270,33*77
$GPGSV,3,3,12,57,68,131,,58,68,131,,59,68,131,,07,50,077,*76
$GPGSV,3,3,12,57,68,131,,58,68,131,,59,68,131,,07,50,077,*76
$GPRMC,073846.000,A,4825.1432,N,00428.4544,W,0.00,259.32,090621,,,A*71
$GPGGA,073847.000,4825.1432,N,00428.4544,W,1,08,1.3,92.7,M,52.0,M,,0000*70
$GPGSA,A,3,25,29,31,12,32,02,06,26,,,,,2.0,1.3,1.6*39
$GPRMC,073847.000,A,4825.1432,N,00428.4544,W,0.00,259.32,090621,,,A*70
$GPGGA,073848.000,4825.1432,N,00428.4544,W,1,08,1.3,92.7,M,52.0,M,,0000*7F
$GPGSA,A,3,25,29,31,12,32,02,06,26,,,,,2.0,1.3,1.6*39
$GPRMC,073848.000,A,4825.1432,N,00428.4544,W,0.00,259.32,090621,,,A*7F
$GPGGA,073849.000,4825.1432,N,00428.4544,W,1,08,1.3,92.7,M,52.0,M,,0000*7E
$GPGSA,A,3,25,29,31,12,32,02,06,26,,,,,2.0,1.3,1.6*39
$GPRMC,073849.000,A,4825.1432,N,00428.4544,W,0.00,259.32,090621,,,A*7E
$GPGGA,073850.000,4825.1432,N,00428.4544,W,1,08,1.3,92.7,M,52.0,M,,0000*76
$GPGSA,A,3,25,29,31,12,32,02,06,26,,,,,2.0,1.3,1.6*39
$GPRMC,073850.000,A,4825.1432,N,00428.4544,W,0.00,259.32,090621,,,A*76
$GPGGA,073851.000,4825.1432,N,00428.4544,W,1,08,1.3,92.7,M,52.0,M,,0000*77
$GPGSA,A,3,25,29,31,12,32,02,06,26,,,,,2.0,1.3,1.6*39
$GPGSV,3,1,12,25,72,056,42,29,60,184,40,31,40,303,43,12,34,075,44*7C
$GPGSV,3,1,12,25,72,056,42,29,60,184,40,31,40,303,43,12,34,075,44*7C
$GPGSV,3,2,12,32,32,229,37,02,26,058,43,06,10,029,10,26,07,270,33*71
$GPGSV,3,2,12,32,32,229,37,02,26,058,43,06,10,029,10,26,07,270,33*71
$GPGSV,3,3,12,57,68,131,,58,68,131,,59,68,131,,07,50,077,*76
$GPGSV,3,3,12,57,68,131,,58,68,131,,59,68,131,,07,50,077,*76
$GPRMC,073851.000,A,4825.1432,N,00428.4544,W,0.00,259.32,090621,,,A*77
$GPGGA,073852.000,4825.1432,N,00428.4544,W,1,08,1.3,92.7,M,52.0,M,,0000*74
$GPGSA,A,3,25,29,31,12,32,02,06,26,,,,,2.0,1.3,1.6*39
$GPRMC,073852.000,A,4825.1432,N,00428.4544,W,0.00,259.32,090621,,,A*74
$GPGGA,073853.000,4825.1431,N,00428.4544,W,1,08,1.3,92.7,M,52.0,M,,0000*76
$GPGSA,A,3,25,29,31,12,32,02,06,26,,,,,2.0,1.3,1.6*39
$GPRMC,073853.000,A,4825.1431,N,00428.4544,W,0.00,259.32,090621,,,A*76
$GPGGA,073854.000,4825.1431,N,00428.4544,W,1,08,1.3,92.7,M,52.0,M,,0000*71
$GPGSA,A,3,25,29,31,12,32,02,06,26,,,,,2.0,1.3,1.6*39
$GPRMC,073854.000,A,4825.1431,N,00428.4544,W,0.00,259.32,090621,,,A*71
$GPGGA,073855.000,4825.1431,N,00428.4544,W,1,08,1.3,92.7,M,52.0,M,,0000*70
$GPGSA,A,3,25,29,31,12,32,02,06,26,,,,,2.0,1.3,1.6*39
$GPRMC,073855.000,A,4825.1431,N,00428.4544,W,0.00,259.32,090621,,,A*70
$GPGGA,073856.000,4825.1431,N,00428.4544,W,1,08,1.3,92.7,M,52.0,M,,0000*73
$GPGSA,A,3,25,29,31,12,32,02,06,26,,,,,2.0,1.3,1.6*39
$GPGSV,3,1,12,25,72,056,42,29,60,184,40,31,40,303,43,12,34,075,44*7C
$GPGSV,3,1,12,25,72,056,42,29,60,184,40,31,40,303,43,12,34,075,44*7C
$GPGSV,3,2,12,32,32,229,37,02,26,058,43,06,10,029,11,26,07,270,33*70
$GPGSV,3,2,12,32,32,229,37,02,26,058,43,06,10,029,11,26,07,270,33*70
$GPGSV,3,3,12,57,68,131,,58,68,131,,59,68,131,,07,50,077,*76
$GPGSV,3,3,12,57,68,131,,58,68,131,,59,68,131,,07,50,077,*76
$GPRMC,073856.000,A,4825.1431,N,00428.4544,W,0.00,259.32,090621,,,A*73
$GPGGA,073857.000,4825.1431,N,00428.4544,W,1,07,1.3,92.5,M,52.0,M,,0000*7F
$GPGSA,A,3,25,29,31,12,32,02,26,,,,,,2.2,1.3,1.7*3C
$GPRMC,073857.000,A,4825.1431,N,00428.4544,W,0.11,259.32,090621,,,A*72
$GPGGA,073858.000,4825.1431,N,00428.4544,W,1,07,1.3,92.4,M,52.0,M,,0000*71
$GPGSA,A,3,25,29,31,12,32,02,26,,,,,,2.2,1.3,1.7*3C
$GPRMC,073858.000,A,4825.1431,N,00428.4544,W,0.00,259.32,090621,,,A*7D
$GPGGA,073859.000,4825.1431,N,00428.4544,W,1,07,1.3,92.4,M,52.0,M,,0000*70
$GPGSA,A,3,25,29,31,12,32,02,26,,,,,,2.2,1.3,1.7*3C
$GPRMC,073859.000,A,4825.1431,N,00428.4544,W,0.00,259.32,090621,,,A*7C
$GPGGA,073900.000,4825.1431,N,00428.4544,W,1,07,1.3,92.4,M,52.0,M,,0000*7D
$GPGSA,A,3,25,29,31,12,32,02,26,,,,,,2.2,1.3,1.7*3C
$GPRMC,073900.000,A,4825.1431,N,00428.4544,W,0.00,259.32,090621,,,A*71
$GPGGA,073901.000,4825.1431,N,00428.4544,W,1,07,1.3,92.4,M,52.0,M,,0000*7C
$GPGSA,A,3,25,29,31,12,32,02,26,,,,,,2.2,1.3,1.7*3C
$GPGSV,3,1,12,25,71,059,42,29,62,183,40,31,41,303,43,12,33,075,44*73
$GPGSV,3,1,12,25,71,059,42,29,62,183,40,31,41,303,43,12,33,075,44*73
$GPGSV,3,2,12,32,31,228,37,02,26,057,43,26,08,270,33,57,68,131,*71
$GPGSV,3,2,12,32,31,228,37,02,26,057,43,26,08,270,33,57,68,131,*71
$GPGSV,3,3,12,58,68,131,,59,68,131,,07,50,075,,17,13,319,*74
$GPGSV,3,3,12,58,68,131,,59,68,131,,07,50,075,,17,13,319,*74
$GPRMC,073901.000,A,4825.1431,N,00428.4544,W,0.00,259.32,090621,,,A*70
$GPGGA,073902.000,4825.1431,N,00428.4544,W,1,07,1.3,92.4,M,52.0,M,,0000*7F
$GPGSA,A,3,25,29,31,12,32,02,26,,,,,,2.2,1.3,1.7*3C
$GPRMC,073902.000,A,4825.1431,N,00428.4544,W,0.00,259.32,090621,,,A*73
$GPGGA,073903.000,4825.1431,N,00428.4544,W,1,07,1.3,92.4,M,52.0,M,,0000*7E
$GPGSA,A,3,25,29,31,12,32,02,26,,,,,,2.2,1.3,1.7*3C
$GPRMC,073903.000,A,4825.1431,N,00428.4544,W,0.00,259.32,090621,,,A*72
$GPGGA,073904.000,4825.1431,N,00428.4544,W,1,07,1.3,92.4,M,52.0,M,,0000*79
$GPGSA,A,3,25,29,31,12,32,02,26,,,,,,2.2,1.3,1.7*3C
$GPRMC,073904.000,A,4825.1431,N,00428.4544,W,0.00,259.32,090621,,,A*75
$GPGGA,073905.000,4825.1431,N,00428.4544,W,1,07,1.3,92.4,M,52.0,M,,0000*78
$GPGSA,A,3,25,29,31,12,32,02,26,,,,,,2.2,1.3,1.7*3C
$GPRMC,073905.000,A,4825.1431,N,00428.4544,W,0.00,259.32,090621,,,A*74
$GPGGA,073906.000,4825.1431,N,00428.4544,W,1,07,1.3,92.4,M,52.0,M,,0000*7B
$GPGSA,A,3,25,29,31,12,32,02,26,,,,,,2.2,1.3,1.7*3C
$GPGSV,3,1,12,25,71,059,42,29,62,183,40,31,41,303,43,12,33,075,44*73
$GPGSV,3,1,12,25,71,059,42,29,62,183,40,31,41,303,43,12,33,075,44*73
$GPGSV,3,2,12,32,31,228,37,02,26,057,43,26,08,270,33,57,68,131,*71
$GPGSV,3,2,12,32,31,228,37,02,26,057,43,26,08,270,33,57,68,131,*71
$GPGSV,3,3,12,58,68,131,,59,68,131,,07,50,075,,17,13,319,*74
$GPGSV,3,3,12,58,68,131,,59,68,131,,07,50,075,,17,13,319,*74
$GPRMC,073906.000,A,4825.1431,N,00428.4544,W,0.00,259.32,090621,,,A*77
$GPGGA,073907.000,4825.1431,N,00428.4544,W,1,07,1.3,92.4,M,52.0,M,,0000*7A
$GPGSA,A,3,25,29,31,12,32,02,26,,,,,,2.2,1.3,1.7*3C
$GPRMC,073907.000,A,4825.1431,N,00428.4544,W,0.00,259.32,090621,,,A*76
$GPGGA,073908.000,4825.1431,N,00428.4544,W,1,07,1.3,92.4,M,52.0,M,,0000*75
$GPGSA,A,3,25,29,31,12,32,02,26,,,,,,2.2,1.3,1.7*3C
$GPRMC,073908.000,A,4825.1431,N,00428.4544,W,0.00,259.32,090621,,,A*79
$GPGGA,073909.000,4825.1431,N,00428.4544,W,1,07,1.3,92.4,M,52.0,M,,0000*74
$GPGSA,A,3,25,29,31,12,32,02,26,,,,,,2.2,1.3,1.7*3C
$GPRMC,073909.000,A,4825.1431,N,00428.4544,W,0.00,259.32,090621,,,A*78
$GPGGA,073910.000,4825.1430,N,00428.4544,W,1,07,1.3,92.4,M,52.0,M,,0000*7D
$GPGSA,A,3,25,29,31,12,32,02,26,,,,,,2.2,1.3,1.7*3C
$GPRMC,073910.000,A,4825.1430,N,00428.4544,W,0.00,259.32,090621,,,A*71
$GPGGA,073911.000,4825.1430,N,00428.4544,W,1,07,1.3,92.4,M,52.0,M,,0000*7C
$GPGSA,A,3,25,29,31,12,32,02,26,,,,,,2.2,1.3,1.7*3C
$GPGSV,3,1,12,25,71,059,42,29,62,183,40,31,41,303,43,12,33,075,44*73
$GPGSV,3,1,12,25,71,059,42,29,62,183,40,31,41,303,43,12,33,075,44*73
$GPGSV,3,2,12,32,31,228,37,02,26,057,43,26,08,270,34,57,68,131,*76
$GPGSV,3,2,12,32,31,228,37,02,26,057,43,26,08,270,34,57,68,131,*76
$GPGSV,3,3,12,58,68,131,,59,68,131,,07,50,075,,17,13,319,*74
$GPGSV,3,3,12,58,68,131,,59,68,131,,07,50,075,,17,13,319,*74
$GPRMC,073911.000,A,4825.1430,N,00428.4544,W,0.00,259.32,090621,,,A*70
$GPGGA,073912.000,4825.1430,N,00428.4544,W,1,07,1.3,92.4,M,52.0,M,,0000*7F
$GPGSA,A,3,25,29,31,12,32,02,26,,,,,,2.2,1.3,1.7*3C
$GPRMC,073912.000,A,4825.1430,N,00428.4544,W,0.00,259.32,090621,,,A*73
$GPGGA,073913.000,4825.1430,N,00428.4544,W,1,07,1.3,92.4,M,52.0,M,,0000*7E
$GPGSA,A,3,25,29,31,12,32,02,26,,,,,,2.2,1.3,1.7*3C
$GPRMC,073913.000,A,4825.1430,N,00428.4544,W,0.00,259.32,090621,,,A*72
$GPGGA,073914.000,4825.1430,N,00428.4544,W,1,07,1.3,92.4,M,52.0,M,,0000*79
$GPGSA,A,3,25,29,31,12,32,02,26,,,,,,2.2,1.3,1.7*3C
$GPRMC,073914.000,A,4825.1430,N,00428.4544,W,0.00,259.32,090621,,,A*75
$GPGGA,073915.000,4825.1430,N,00428.4544,W,1,07,1.3,92.4,M,52.0,M,,0000*78
$GPGSA,A,3,25,29,31,12,32,02,26,,,,,,2.2,1.3,1.7*3C
$GPRMC,073915.000,A,4825.1430,N,00428.4544,W,0.00,259.32,090621,,,A*74
$GPGGA,073916.000,4825.1430,N,00428.4544,W,1,07,1.3,92.4,M,52.0,M,,0000*7B
$GPGSA,A,3,25,29,31,12,32,02,26,,,,,,2.2,1.3,1.7*3C
$GPGSV,3,1,12,25,71,059,42,29,62,183,40,31,41,303,43,12,33,075,44*73
$GPGSV,3,1,12,25,71,059,42,29,62,183,40,31,41,303,43,12,33,075,44*73
$GPGSV,3,2,12,32,31,228,37,02,26,057,43,26,08,270,34,06,09,028,14*79
$GPGSV,3,2,12,32,31,228,37,02,26,057,43,26,08,270,34,06,09,028,14*79
$GPGSV,3,3,12,57,68,131,,58,68,131,,59,68,131,,07,50,075,*74
$GPGSV,3,3,12,57,68,131,,58,68,131,,59,68,131,,07,50,075,*74
$GPRMC,073916.000,A,4825.1430,N,00428.4544,W,0.00,259.32,090621,,,A*77
$GPGGA,073917.000,4825.1430,N,00428.4544,W,1,07,1.3,92.4,M,52.0,M,,0000*7A
$GPGSA,A,3,25,29,31,12,32,02,26,,,,,,2.2,1.3,1.7*3C
$GPRMC,073917.000,A,4825.1430,N,00428.4544,W,0.00,259.32,090621,,,A*76
$GPGGA,073918.000,4825.1430,N,00428.4544,W,1,07,1.3,92.4,M,52.0,M,,0000*75
$GPGSA,A,3,25,29,31,12,32,02,26,,,,,,2.2,1.3,1.7*3C
$GPRMC,073918.000,A,4825.1430,N,00428.4544,W,0.00,259.32,090621,,,A*79
$GPGGA,073919.000,4825.1430,N,00428.4544,W,1,08,1.3,92.4,M,52.0,M,,0000*7B
$GPGSA,A,3,25,29,31,12,32,02,06,26,,,,,2.0,1.3,1.6*39
$GPRMC,073919.000,A,4825.1430,N,00428.4544,W,0.00,259.32,090621,,,A*78
$GPGGA,073920.000,4825.1430,N,00428.4544,W,1,08,1.3,92.4,M,52.0,M,,0000*71
$GPGSA,A,3,25,29,31,12,32,02,06,26,,,,,2.0,1.3,1.6*39
$GPRMC,073920.000,A,4825.1430,N,00428.4544,W,0.00,259.32,090621,,,A*72
$GPGGA,073921.000,4825.1430,N,00428.4544,W,1,08,1.3,92.4,M,52.0,M,,0000*70
$GPGSA,A,3,25,29,31,12,32,02,06,26,,,,,2.0,1.3,1.6*39
$GPGSV,3,1,12,25,71,059,42,29,62,183,40,31,41,303,43,12,33,075,44*73
$GPGSV,3,1,12,25,71,059,42,29,62,183,40,31,41,303,43,12,33,075,44*73
$GPGSV,3,2,12,32,31,228,38,02,26,057,43,06,09,028,15,26,08,270,34*77
$GPGSV,3,2,12,32,31,228,38,02,26,057,43,06,09,028,15,26,08,270,34*77
$GPGSV,3,3,12,57,68,131,,58,68,131,,59,68,131,,07,50,075,*74
$GPGSV,3,3,12,57,68,131,,58,68,131,,59,68,131,,07,50,075,*74
$GPRMC,073921.000,A,4825.1430,N,00428.4544,W,0.00,259.32,090621,,,A*73
$GPGGA,073922.000,4825.1430,N,00428.4544,W,1,08,1.3,92.4,M,52.0,M,,0000*73
$GPGSA,A,3,25,29,31,12,32,02,06,26,,,,,2.0,1.3,1.6*39
$GPRMC,073922.000,A,4825.1430,N,00428.4544,W,0.00,259.32,090621,,,A*70
$GPGGA,073923.000,4825.1430,N,00428.4544,W,1,08,1.3,92.4,M,52.0,M,,0000*72
$GPGSA,A,3,25,29,31,12,32,02,06,26,,,,,2.0,1.3,1.6*39
$GPRMC,073923.000,A,4825.1430,N,00428.4544,W,0.00,259.32,090621,,,A*71
$GPGGA,073924.000,4825.1430,N,00428.4544,W,1,08,1.3,92.4,M,52.0,M,,0000*75
$GPGSA,A,3,25,29,31,12,32,02,06,26,,,,,2.0,1.3,1.6*39
$GPRMC,073924.000,A,4825.1430,N,00428.4544,W,0.00,259.32,090621,,,A*76
$GPGGA,073925.000,4825.1430,N,00428.4544,W,1,08,1.3,92.4,M,52.0,M,,0000*74
$GPGSA,A,3,25,29,31,12,32,02,06,26,,,,,2.0,1.3,1.6*39
$GPRMC,073925.000,A,4825.1430,N,00428.4544,W,0.00,259.32,090621,,,A*77
$GPGGA,073926.000,4825.1430,N,00428.4544,W,1,08,1.3,92.4,M,52.0,M,,0000*77
$GPGSA,A,3,25,29,31,12,32,02,06,26,,,,,2.0,1.3,1.6*39
$GPGSV,3,1,12,25,71,059,42,29,62,183,40,31,41,303,43,12,33,075,44*73
$GPGSV,3,1,12,25,71,059,42,29,62,183,40,31,41,303,43,12,33,075,44*73
$GPGSV,3,2,12,32,31,228,38,02,26,057,43,06,09,028,15,26,08,270,34*77
$GPGSV,3,2,12,32,31,228,38,02,26,057,43,06,09,028,15,26,08,270,34*77
$GPGSV,3,3,12,57,68,131,,58,68,131,,59,68,131,,07,50,075,*74
$GPGSV,3,3,12,57,68,131,,58,68,131,,59,68,131,,07,50,075,*74
$GPRMC,073926.000,A,4825.1430,N,00428.4544,W,0.00,259.32,090621,,,A*74
$GPGGA,073927.000,4825.1430,N,00428.4544,W,1,08,1.3,92.4,M,52.0,M,,0000*76
$GPGSA,A,3,25,29,31,12,32,02,06,26,,,,,2.0,1.3,1.6*39
$GPRMC,073927.000,A,4825.1430,N,00428.4544,W,0.00,259.32,090621,,,A*75
$GPGGA,073928.000,4825.1430,N,00428.4544,W,1,08,1.3,92.4,M,52.0,M,,0000*79
$GPGSA,A,3,25,29,31,12,32,02,06,26,,,,,2.0,1.3,1.6*39
$GPRMC,073928.000,A,4825.1430,N,00428.4544,W,0.00,259.32,090621,,,A*7A
$GPGGA,073929.000,4825.1430,N,00428.4544,W,1,08,1.3,92.4,M,52.0,M,,0000*78
$GPGSA,A,3,25,29,31,12,32,02,06,26,,,,,2.0,1.3,1.6*39
$GPRMC,073929.000,A,4825.1430,N,00428.4544,W,0.00,259.32,090621,,,A*7B
$GPGGA,073930.000,4825.1430,N,00428.4544,W,1,08,1.3,92.4,M,52.0,M,,0000*70
$GPGSA,A,3,25,29,31,12,32,02,06,26,,,,,2.0,1.3,1.6*39
$GPRMC,073930.000,A,4825.1430,N,00428.4544,W,0.00,259.32,090621,,,A*73
$GPGGA,073931.000,4825.1430,N,00428.4544,W,1,08,1.3,92.4,M,52.0,M,,0000*71
$GPGSA,A,3,25,29,31,12,32,02,06,26,,,,,2.0,1.3,1.6*39
$GPGSV,3,1,12,25,71,059,42,29,62,183,40,31,41,303,43,12,33,075,44*73
$GPGSV,3,1,12,25,71,059,42,29,62,183,40,31,41,303,43,12,33,075,44*73
$GPGSV,3,2,12,32,31,228,38,02,26,057,43,06,09,028,10,26,08,270,34*72
$GPGSV,3,2,12,32,31,228,38,02,26,057,43,06,09,028,10,26,08,270,34*72
$GPGSV,3,3,12,57,68,131,,58,68,131,,59,68,131,,07,50,075,*74
$GPGSV,3,3,12,57,68,131,,58,68,131,,59,68,131,,07,50,075,*74
$GPRMC,073931.000,A,4825.1430,N,00428.4544,W,0.00,259.32,090621,,,A*72
$GPGGA,073932.000,4825.1430,N,00428.4544,W,1,08,1.3,92.4,M,52.0,M,,0000*72
$GPGSA,A,3,25,29,31,12,32,02,06,26,,,,,2.0,1.3,1.6*39
$GPRMC,073932.000,A,4825.1430,N,00428.4544,W,0.00,259.32,090621,,,A*71
$GPGGA,073933.000,4825.1430,N,00428.4544,W,1,08,1.3,92.4,M,52.0,M,,0000*73
$GPGSA,A,3,25,29,31,12,32,02,06,26,,,,,2.0,1.3,1.6*39
$GPRMC,073933.000,A,4825.1430,N,00428.4544,W,0.00,259.32,090621,,,A*70
$GPGGA,073934.000,4825.1430,N,00428.4544,W,1,08,1.3,92.4,M,52.0,M,,0000*74
$GPGSA,A,3,25,29,31,12,32,02,06,26,,,,,2.0,1.3,1.6*39
$GPRMC,073934.000,A,4825.1430,N,00428.4544,W,0.00,259.32,090621,,,A*77
$GPGGA,073935.000,4825.1430,N,00428.4544,W,1,08,1.3,92.4,M,52.0,M,,0000*75
$GPGSA,A,3,25,29,31,12,32,02,06,26,,,,,2.0,1.3,1.6*39
$GPRMC,073935.000,A,4825.1430,N,00428.4544,W,0.00,259.32,090621,,,A*76
$GPGGA,073936.000,4825.1430,N,00428.4544,W,1,07,1.3,92.4,M,52.0,M,,0000*79
$GPGSA,A,3,25,29,31,12,32,02,26,,,,,,2.2,1.3,1.7*3C
$GPGSV,3,1,12,25,71,059,42,29,62,183,40,31,41,303,43,12,33,075,44*73
$GPGSV,3,1,12,25,71,059,42,29,62,183,40,31,41,303,43,12,33,075,44*73
$GPGSV,3,2,12,32,31,228,38,02,26,057,43,26,08,270,34,06,09,028,07*74
$GPGSV,3,2,12,32,31,228,38,02,26,057,43,26,08,270,34,06,09,028,07*74
$GPGSV,3,3,12,57,68,131,,58,68,131,,59,68,131,,07,50,075,*74
$GPGSV,3,3,12,57,68,131,,58,68,131,,59,68,131,,07,50,075,*74
$GPRMC,073936.000,A,4825.1430,N,00428.4544,W,0.00,259.32,090621,,,A*75
$GPGGA,073937.000,4825.1430,N,00428.4544,W,1,08,1.3,92.3,M,52.0,M,,0000*70
$GPGSA,A,3,25,29,31,12,32,02,06,26,,,,,2.0,1.3,1.6*39
$GPRMC,073937.000,A,4825.1430,N,00428.4544,W,0.00,259.32,090621,,,A*74
$GPGGA,073938.000,4825.1430,N,00428.4544,W,1,08,1.3,92.3,M,52.0,M,,0000*7F
$GPGSA,A,3,25,29,31,12,32,02,06,26,,,,,2.0,1.3,1.6*39
$GPRMC,073938.000,A,4825.1430,N,00428.4544,W,0.00,259.32,090621,,,A*7B
$GPGGA,073939.000,4825.1430,N,00428.4544,W,1,08,1.3,92.3,M,52.0,M,,0000*7E
$GPGSA,A,3,25,29,31,12,32,02,06,26,,,,,2.0,1.3,1.6*39
$GPRMC,073939.000,A,4825.1430,N,00428.4544,W,0.00,259.32,090621,,,A*7A
$GPGGA,073940.000,4825.1430,N,00428.4544,W,1,08,1.3,92.3,M,52.0,M,,0000*70
$GPGSA,A,3,25,29,31,12,32,02,06,26,,,,,2.0,1.3,1.6*39
$GPRMC,073940.000,A,4825.1430,N,00428.4544,W,0.00,259.32,090621,,,A*74
$GPGGA,073941.000,4825.1430,N,00428.4544,W,1,08,1.3,92.3,M,52.0,M,,0000*71
$GPGSA,A,3,25,29,31,12,32,02,06,26,,,,,2.0,1.3,1.6*39
$GPGSV,3,1,12,25,71,059,42,29,62,183,40,31,41,303,43,12,33,075,44*73
$GPGSV,3,1,12,25,71,059,42,29,62,183,40,31,41,303,43,12,33,075,44*73
$GPGSV,3,2,12,32,31,228,37,02,26,057,43,06,09,028,09,26,08,270,34*75
$GPGSV,3,2,12,32,31,228,37,02,26,057,43,06,09,028,09,26,08,270,34*75
$GPGSV,3,3,12,57,68,131,,58,68,131,,59,68,131,,07,50,075,*74
$GPGSV,3,3,12,57,68,131,,58,68,131,,59,68,131,,07,50,075,*74
$GPRMC,073941.000,A,4825.1430,N,00428.4544,W,0.00,259.32,090621,,,A*75
$GPGGA,073942.000,4825.1430,N,00428.4544,W,1,08,1.3,92.3,M,52.0,M,,0000*72
$GPGSA,A,3,25,29,31,12,32,02,06,26,,,,,2.0,1.3,1.6*39
$GPRMC,073942.000,A,4825.1430,N,00428.4544,W,0.00,259.32,090621,,,A*76
$GPGGA,073943.000,4825.1430,N,00428.4544,W,1,08,1.3,92.3,M,52.0,M,,0000*73
$GPGSA,A,3,25,29,31,12,32,02,06,26,,,,,2.0,1.3,1.6*39
$GPRMC,073943.000,A,4825.1430,N,00428.4544,W,0.00,259.32,090621,,,A*77
$GPGGA,073944.000,4825.1430,N,00428.4544,W,1,08,1.3,92.3,M,52.0,M,,0000*74
$GPGSA,A,3,25,29,31,12,32,02,06,26,,,,,2.0,1.3,1.6*39
$GPRMC,073944.000,A,4825.1430,N,00428.4544,W,0.00,259.32,090621,,,A*70
$GPGGA,073945.000,4825.1430,N,00428.4544,W,1,08,1.3,92.3,M,52.0,M,,0000*75
$GPGSA,A,3,25,29,31,12,32,02,06,26,,,,,2.0,1.3,1.6*39
$GPRMC,073945.000,A,4825.1430,N,00428.4544,W,0.00,259.32,090621,,,A*71
$GPGGA,073946.000,4825.1430,N,00428.4544,W,1,08,1.3,92.3,M,52.0,M,,0000*76
$GPGSA,A,3,25,29,31,12,32,02,06,26,,,,,2.0,1.3,1.6*39
$GPGSV,3,1,12,25,71,059,42,29,62,183,40,31,41,303,43,12,33,075,44*73
$GPGSV,3,1,12,25,71,059,42,29,62,183,40,31,41,303,43,12,33,075,44*73
$GPGSV,3,2,12,32,31,228,37,02,26,057,43,06,09,028,10,26,08,270,34*7D
$GPGSV,3,2,12,32,31,228,37,02,26,057,43,06,09,028,10,26,08,270,34*7D
$GPGSV,3,3,12,57,68,131,,58,68,131,,59,68,131,,07,50,075,*74
$GPGSV,3,3,12,57,68,131,,58,68,131,,59,68,131,,07,50,075,*74
$GPRMC,073946.000,A,4825.1430,N,00428.4544,W,0.00,259.32,090621,,,A*72
$GPGGA,073947.000,4825.1430,N,00428.4544,W,1,08,1.3,92.3,M,52.0,M,,0000*77
$GPGSA,A,3,25,29,31,12,32,02,06,26,,,,,2.0,1.3,1.6*39
$GPRMC,073947.000,A,4825.1430,N,00428.4544,W,0.00,259.32,090621,,,A*73
$GPGGA,073948.000,4825.1430,N,00428.4544,W,1,08,1.3,92.3,M,52.0,M,,0000*78
$GPGSA,A,3,25,29,31,12,32,02,06,26,,,,,2.0,1.3,1.6*39
$GPRMC,073948.000,A,4825.1430,N,00428.4544,W,0.00,259.32,090621,,,A*7C
$GPGGA,073949.000,4825.1430,N,00428.4544,W,1,08,1.3,92.3,M,52.0,M,,0000*79
$GPGSA,A,3,25,29,31,12,32,02,06,26,,,,,2.0,1.3,1.6*39
$GPRMC,073949.000,A,4825.1430,N,00428.4544,W,0.00,259.32,090621,,,A*7D
$GPGGA,073950.000,4825.1430,N,00428.4544,W,1,08,1.3,92.3,M,52.0,M,,0000*71
$GPGSA,A,3,25,29,31,12,32,02,06,26,,,,,2.0,1.3,1.6*39
$GPRMC,073950.000,A,4825.1430,N,00428.4544,W,0.00,259.32,090621,,,A*75
$GPGGA,073951.000,4825.1430,N,00428.4544,W,1,08,1.3,92.3,M,52.0,M,,0000*70
$GPGSA,A,3,25,29,31,12,32,02,06,26,,,,,2.0,1.3,1.6*39
$GPGSV,3,1,12,25,71,059,42,29,62,183,40,31,41,303,43,12,33,075,44*73
$GPGSV,3,1,12,25,71,059,42,29,62,183,40,31,41,303,43,12,33,075,44*73
$GPGSV,3,2,12,32,31,228,37,02,26,057,43,06,09,028,13,26,08,270,34*7E
$GPGSV,3,2,12,32,31,228,37,02,26,057,43,06,09,028,13,26,08,270,34*7E
$GPGSV,3,3,12,57,68,131,,58,68,131,,59,68,131,,07,50,075,*74
$GPGSV,3,3,12,57,68,131,,58,68,131,,59,68,131,,07,50,075,*74
$GPRMC,073951.000,A,4825.1430,N,00428.4544,W,0.00,259.32,090621,,,A*74
$GPGGA,073952.000,4825.1430,N,00428.4544,W,1,08,1.3,92.3,M,52.0,M,,0000*73
$GPGSA,A,3,25,29,31,12,32,02,06,26,,,,,2.0,0.00,259.32,090621,,,A*77
$GPGGA,073953.000,4825.1430,N,00428.4544,W,1,08,1.3,92.3,M,52.0,M,,0000*72
$GPGSA,A,3,25,29,31,12,32,02,06,26,,,,,2.0,1.3,1.6*39
$GPRMC,073953.000,A,4825.1430,N,00428.4544,W,0.00,259.32,090621,,,A*76
$GPGGA,073954.000,4825.1430,N,00428.4544,W,1,08,1.3,92.3,M,52.0,M,,0000*75
$GPGSA,A,3,25,29,31,12,32,02,06,26,,,,,2.0,1.3,1.6*39
$GPRMC,073954.000,A,4825.1430,N,00428.4544,W,0.00,259.32,090621,,,A*71
$GPGGA,073955.000,4825.1430,N,00428.4544,W,1,08,1.3,92.3,M,52.0,M,,0000*74
$GPGSA,A,3,25,29,31,12,32,02,06,26,,,,,2.0,1.3,1.6*39
$GPRMC,073955.000,A,4825.1430,N,00428.4544,W,0.00,259.32,090621,,,A*70
$GPGGA,073956.000,4825.1430,N,00428.4544,W,1,08,1.3,92.3,M,52.0,M,,0000*77
$GPGSA,A,3,25,29,31,12,32,02,06,26,,,,,2.0,1.3,1.6*39
$GPGSV,3,1,12,25,71,059,42,29,62,183,40,31,41,303,43,12,33,075,44*73
$GPGSV,3,1,12,25,71,059,42,29,62,183,40,31,41,303,43,12,33,075,44*73
$GPGSV,3,2,12,32,31,228,37,02,26,057,43,06,09,028,12,26,08,270,34*7F
$GPGSV,3,2,12,32,31,228,37,02,26,057,43,06,09,028,12,26,08,270,34*7F
$GPGSV,3,3,12,57,68,131,,58,68,131,,59,68,131,,07,50,075,*74
$GPGSV,3,3,12,57,68,131,,58,68,131,,59,68,131,,07,50,075,*74
$GPRMC,073956.000,A,4825.1430,N,00428.4544,W,0.00,259.32,090621,,,A*73
$GPGGA,073957.000,4825.1430,N,00428.4544,W,1,08,1.3,92.3,M,52.0,M,,0000*76
$GPGSA,A,3,25,29,31,12,32,02,06,26,,,,,2.0,1.3,1.6*39
$GPGGA,073958.000,4825.1430,N,00428.4544,W,1,08,1.3,92.3,M,52.0,M,,0000*79
$GPGSA,A,3,25,29,31,12,32,02,06,26,,,,,2.0,1.3,1.6*39
$GPRMC,073958.000,A,4825.1430,N,00428.4544,W,0.00,259.32,090621,,,A*7D
$GPGGA,073959.000,4825.1430,N,00428.4544,W,1,08,1.3,92.3,M,52.0,M,,0000*78
$GPGSA,A,3,25,29,31,12,32,02,06,26,,,,,2.0,1.3,1.6*39
$GPRMC,073959.000,A,4825.1430,N,00428.4544,W,0.00,259.32,090621,,,A*7C
$GPGGA,074000.000,4825.1430,N,00428.4544,W,1,08,1.3,92.3,M,52.0,M,,0000*7A
$GPGSA,A,3,25,29,31,12,32,02,06,26,,,,,2.0,1.3,1.6*39
$GPRMC,074000.000,A,4825.1430,N,00428.4544,W,0.00,259.32,090621,,,A*7E
$PSRF156,23,1,0*09
$GPGGA,074001.000,4825.1430,N,00428.4544,W,1,07,1.3,92.3,M,52.0,M,,0000*74
$GPGSA,A,3,25,29,31,12,32,02,26,,,,,,2.2,1.3,1.7*3C
$GPGSV,3,1,12,25,71,059,42,29,62,183,40,31,41,303,43,12,33,075,44*73
$GPGSV,3,1,12,25,71,059,42,29,62,183,40,31,41,303,43,12,33,075,44*73
$GPGSV,3,2,12,32,31,228,38,02,26,057,42,26,08,270,34,06,09,028,05*77
$GPGSV,3,2,12,32,31,228,38,02,26,057,42,26,08,270,34,06,09,028,05*77
$GPGSV,3,3,12,57,68,131,,58,68,131,,59,68,131,,07,50,075,*74
$GPGSV,3,3,12,57,68,131,,58,68,131,,59,68,131,,07,50,075,*74
$GPGGA,074003.000,4825.1430,N,00428.4544,W,1,07,1.3,92.3,M,52.0,M,,0000*76
$GPGSA,A,3,25,29,31,12,32,02,26,,,,,,2.2,1.3,1.7*3C
$GPRMC,074003.000,A,4825.1430,N,00428.4544,W,0.00,259.32,090621,,,A*7D
$GPGGA,074004.000,4825.1430,N,00428.4544,W,1,08,1.3,92.3,M,52.0,M,,0000*7E
$GPGSA,A,3,25,29,31,12,32,02,06,26,,,,,2.0,1.3,1.6*39
$GPRMC,074004.000,A,4825.1430,N,00428.4544,W,0.00,259.32,090621,,,A*7A
$GPGGA,074005.000,4825.1430,N,00428.4544,W,1,08,1.3,92.3,M,52.0,M,,0000*7F
$GPGSA,A,3,25,29,31,12,32,02,06,26,,,,,2.0,1.3,1.6*39
$GPRMC,074005.000,A,4825.1430,N,00428.4544,W,0.00,259.32,090621,,,A*7B
$GPGGA,074006.000,4825.1430,N,00428.4544,W,1,08,1.3,92.3,M,52.0,M,,0000*7C
$GPGSA,A,3,25,29,31,12,32,02,06,26,,,,,2.0,1.3,1.6*39
$GPGSV,3,1,12,25,71,059,42,29,62,183,40,31,41,303,43,12,33,075,44*73
$GPGSV,3,1,12,25,71,059,42,29,62,183,40,31,41,303,43,12,33,075,44*73
$GPGSV,3,2,12,32,31,228,37,02,26,057,42,06,09,028,09,26,08,270,34*74
$GPGSV,3,2,12,32,31,228,37,02,26,057,42,06,09,028,09,26,08,270,34*74
$GPGSV,3,3,12,57,68,131,,58,68,131,,59,68,131,,07,50,075,*74
$GPGSV,3,3,12,57,68,131,,58,68,131,,59,68,131,,07,50,075,*74
$GPRMC,074006.000,A,4825.1430,N,00428.4544,W,0.00,259.32,090621,,,A*78
$G00,4825.1430,N,00428.4544,W,1,08,1.3,92.3,M,52.0,M,,0000*7D
$GPGSA,A,3,25,29,31,12,32,02,06,26,,,,,2.0,1.3,1.6*39
$GPRMC,074007.000,A,4825.1430,N,00428.4544,W,0.00,259.32,090621,,,A*79
$GPGGA,074008.02.0,M,,0000*72
$GPGSA,A,3,25,29,31,12,32,02,06,26,,,,,2.0,1.3,1.6*39
$GPRMC,074008.000,A,4825.1430,N,00428.4544,W,0.00,259.32,090621,,,A*76
$GPGGA,074009.000,4825.1430,N,00428.4544,W,1,08,1.3,92.3,M,51.3,1.6*39
$GPRMC,074009.000,A,4825.1430,N,00428.4544,W,0.00,259.32,090621,,,A*77
$GPGGA,074010.000,4825.1430,N,00428.4544,W,1,08,1.3,92.3,M,52.0,M,,0000*7B
$GPGSA,A,3,25,29,31,12,32,02,06,26,,,,,2.0,1.3,1.6*39
$GPRMC,074010.000,A,4825.1430,N,00428.4544,W,0.00,259.32,090621,,,A*7F
$GPGGA,074011.000,4825.1430,N,00428.4544,W,1,07,1.3,92.3,M,52.0,M,,0000*75
$GPGSA,A,3,25,29,31,12,32,02,26,,,,,,2.2,1.3,1.7*3C
$GPGSV,3,1,12,25,71,059,42,29,62,183,40,31,41,303,43,12,33,075,44*73
$GPGSV,3,1,12,25,71,059,42,29,62,183,40,31,41,303,43,12,33,075,44*73
$GPGSV,3,2,12,32,31,228,38,02,26,057,42,26,08,270,34,06,09,028,07*75
$GPGSV,3,2,12,32,31,228,38,02,26,057,42,26,08,270,34,06,09,028,07*75
$GPGSV,3,3,12,57,68,131,,58,68,131,,59,68,131,,07,50,075,*74
$GPGSV,3,3,12,57,68,131,,58,68,131,,59,68,131,,07,50,075,*74
$GPRMC,074011.000,A,4825.1430,N,00428.4544,W,0.00,259.32,090621,,,A*7E
$GPGGA,074013.000,4825.1430,N,00428.4544,W,1,07,1.3,92.3,M,52.0,M,,0000*77
$GPGSA,A,3,25,29,31,12,32,02,26,,,,,,2.2,1.3,1.7*3C
$GPRMC,074013.000,A,4825.1430,N,00428.4544,W,0.00,259.32,090621,,,A*7C
$GPGGA,074014.000,4825.1430,N,00428.4544,W,1,07,1.3,92.3,M,52.0,M,,0000*70
$GPGSA,A,3,25,29,31,12,32,02,26,,,,,,2.2,1.3,1.7*3C
$GPRMC,074014.000,A,4825.1430,N,00428.4544,W,0.00,259.32,090621,,,A*7B
$GPGGA,074015.000,4825.1430,N,00428.4544,W,1,08,1.3,92.3,M,52.0,M,,0000*7E
$GPGSA,A,3,25,29,31,12,32,02,06,26,,,,,2.0,1.3,1.6*39
$GPRMC,074015.000,A,4825.1430,N,00428.4544,W,0.00,259.32,090621,,,A*7A
$GPGGA,074016.000,4825.1430,N,00428.4544,W,1,07,1.3,92.3,M,52.0,M,,0000*72
$GPGSA,A,3,25,29,31,12,32,02,26,,,,,,2.2,1.3,1.7*3C
$GPGSV,3,1,12,25,71,059,42,29,62,183,40,31,41,303,43,12,33,075,44*73
$GPGSV,3,1,12,25,71,059,42,29,62,183,40,31,41,303,43,12,33,075,44*73
$GPGSV,3,2,12,32,31,228,38,02,26,057,42,26,08,270,35,06,09,028,08*7B
$GPGSV,3,2,12,32,31,228,38,02,26,057,42,26,08,270,35,06,09,028,08*7B
$GPGSV,3,3,12,57,68,131,,58,68,131,,59,68,131,,07,50,075,*74
$GPGSV,3,3,12,57,68,131,,58,68,131,,59,68,131,,07,50,075,*74
$GPRMC,074016.000,A,4825.1430,N,00428.4544,W,0.00,259.32,090621,,,A*79
$GPGGA,074017.000,4825.1430,N,00428.4544,W,1,08,1.3,92.3,M,52.0,M,,0000*7C
$GPGSA,A,3,25,29,31,12,32,02,06,26,,,,,2.0,1.3,1.6*39
$GPRMC,074017.000,A,4825.1430,N,00428.4544,W,0.00,259.32,090621,,,A*78
$GPGGA,074018.000,4825.1430,N,00428.4544,W,1,08,1.3,92.3,M,52.0,M,,0000*73
$GPGSA,A,3,25,29,31,12,32,02,06,26,,,,,2.0,1.3,1.6*39
$GPRMC,074018.000,A,4825.1430,N,00428.4544,W,0.00,259.32,090621,,,A*77
$GPGGA,074019.000,4825.1430,N,00428.4544,W,1,08,1.3,92.3,M,52.0,M,,0000*72
$GPGSA,A,3,25,29,31,12,32,02,06,26,,,,,2.0,1.3,1.6*39
$GPRMC,074019.000,A,4825.1430,N,00428.4544,W,0.00,259.32,090621,,,A*76
$GPGGA,074020.000,4825.1430,N,00428.4544,W,1,08,1.3,92.3,M,52.0,M,,0000*78
$GPGSA,A,3,25,29,31,12,32,02,06,26,,,,,2.0,1.3,1.6*39
$GPRMC,074020.000,A,4825.1430,N,00428.4544,W,0.00,259.32,090621,,,A*7C
$GPGGA,074021.000,4825.1430,N,00428.4544,W,1,08,1.3,92.3,M,52.0,M,,0000*79
$GPGSA,A,3,25,29,31,12,32,02,06,26,,,,,2.0,1.3,1.6*39
$GPGSV,3,1,12,25,71,059,42,29,62,183,40,31,41,303,43,12,33,075,44*73
$GPGSV,3,1,12,25,71,059,42,29,62,183,40,31,41,303,43,12,33,075,44*73
$GPGSV,3,2,12,32,31,228,38,02,26,057,42,06,09,028,08,26,08,270,35*7B
$GPGSV,3,2,12,32,31,228,38,02,26,057,42,06,09,028,08,26,08,270,35*7B
$GPGSV,3,3,12,57,68,131,,58,68,131,,59,68,131,,07,50,075,*74
$GPGSV,3,3,12,57,68,131,,58,68,131,,59,68,131,,07,50,075,*74
$GPRMC,074021.000,A,4825.1430,N,00428.4544,W,0.00,259.32,090621,,,A*7D
$GPGGA,074022.000,4825.1430,N,00428.4544,W,1,07,1.3,92.3,M,52.0,M,,0000*75
$GPGSA,A,3,25,29,31,12,32,02,26,,,,,,2.2,1.3,1.7*3C
$GPRMC,074022.000,A,4825.1430,N,00428.4544,W,0.00,259.32,090621,,,A*7E
$GPGGA,074023.000,4825.1430,N,00428.4544,W,1,08,1.3,92.2,M,52.0,M,,0000*7A
$GPGSA,A,3,25,29,31,12,32,02,06,26,,,,,2.0,1.3,1.6*39
$GPRMC,074023.000,A,4825.1430,N,00428.4544,W,0.00,259.32,090621,,,A*7F
$GPGGA,074024.000,4825.1430,N,00428.4544,W,1,07,1.3,92.2,M,52.0,M,,0000*72
$GPGSA,A,3,25,29,31,12,32,02,26,,,,,,2.2,1.3,1.7*3C
$GPRMC,074024.000,A,4825.1430,N,00428.4544,W,0.00,259.32,090621,,,A*78
$GPGGA,074025.000,4825.1430,N,00428.4544,W,1,07,1.3,92.2,M,52.0,M,,0000*73
$GPGSA,A,3,25,29,31,12,32,02,26,,,,,,2.2,1.3,1.7*3C
$GPRMC,074025.000,A,4825.1430,N,00428.4544,W,0.00,259.32,090621,,,A*79
$GPGGA,074026.000,4825.1430,N,00428.4544,W,1,07,1.3,92.2,M,52.0,M,,0000*70
$GPGSA,A,3,25,29,31,12,32,02,26,,,,,,2.2,1.3,1.7*3C
$GPGSV,3,1,12,25,71,059,42,29,62,183,40,31,41,303,43,12,33,075,44*73
$GPGSV,3,1,12,25,71,059,42,29,62,183,40,31,41,303,43,12,33,075,44*73
$GPGSV,3,2,12,32,31,228,38,02,26,057,42,26,08,270,35,06,09,028,05*76
$GPGSV,3,2,12,32,31,228,38,02,26,057,42,26,08,270,35,06,09,028,05*76
$GPGSV,3,3,12,57,68,131,,58,68,131,,59,68,131,,07,50,075,*74
$GPGSV,3,3,12,57,68,131,,58,68,131,,59,68,131,,07,50,075,*74
$GPRMC,074026.000,A,4825.1430,N,00428.4544,W,0.00,259.32,090621,,,A*7A
$GPGGA,074027.000,4825.1430,N,00428.4544,W,1,07,1.3,92.2,M,52.0,M,,0000*71
$GPGSA,A,3,25,29,31,12,32,02,26,,,,,,2.2,1.3,1.7*3C
$GPRMC,074027.000,A,4825.1430,N,00428.4544,W,0.00,259.32,090621,,,A*7B
$GPGGA,074028.000,4825.1430,N,00428.4544,W,1,07,1.3,92.2,M,52.0,M,,0000*7E
$GPGSA,A,3,25,29,31,12,32,02,26,,,,,,2.2,1.3,1.7*3C
$GPRMC,074028.000,A,4825.1430,N,00428.4544,W,0.00,259.32,090621,,,A*74
$GPGGA,074029.000,4825.1430,N,00428.4544,W,1,07,1.3,92.2,M,52.0,M,,0000*7F
$GPGSA,A,3,25,29,31,12,32,02,26,,,,,,2.2,1.3,1.7*3C
$GPRMC,074029.000,A,4825.1430,N,00428.4544,W,0.00,259.32,090621,,,A*75
$GPGGA,074030.000,4825.1430,N,00428.4544,W,1,07,1.3,92.2,M,52.0,M,,0000*77
$GPGSA,A,3,25,29,31,12,32,02,26,,,,,,2.2,1.3,1.7*3C
$GPRMC,074030.000,A,4825.1430,N,00428.4544,W,0.00,259.32,090621,,,A*7D
$GPGGA,074031.000,4825.1430,N,00428.4544,W,1,07,1.3,92.2,M,52.0,M,,0000*76
$GPGSA,A,3,25,29,31,12,32,02,26,,,,,,2.2,1.3,1.7*3C
$GPGSV,3,1,12,25,71,059,42,29,62,183,40,31,41,303,43,12,33,075,43*74
$GPGSV,3,1,12,25,71,059,42,29,62,183,40,31,41,303,43,12,33,075,43*74
$GPGSV,3,2,12,32,31,228,38,02,26,057,42,26,08,270,35,06,09,028,05*76
$GPGSV,3,2,12,32,31,228,38,02,26,057,42,26,08,270,35,06,09,028,05*76
$GPGSV,3,3,12,57,68,131,,58,68,131,,59,68,131,,07,50,075,*74
$GPGSV,3,3,12,57,68,131,,58,68,131,,59,68,131,,07,50,075,*74
$GPRMC,074031.000,A,4825.1430,N,00428.4544,W,0.00,259.32,090621,,,A*7C
$GPGGA,074032.000,4825.1430,N,00428.4544,W,1,07,1.3,92.2,M,52.0,M,,0000*75
$GPGSA,A,3,25,29,31,12,32,02,26,,,,,,2.2,1.3,1.7*3C
$GPRMC,074032.000,A,4825.1430,N,00428.4544,W,0.00,259.32,090621,,,A*7F
$GPGGA,074033.000,4825.1430,N,00428.4544,W,1,07,1.3,92.2,M,52.0,M,,0000*74
$GPGSA,A,3,25,29,31,12,32,02,26,,,,,,2.2,1.3,1.7*3C
$GPRMC,074033.000,A,4825.1430,N,00428.4544,W,0.00,259.32,090621,,,A*7E
$GPGGA,074034.000,4825.1430,N,00428.4544,W,1,07,1.3,92.2,M,52.0,M,,0000*73
$GPGSA,A,3,25,29,31,12,32,02,26,,,,,,2.2,1.3,1.7*3C
$GPRMC,074034.000,A,4825.1430,N,00428.4544,W,0.00,259.32,090621,,,A*79
$GPGGA,074035.000,4825.1430,N,00428.4544,W,1,07,1.3,92.2,M,52.0,M,,0000*72
$GPGSA,A,3,25,29,31,12,32,02,26,,,,,,2.2,1.3,1.7*3C
$GPRMC,074035.000,A,4825.1430,N,00428.4544,W,0.00,259.32,090621,,,A*78
$GPGGA,074036.000,4825.1430,N,00428.4544,W,1,07,1.3,92.2,M,52.0,M,,0000*71
$GPGSA,A,3,25,29,31,12,32,02,26,,,,,,2.2,1.3,1.7*3C
$GPGSV,3,1,12,25,71,059,42,29,62,183,40,31,41,303,43,12,33,075,43*74
$GPGSV,3,1,12,25,71,059,42,29,62,183,40,31,41,303,43,12,33,075,43*74
$GPGSV,3,2,12,32,31,228,38,02,26,057,43,26,08,270,35,06,09,028,05*77
$GPGSV,3,2,12,32,31,228,38,02,26,057,43,26,08,270,35,06,09,028,05*77
$GPGSV,3,3,12,57,68,131,,58,68,131,,59,68,131,,07,50,075,*74
$GPGSV,3,3,12,57,68,131,,58,68,131,,59,68,131,,07,50,075,*74
$GPRMC,074036.000,A,4825.1430,N,00428.4544,W,0.00,259.32,090621,,,A*7B
$GPGGA,074037.000,4825.1430,N,00428.4544,W,1,07,1.3,92.2,M,52.0,M,,0000*70
$GPGSA,A,3,25,29,31,12,32,02,26,,,,,,2.2,1.3,1.7*3C
$GPRMC,074037.000,A,4825.1430,N,00428.4544,W,0.00,259.32,090621,,,A*7A
$GPGGA,074038.000,4825.1430,N,00428.4544,W,1,07,1.3,92.2,M,52.0,M,,0000*7F
$GPGSA,A,3,25,29,31,12,32,02,26,,,,,,2.2,1.3,1.7*3C
$GPRMC,074038.000,A,4825.1430,N,00428.4544,W,0.00,259.32,090621,,,A*75
$GPGGA,074039.000,4825.1430,N,00428.4544,W,1,08,1.3,92.2,M,52.0,M,,0000*71
$GPGSA,A,3,25,29,31,12,32,02,06,26,,,,,2.0,1.3,1.5*3A
$GPRMC,074039.000,A,4825.1430,N,00428.4544,W,0.00,259.32,090621,,,A*74
$GPGGA,074040.000,4825.1430,N,00428.4544,W,1,08,1.3,92.2,M,52.0,M,,0000*7F
$GPGSA,A,3,25,29,31,12,32,02,06,26,,,,,2.0,1.3,1.5*3A
$GPRMC,074040.000,A,4825.1430,N,00428.4544,W,0.00,259.32,090621,,,A*7A
$GPGGA,074041.000,4825.1430,N,00428.4544,W,1,08,1.3,92.2,M,52.0,M,,0000*7E
$GPGSA,A,3,25,29,31,12,32,02,06,26,,,,,2.0,1.3,1.5*3A
$GPGSV,3,1,12,25,71,059,42,29,62,183,40,31,41,303,43,12,33,075,43*74
$GPGSV,3,1,12,25,71,059,42,29,62,183,40,31,41,303,43,12,33,075,43*74
$GPGSV,3,2,12,32,31,228,38,02,26,057,42,06,09,028,11,26,08,270,35*73
$GPGSV,3,2,12,32,31,228,38,02,26,057,42,06,09,028,11,26,08,270,35*73
$GPGSV,3,3,12,57,68,131,,58,68,131,,59,68,131,,07,50,075,*74
$GPGSV,3,3,12,57,68,131,,58,68,131,,59,68,131,,07,50,075,*74
$GPRMC,074041.000,A,4825.1430,N,00428.4544,W,0.00,259.32,090621,,,A*7B
$GPGGA,074042.000,4825.1430,N,00428.4544,W,1,08,1.3,92.2,M,52.0,M,,0000*7D
$GPGSA,A,3,25,29,31,12,32,02,06,26,,,,,2.0,1.3,1.5*3A
$GPRMC,074042.000,A,4825.1430,N,00428.4544,W,0.00,259.32,090621,,,A*78
$GPGGA,074043.000,4825.1430,N,00428.4544,W,1,08,1.3,92.2,M,52.0,M,,0000*7C
$GPGSA,A,3,25,29,31,12,32,02,06,26,,,,,2.0,1.3,1.5*3A
$GPRMC,074043.000,A,4825.1430,N,00428.4544,W,0.00,259.32,090621,,,A*79
$GPGGA,074044.000,4825.1430,N,00428.4544,W,1,08,1.3,92.2,M,52.0,M,,0000*7B
$GPGSA,A,3,25,29,31,12,32,02,06,26,,,,,2.0,1.3,1.5*3A
$GPRMC,074044.000,A,4825.1430,N,00428.4544,W,0.00,259.32,090621,,,A*7E
$GPGGA,074045.000,4825.1430,N,00428.4544,W,1,08,1.3,92.2,M,52.0,M,,0000*7A
$GPGSA,A,3,25,29,31,12,32,02,06,26,,,,,2.0,1.3,1.5*3A
$GPRMC,074045.000,A,4825.1430,N,00428.4544,W,0.00,259.32,090621,,,A*7F
$GPGGA,074046.000,4825.1430,N,00428.4544,W,1,08,1.3,92.2,M,52.0,M,,0000*79
$GPGSA,A,3,25,29,31,12,32,02,06,26,,,,,2.0,1.3,1.5*3A
$GPGSV,3,1,12,25,71,059,42,29,62,183,40,31,41,303,43,12,33,075,44*73
$GPGSV,3,1,12,25,71,059,42,29,62,183,40,31,41,303,43,12,33,075,44*73
$GPGSV,3,2,12,32,31,228,38,02,26,057,42,06,09,028,13,26,08,270,36*72
$GPGSV,3,2,12,32,31,228,38,02,26,057,42,06,09,028,13,26,08,270,36*72
$GPGSV,3,3,12,57,68,131,,58,68,131,,59,68,131,,07,50,075,*74
$GPGSV,3,3,12,57,68,131,,58,68,131,,59,68,131,,07,50,075,*74
$GPRMC,074046.000,A,4825.1430,N,00428.4544,W,0.00,259.32,090621,,,A*7C
$GPGGA,074047.000,4825.1430,N,00428.4544,W,1,08,1.3,92.2,M,52.0,M,,0000*78
$GPGSA,A,3,25,29,31,12,32,02,06,26,,,,,2.0,1.3,1.5*3A
$GPRMC,074047.000,A,4825.1430,N,00428.4544,W,0.00,259.32,090621,,,A*7D
$GPGGA,074048.000,4825.1430,N,00428.4544,W,1,07,1.3,92.2,M,52.0,M,,0000*78
$GPGSA,A,3,25,29,31,12,32,02,26,,,,,,2.2,1.3,1.7*3C
$GPRMC,074048.000,A,4825.1430,N,00428.4544,W,0.00,259.32,090621,,,A*72
$GPGGA,074049.000,4825.1430,N,00428.4544,W,1,07,1.3,92.2,M,52.0,M,,0000*79
$GPGSA,A,3,25,29,31,12,32,02,26,,,,,,2.2,1.3,1.7*3C
$GPRMC,074049.000,A,4825.1430,N,00428.4544,W,0.00,259.32,090621,,,A*73
$GPGGA,074050.000,4825.1430,N,00428.4544,W,1,07,1.3,92.2,M,52.0,M,,0000*71
$GPGSA,A,3,25,29,31,12,32,02,26,,,,,,2.2,1.3,1.7*3C
$GPRMC,074050.000,A,4825.1430,N,00428.4544,W,0.00,259.32,090621,,,A*7B
$GPGGA,074051.000,4825.1430,N,00428.4544,W,1,07,1.3,92.2,M,52.0,M,,0000*70
$GPGSA,A,3,25,29,31,12,32,02,26,,,,,,2.2,1.3,1.7*3C
$GPGSV,3,1,12,25,71,059,42,29,62,183,40,31,41,303,43,12,33,075,44*73
$GPGSV,3,1,12,25,71,059,42,29,62,183,40,31,41,303,43,12,33,075,44*73
$GPGSV,3,2,12,32,31,228,38,02,26,057,42,26,08,270,36,06,09,028,04*74
$GPGSV,3,2,12,32,31,228,38,02,26,057,42,26,08,270,36,06,09,028,04*74
$GPGSV,3,3,12,57,68,131,,58,68,131,,59,68,131,,07,50,075,*74
$GPGSV,3,3,12,57,68,131,,58,68,131,,59,68,131,,07,50,075,*74
$GPRMC,074051.000,A,4825.1430,N,00428.4544,W,0.00,259.32,090621,,,A*7A
$GPGGA,074052.000,4825.1430,N,00428.4544,W,1,07,1.3,92.2,M,52.0,M,,0000*73
$GPGSA,A,3,25,29,31,12,32,02,26,,,,,,2.2,1.3,1.7*3C
$$GPGGA,074053.000,4825.1430,N,00428.4544,W,1,07,1.3,92.2,M,52.0,M,,0000*72
$GPGSA,A,3,25,29,31,12,32,02,26,,,,,,2.2,1.3,1.7*3C
$GPRMC,074053.000,A,4825.1430,N,00428.4544,W,0.00,259.32,090621,,,A*78
$GPGGA,074054.000,4825.1430,N,00428.4544,W,1,07,1.3,92.2,M,52.0,M,,0000*75
$GPGSA,A,3,25,29,31,12,32,02,26,,,,,,2.2,1.3,1.7*3C
$GPRMC,074054.000,A,4825.1430,N,00428.4544,W,0.00,259.32,090621,,,A*7F
$GPGGA,074055.000,4825.1430,N,00428.4544,W,1,07,1.3,92.2,M,52.0,M,,0000*74
$GPGSA,A,3,25,29,31,12,32,02,26,,,,,,2.2,1.3,1.7*3C
$GPRMC,074055.000,A,4825.1430,N,00428.4544,W,0.00,259.32,090621,,,A*7E
$GPGGA,074056.000,4825.1430,N,00428.4544,W,1,07,1.3,92.2,M,52.0,M,,0000*77
$GPGSA,A,3,25,29,31,12,32,02,26,,,,,,2.2,1.3,1.7*3C
$GPGSV,3,1,12,25,71,059,42,29,62,183,40,31,41,303,43,12,33,075,44*73
$GPGSV,3,1,12,25,71,059,42,29,62,183,40,31,41,303,43,12,33,075,44*73
$GPGSV,3,2,12,32,31,228,38,02,26,057,42,26,08,270,36,06,09,028,04*74
$GPGSV,3,2,12,32,31,228,38,02,26,057,42,26,08,270,36,06,09,028,04*74
$GPGSV,3,3,12,57,68,131,,58,68,131,,59,68,131,,07,50,075,*74
$GPGSV,3,3,12,57,68,131,,58,68,131,,59,68,131,,07,50,075,*74
$GPRMC,074056.000,A,4825.1430,N,00428.4544,W,0.00,259.32,090621,,,A*7D
$G,02,26,,,,,,2.2,1.3,1.7*3C
$GPRMC,074057.000,A,4825.1430,N,00428.4544,W,0.00,259.32,090621,,,A*7C
