$GPRMC,083735.000,A,4825.1428,N,00428.4545,W,0.00,270.56,090621,,,A*76
$GPGGA,083736.000,4825.1428,N,00428.4545,W,1,08,1.0,89.0,M,52.0,M,,0000*72
$GPGSA,A,3,29,31,25,26,18,02,12,32,,,,,1.6,1.0,1.2*34
$GPGSV,3,1,12,29,81,098,43,31,62,282,43,25,48,088,40,26,29,284,40*7F
$GPGSV,3,1,12,29,81,098,43,31,62,282,43,25,48,088,40,26,29,284,40*7F
$GPGSV,3,2,12,18,16,163,37,02,15,037,37,12,13,091,29,32,09,213,30*7A
$GPGSV,3,2,12,18,16,163,37,02,15,037,37,12,13,091,29,32,09,213,30*7A
$GPGSV,3,3,12,57,68,131,,58,68,131,,59,68,131,,07,34,052,*73
$GPGSV,3,3,12,57,68,131,,58,68,131,,59,68,131,,07,34,052,*73
$GPRMC,083736.000,A,4825.1428,N,00428.4545,W,0.00,270.56,090621,,,A*75
$GPGGA,083737.000,4825.1428,N,00428.4545,W,1,08,1.0,89.0,M,52.0,M,,0000*73
$GPGSA,A,3,29,31,25,26,18,02,12,32,,,,,1.6,1.0,1.2*34
$GPRMC,083737.000,A,4825.1428,N,00428.4545,W,0.00,270.56,090621,,,A*74
$GPGGA,083738.000,4825.1428,N,00428.4545,W,1,08,1.0,89.0,M,52.0,M,,0000*7C
$GPGSA,A,3,29,31,25,26,18,02,12,32,,,,,1.6,1.0,1.2*34
$GPRMC,083738.000,A,4825.1428,N,00428.4545,W,0.00,270.56,090621,,,A*7B
$GPGGA,083739.000,4825.1428,N,00428.4545,W,1,08,1.0,89.0,M,52.0,M,,0000*7D
$GPGSA,A,3,29,31,25,26,18,02,12,32,,,,,1.6,1.0,1.2*34
$GPRMC,083739.000,A,4825.1428,N,00428.4545,W,0.00,270.56,090621,,,A*7A
$GPGGA,083740.000,4825.1428,N,00428.4545,W,1,08,1.0,89.0,M,52.0,M,,0000*73
$GPGSA,A,3,29,31,25,26,18,02,12,32,,,,,1.6,1.0,1.2*34
$GPRMC,083740.000,A,4825.1428,N,00428.4545,W,0.00,270.56,090621,,,A*74
$GPGGA,083741.000,4825.1428,N,00428.4545,W,1,08,1.0,89.0,M,52.0,M,,0000*72
$GPGSA,A,3,29,31,25,26,18,02,12,32,,,,,1.6,1.0,1.2*34
$GPGSV,3,1,12,29,81,098,43,31,62,282,43,25,48,088,41,26,29,284,39*70
$GPGSV,3,1,12,29,81,098,43,31,62,282,43,25,48,088,41,26,29,284,39*70
$GPGSV,3,2,12,18,16,163,37,02,15,037,37,12,13,091,28,32,09,213,30*7B
$GPGSV,3,2,12,18,16,163,37,02,15,037,37,12,13,091,28,32,09,213,30*7B
$GPGSV,3,3,12,57,68,131,,58,68,131,,59,68,131,,07,34,052,*73
$GPGSV,3,3,12,57,68,131,,58,68,131,,59,68,131,,07,34,052,*73
$GPRMC,083741.000,A,4825.1428,N,00428.4545,W,0.00,270.56,090621,,,A*75
$GPGGA,083742.000,4825.1428,N,00428.4545,W,1,08,1.0,89.0,M,52.0,M,,0000*71
$GPGSA,A,3,29,31,25,26,18,02,12,32,,,,,1.6,1.0,1.2*34
$GPRMC,083742.000,A,4825.1428,N,00428.4545,W,0.00,270.56,090621,,,A*76
$GPGGA,083743.000,4825.1428,N,00428.4545,W,1,08,1.0,89.0,M,52.0,M,,0000*70
$GPGSA,A,3,29,31,25,26,18,02,12,32,,,,,1.6,1.0,1.2*34
$GPRMC,083743.000,A,4825.1428,N,00428.4545,W,0.00,270.56,090621,,,A*77
$GPGGA,083744.000,4825.1428,N,00428.4545,W,1,08,1.0,89.0,M,52.0,M,,0000*77
$GPGSA,A,3,29,31,25,26,18,02,12,32,,,,,1.6,1.0,1.2*34
$GPRMC,083744.000,A,4825.1428,N,00428.4545,W,0.00,270.56,090621,,,A*70
$GPGGA,083745.000,4825.1428,N,00428.4545,W,1,08,1.0,89.0,M,52.0,M,,0000*76
$GPGSA,A,3,29,31,25,26,18,02,12,32,,,,,1.6,1.0,1.2*34
$GPRMC,083745.000,A,4825.1428,N,00428.4545,W,0.00,270.56,090621,,,A*71
$GPGGA,083746.000,4825.1428,N,00428.4545,W,1,08,1.0,89.0,M,52.0,M,,0000*75
$GPGSA,A,3,29,31,25,26,18,02,12,32,,,,,1.6,1.0,1.2*34
$GPGSV,3,1,12,29,81,098,43,31,62,282,43,25,48,088,41,26,29,284,39*70
$GPGSV,3,1,12,29,81,098,43,31,62,282,43,25,48,088,41,26,29,284,39*70
$GPGSV,3,2,12,18,16,163,37,02,15,037,37,12,13,091,28,32,09,213,29*73
$GPGSV,3,2,12,18,16,163,37,02,15,037,37,12,13,091,28,32,09,213,29*73
$GPGSV,3,3,12,57,68,131,,58,68,131,,59,68,131,,07,34,052,*73
$GPGSV,3,3,12,57,68,131,,58,68,131,,59,68,131,,07,34,052,*73
$GPRMC,083746.000,A,4825.1428,N,00428.4545,W,0.00,270.56,090621,,,A*72
$GPGGA,083747.000,4825.1428,N,00428.4545,W,1,08,1.0,89.0,M,52.0,M,,0000*74
$GPGSA,A,3,29,31,25,26,18,02,12,32,,,,,1.6,1.0,1.2*34
$GPRMC,083747.000,A,4825.1428,N,00428.4545,W,0.00,270.56,090621,,,A*73
$GPGGA,083748.000,4825.1428,N,00428.4545,W,1,08,1.0,89.0,M,52.0,M,,0000*7B
$GPGSA,A,3,29,31,25,26,18,02,12,32,,,,,1.6,1.0,1.2*34
$GPRMC,083748.000,A,4825.1428,N,00428.4545,W,0.00,270.56,090621,,,A*7C
$GPGGA,083749.000,4825.1428,N,00428.4545,W,1,08,1.0,89.0,M,52.0,M,,0000*7A
$GPGSA,A,3,29,31,25,26,18,02,12,32,,,,,1.6,1.0,1.2*34
$GPRMC,083749.000,A,4825.1428,N,00428.4545,W,0.00,270.56,090621,,,A*7D
$GPGGA,083750.000,4825.1428,N,00428.4545,W,1,08,1.0,89.0,M,52.0,M,,0000*72
$GPGSA,A,3,29,31,25,26,18,02,12,32,,,,,1.6,1.0,1.2*34
$GPRMC,083750.000,A,4825.1428,N,00428.4545,W,0.00,270.56,090621,,,A*75
$GPGGA,083751.000,4825.1428,N,00428.4545,W,1,08,1.0,89.0,M,52.0,M,,0000*73
$GPGSA,A,3,29,31,25,26,18,02,12,32,,,,,1.6,1.0,1.2*34
$GPGSV,3,1,12,29,81,098,44,31,62,282,43,25,48,088,41,26,29,284,40*79
$GPGSV,3,1,12,29,81,098,44,31,62,282,43,25,48,088,41,26,29,284,40*79
$GPGSV,3,2,12,18,16,163,37,02,15,037,37,12,13,091,29,32,09,213,29*72
$GPGSV,3,2,12,18,16,163,37,02,15,037,37,12,13,091,29,32,09,213,29*72
$GPGSV,3,3,12,57,68,131,,58,68,131,,59,68,131,,07,34,052,*73
$GPGSV,3,3,12,57,68,131,,58,68,131,,59,68,131,,07,34,052,*73
$GPRMC,083751.000,A,4825.1428,N,00428.4545,W,0.00,270.56,090621,,,A*74
$GPGGA,083752.000,4825.1428,N,00428.4545,W,1,08,1.0,89.0,M,52.0,M,,0000*70
$GPGSA,A,3,29,31,25,26,18,02,12,32,,,,,1.6,1.0,1.2*34
$GPRMC,083752.000,A,4825.1428,N,00428.4545,W,0.00,270.56,090621,,,A*77
$GPGGA,083753.000,4825.1428,N,00428.4545,W,1,08,1.0,89.0,M,52.0,M,,0000*71
$GPGSA,A,3,29,31,25,26,18,02,12,32,,,,,1.6,1.0,1.2*34
$GPRMC,083753.000,A,4825.1428,N,00428.4545,W,0.00,270.56,090621,,,A*76
$GPGGA,083754.000,4825.1428,N,00428.4545,W,1,08,1.0,89.0,M,52.0,M,,0000*76
$GPGSA,A,3,29,31,25,26,18,02,12,32,,,,,1.6,1.0,1.2*34
$GPRMC,083754.000,A,4825.1428,N,00428.4545,W,0.00,270.56,090621,,,A*71
$GPGGA,083755.000,4825.1428,N,00428.4545,W,1,08,1.0,89.0,M,52.0,M,,0000*77
$GPGSA,A,3,29,31,25,26,18,02,12,32,,,,,1.6,1.0,1.2*34
$GPRMC,083755.000,A,4825.1428,N,00428.4545,W,0.00,270.56,090621,,,A*70
$GPGGA,083756.000,4825.1428,N,00428.4545,W,1,08,1.0,89.0,M,52.0,M,,0000*74
$GPGSA,A,3,29,31,25,26,18,02,12,32,,,,,1.6,1.0,1.2*34
$GPGSV,3,1,12,29,81,098,44,31,62,282,43,25,48,088,40,26,29,284,39*76
$GPGSV,3,1,12,29,81,098,44,31,62,282,43,25,48,088,40,26,29,284,39*76
$GPGSV,3,2,12,18,16,163,37,02,15,037,37,12,13,091,29,32,09,213,29*72
$GPGSV,3,2,12,18,16,163,37,02,15,037,37,12,13,091,29,32,09,213,29*72
$GPGSV,3,3,12,57,68,131,,58,68,131,,59,68,131,,07,34,052,*73
$GPGSV,3,3,12,57,68,131,,58,68,131,,59,68,131,,07,34,052,*73
$GPRMC,083756.000,A,4825.1428,N,00428.4545,W,0.00,270.56,090621,,,A*73
$GPGGA,083757.000,4825.1428,N,00428.4545,W,1,08,1.0,89.0,M,52.0,M,,0000*75
$GPGSA,A,3,29,31,25,26,18,02,12,32,,,,,1.6,1.0,1.2*34
$GPRMC,083757.000,A,4825.1428,N,00428.4545,W,0.00,270.56,090621,,,A*72
$GPGGA,083758.000,4825.1428,N,00428.4545,W,1,08,1.0,89.0,M,52.0,M,,0000*7A
$GPGSA,A,3,29,31,25,26,18,02,12,32,,,,,1.6,1.0,1.2*34
$GPRMC,083758.000,A,4825.1428,N,00428.4545,W,0.00,270.56,090621,,,A*7D
$GPGGA,083759.000,4825.1428,N,00428.4545,W,1,08,1.0,89.0,M,52.0,M,,0000*7B
$GPGSA,A,3,29,31,25,26,18,02,12,32,,,,,1.6,1.0,1.2*34
$GPRMC,083759.000,A,4825.1428,N,00428.4545,W,0.00,270.56,090621,,,A*7C
$GPGGA,083800.000,4825.1428,N,00428.4545,W,1,08,1.0,89.0,M,52.0,M,,0000*78
$GPGSA,A,3,29,31,25,26,18,02,12,32,,,,,1.6,1.0,1.2*34
$GPRMC,083800.000,A,4825.1428,N,00428.4545,W,0.00,270.56,090621,,,A*7F
$GPGGA,083801.000,4825.1428,N,00428.4545,W,1,08,1.0,89.0,M,52.0,M,,0000*79
$GPGSA,A,3,29,31,25,26,18,02,12,32,,,,,1.6,1.0,1.2*34
$GPGSV,3,1,12,29,81,098,44,31,62,282,42,25,48,088,40,26,29,284,39*77
$GPGSV,3,1,12,29,81,098,44,31,62,282,42,25,48,088,40,26,29,284,39*77
$GPGSV,3,2,12,18,16,163,37,02,15,037,37,12,13,091,30,32,09,213,30*72
$GPGSV,3,2,12,18,16,163,37,02,15,037,37,12,13,091,30,32,09,213,30*72
$GPGSV,3,3,12,57,68,131,,58,68,131,,59,68,131,,07,34,052,*73
$GPGSV,3,3,12,57,68,131,,58,68,131,,59,68,131,,07,34,052,*73
$GPRMC,083801.000,A,4825.1428,N,00428.4545,W,0.00,270.56,090621,,,A*7E
$GPGGA,083802.000,4825.1428,N,00428.4545,W,1,08,1.0,89.0,M,52.0,M,,0000*7A
$GPGSA,A,3,29,31,25,26,18,02,12,32,,,,,1.6,1.0,1.2*34
$GPRMC,083802.000,A,4825.1428,N,00428.4545,W,0.00,270.56,090621,,,A*7D
$GPGGA,083803.000,4825.1428,N,00428.4545,W,1,08,1.0,89.0,M,52.0,M,,0000*7B
$GPGSA,A,3,29,31,25,26,18,02,12,32,,,,,1.6,1.0,1.2*34
$GPRMC,083803.000,A,4825.1428,N,00428.4545,W,0.00,270.56,090621,,,A*7C
$GPGGA,083804.000,4825.1428,N,00428.4545,W,1,08,1.0,89.0,M,52.0,M,,0000*7C
$GPGSA,A,3,29,31,25,26,18,02,12,32,,,,,1.6,1.0,1.2*34
$GPRMC,083804.000,A,4825.1428,N,00428.4545,W,0.00,270.56,090621,,,A*7B
$GPGGA,083805.000,4825.1428,N,00428.4545,W,1,08,1.0,89.0,M,52.0,M,,0000*7D
$GPGSA,A,3,29,31,25,26,18,02,12,32,,,,,1.6,1.0,1.2*34
$GPRMC,083805.000,A,4825.1428,N,00428.4545,W,0.00,270.56,090621,,,A*7A
$GPGGA,083806.000,4825.1428,N,00428.4545,W,1,08,1.0,89.0,M,52.0,M,,0000*7E
$GPGSA,A,3,29,31,25,26,18,02,12,32,,,,,1.6,1.0,1.2*34
$GPGSV,3,1,12,29,80,089,43,31,63,280,43,25,47,089,39,26,30,285,38*7B
$GPGSV,3,1,12,29,80,089,43,31,63,280,43,25,47,089,39,26,30,285,38*7B
$GPGSV,3,2,12,18,17,163,37,02,14,036,37,12,12,091,30,32,08,212,30*72
$GPGSV,3,2,12,18,17,163,37,02,14,036,37,12,12,091,30,32,08,212,30*72
$GPGSV,3,3,12,57,68,131,,58,68,131,,59,68,131,,07,33,051,*77
$GPGSV,3,3,12,57,68,131,,58,68,131,,59,68,131,,07,33,051,*77
$GPRMC,083806.000,A,4825.1428,N,00428.4545,W,0.00,270.56,090621,,,A*79
$GPGGA,083807.000,4825.1428,N,00428.4545,W,1,08,1.0,89.0,M,52.0,M,,0000*7F
$GPGSA,A,3,29,31,25,26,18,02,12,32,,,,,1.6,1.0,1.2*34
$GPRMC,083807.000,A,4825.1428,N,00428.4545,W,0.00,270.56,090621,,,A*78
$GPGGA,083808.000,4825.1428,N,00428.4545,W,1,08,1.0,89.0,M,52.0,M,,0000*70
$GPGSA,A,3,29,31,25,26,18,02,12,32,,,,,1.6,1.0,1.2*34
$GPRMC,083808.000,A,4825.1428,N,00428.4545,W,0.00,270.56,090621,,,A*77
$GPGGA,083809.000,4825.1428,N,00428.4545,W,1,08,1.0,89.0,M,52.0,M,,0000*71
$GPGSA,A,3,29,31,25,26,18,02,12,32,,,,,1.6,1.0,1.2*34
$GPRMC,083809.000,A,4825.1428,N,00428.4545,W,0.00,270.56,090621,,,A*76
$GPGGA,083810.000,4825.1428,N,00428.4545,W,1,08,1.0,89.0,M,52.0,M,,0000*79
$GPGSA,A,3,29,31,25,26,18,02,12,32,,,,,1.6,1.0,1.2*34
$GPRMC,083810.000,A,4825.1428,N,00428.4545,W,0.00,270.56,090621,,,A*7E
$GPGGA,083811.000,4825.1428,N,00428.4545,W,1,08,1.0,89.0,M,52.0,M,,0000*78
$GPGSA,A,3,29,31,25,26,18,02,12,32,,,,,1.6,1.0,1.2*34
$GPGSV,3,1,12,29,80,089,43,31,63,280,43,25,47,089,39,26,30,285,37*74
$GPGSV,3,1,12,29,80,089,43,31,63,280,43,25,47,089,39,26,30,285,37*74
$GPGSV,3,2,12,18,17,163,37,02,14,036,37,12,12,091,31,32,08,212,31*72
$GPGSV,3,2,12,18,17,163,37,02,14,036,37,12,12,091,31,32,08,212,31*72
$GPGSV,3,3,12,57,68,131,,58,68,131,,59,68,131,,07,33,051,*77
$GPGSV,3,3,12,57,68,131,,58,68,131,,59,68,131,,07,33,051,*77
$GPRMC,083811.000,A,4825.1428,N,00428.4545,W,0.00,270.56,090621,,,A*7F
$GPGGA,083812.000,4825.1428,N,00428.4545,W,1,08,1.0,89.0,M,52.0,M,,0000*7B
$GPGSA,A,3,29,31,25,26,18,02,12,32,,,,,1.6,1.0,1.2*34
$GPRMC,083812.000,A,4825.1428,N,00428.4545,W,0.00,270.56,090621,,,A*7C
$GPGGA,083813.000,4825.1428,N,00428.4545,W,1,08,1.0,89.0,M,52.0,M,,0000*7A
$GPGSA,A,3,29,31,25,26,18,02,12,32,,,,,1.6,1.0,1.2*34
$GPRMC,083813.000,A,4825.1428,N,00428.4545,W,0.00,270.56,090621,,,A*7D
$GPGGA,083814.000,4825.1428,N,00428.4545,W,1,08,1.0,89.0,M,52.0,M,,0000*7D
$GPGSA,A,3,29,31,25,26,18,02,12,32,,,,,1.6,1.0,1.2*34
$GPRMC,083814.000,A,4825.1428,N,00428.4545,W,0.00,270.56,090621,,,A*7A
$GPGGA,083815.000,4825.1428,N,00428.4545,W,1,08,1.0,89.0,M,52.0,M,,0000*7C
$GPGSA,A,3,29,31,25,26,18,02,12,32,,,,,1.6,1.0,1.2*34
$GPRMC,083815.000,A,4825.1428,N,00428.4545,W,0.00,270.56,090621,,,A*7B
$GPGGA,083816.000,4825.1428,N,00428.4545,W,1,08,1.0,89.0,M,52.0,M,,0000*7F
$GPGSA,A,3,29,31,25,26,18,02,12,32,,,,,1.6,1.0,1.2*34
$GPGSV,3,1,12,29,80,089,43,31,63,280,43,25,47,089,39,26,30,285,37*74
$GPGSV,3,1,12,29,80,089,43,31,63,280,43,25,47,089,39,26,30,285,37*74
$GPGSV,3,2,12,18,17,163,37,02,14,036,36,12,12,091,31,32,08,212,31*73
$GPGSV,3,2,12,18,17,163,37,02,14,036,36,12,12,091,31,32,08,212,31*73
$GPGSV,3,3,12,57,68,131,,58,68,131,,59,68,131,,07,33,051,*77
$GPGSV,3,3,12,57,68,131,,58,68,131,,59,68,131,,07,33,051,*77
$GPRMC,083816.000,A,4825.1428,N,00428.4545,W,0.00,270.56,090621,,,A*78
$GPGGA,083817.000,4825.1428,N,00428.4545,W,1,08,1.0,89.0,M,52.0,M,,0000*7E
$GPGSA,A,3,29,31,25,26,18,02,12,32,,,,,1.6,1.0,1.2*34
$GPRMC,083817.000,A,4825.1428,N,00428.4545,W,0.00,270.56,090621,,,A*79
$GPGGA,083818.000,4825.1428,N,00428.4545,W,1,08,1.0,89.0,M,52.0,M,,0000*71
$GPGSA,A,3,29,31,25,26,18,02,12,32,,,,,1.6,1.0,1.2*34
$GPRMC,083818.000,A,4825.1428,N,00428.4545,W,0.00,270.56,090621,,,A*76
$GPGGA,083819.000,4825.1428,N,00428.4545,W,1,08,1.0,89.0,M,52.0,M,,0000*70
$GPGSA,A,3,29,31,25,26,18,02,12,32,,,,,1.6,1.0,1.2*34
$GPRMC,083819.000,A,4825.1428,N,00428.4545,W,0.00,270.56,090621,,,A*77
$GPGGA,083820.000,4825.1428,N,00428.4545,W,1,08,1.0,89.0,M,52.0,M,,0000*7A
$GPGSA,A,3,29,31,25,26,18,02,12,32,,,,,1.6,1.0,1.2*34
$GPRMC,083820.000,A,4825.1428,N,00428.4545,W,0.00,270.56,090621,,,A*7D
$GPGGA,083821.000,4825.1428,N,00428.4545,W,1,08,1.0,89.0,M,52.0,M,,0000*7B
$GPGSA,A,3,29,31,25,26,18,02,12,32,,,,,1.6,1.0,1.2*34
$GPGSV,3,1,12,29,80,089,43,31,63,280,43,25,47,089,39,26,30,285,36*75
$GPGSV,3,1,12,29,80,089,43,31,63,280,43,25,47,089,39,26,30,285,36*75
$GPGSV,3,2,12,18,17,163,37,02,14,036,36,12,12,091,32,32,08,212,32*73
$GPGSV,3,2,12,18,17,163,37,02,14,036,36,12,12,091,32,32,08,212,32*73
$GPGSV,3,3,12,57,68,131,,58,68,131,,59,68,131,,07,33,051,*77
$GPGSV,3,3,12,57,68,131,,58,68,131,,59,68,131,,07,33,051,*77
$GPRMC,083821.000,A,4825.1428,N,00428.4545,W,0.00,270.56,090621,,,A*7C
$GPGGA,083822.000,4825.1428,N,00428.4545,W,1,08,1.0,89.0,M,52.0,M,,0000*78
$GPGSA,A,3,29,31,25,26,18,02,12,32,,,,,1.6,1.0,1.2*34
$GPRMC,083822.000,A,4825.1428,N,00428.4545,W,0.00,270.56,090621,,,A*7F
$GPGGA,083823.000,4825.1428,N,00428.4545,W,1,08,1.0,89.0,M,52.0,M,,0000*79
$GPGSA,A,3,29,31,25,26,18,02,12,32,,,,,1.6,1.0,1.2*34
$GPRMC,083823.000,A,4825.1428,N,00428.4545,W,0.00,270.56,090621,,,A*7E
$GPGGA,083824.000,4825.1428,N,00428.4545,W,1,08,1.0,89.0,M,52.0,M,,0000*7E
$GPGSA,A,3,29,31,25,26,18,02,12,32,,,,,1.6,1.0,1.2*34
$GPRMC,083824.000,A,4825.1428,N,00428.4545,W,0.00,270.56,090621,,,A*79
$GPGGA,083825.000,4825.1428,N,00428.4545,W,1,08,1.0,89.0,M,52.0,M,,0000*7F
$GPGSA,A,3,29,31,25,26,18,02,12,32,,,,,1.6,1.0,1.2*34
$GPRMC,083825.000,A,4825.1428,N,00428.4545,W,0.00,270.56,090621,,,A*78
$GPGGA,083826.000,4825.1428,N,00428.4545,W,1,08,1.0,89.0,M,52.0,M,,0000*7C
$GPGSA,A,3,29,31,25,26,18,02,12,32,,,,,1.6,1.0,1.2*34
$GPGSV,3,1,12,29,80,089,43,31,63,280,42,25,47,089,39,26,30,285,36*74
$GPGSV,3,1,12,29,80,089,43,31,63,280,42,25,47,089,39,26,30,285,36*74
$GPGSV,3,2,12,18,17,163,37,02,14,036,36,12,12,091,32,32,08,212,32*73
$GPGSV,3,2,12,18,17,163,37,02,14,036,36,12,12,091,32,32,08,212,32*73
$GPGSV,3,3,12,57,68,131,,58,68,131,,59,68,131,,07,33,051,*77
$GPGSV,3,3,12,57,68,131,,58,68,131,,59,68,131,,07,33,051,*77
$GPRMC,083826.000,A,4825.1428,N,00428.4545,W,0.00,270.56,090621,,,A*7B
$GPGGA,083827.000,4825.1428,N,00428.4545,W,1,08,1.0,89.0,M,52.0,M,,0000*7D
$GPGSA,A,3,29,31,25,26,18,02,12,32,,,,,1.6,1.0,1.2*34
$GPRMC,083827.000,A,4825.1428,N,00428.4545,W,0.00,270.56,090621,,,A*7A
$GPGGA,083828.000,4825.1428,N,00428.4545,W,1,08,1.0,89.0,M,52.0,M,,0000*72
$GPGSA,A,3,29,31,25,26,18,02,12,32,,,,,1.6,1.0,1.2*34
$GPRMC,083828.000,A,4825.1428,N,00428.4545,W,0.00,270.56,090621,,,A*75
$GPGGA,083829.000,4825.1428,N,00428.4545,W,1,08,1.0,89.0,M,52.0,M,,0000*73
$GPGSA,A,3,29,31,25,26,18,02,12,32,,,,,1.6,1.0,1.2*34
$GPRMC,083829.000,A,4825.1428,N,00428.4545,W,0.00,270.56,090621,,,A*74
$GPGGA,083830.000,4825.1428,N,00428.4545,W,1,08,1.0,89.0,M,52.0,M,,0000*7B
$GPGSA,A,3,29,31,25,26,18,02,12,32,,,,,1.6,1.0,1.2*34
$GPRMC,083830.000,A,4825.1428,N,00428.4545,W,0.00,270.56,090621,,,A*7C
$GPGGA,083831.000,4825.1428,N,00428.4545,W,1,08,1.0,89.0,M,52.0,M,,0000*7A
$GPGSA,A,3,29,31,25,26,18,02,12,32,,,,,1.6,1.0,1.2*34
$GPGSV,3,1,12,29,80,089,43,31,63,280,42,25,47,089,39,26,30,285,36*74
$GPGSV,3,1,12,29,80,089,43,31,63,280,42,25,47,089,39,26,30,285,36*74
$GPGSV,3,2,12,18,17,163,37,02,14,036,36,12,12,091,32,32,08,212,32*73
$GPGSV,3,2,12,18,17,163,37,02,14,036,36,12,12,091,32,32,08,212,32*73
$GPGSV,3,3,12,57,68,131,,58,68,131,,59,68,131,,07,33,051,*77
$GPGSV,3,3,12,57,68,131,,58,68,131,,59,68,131,,07,33,051,*77
$GPRMC,083831.000,A,4825.1428,N,00428.4545,W,0.00,270.56,090621,,,A*7D
$GPGGA,083832.000,4825.1428,N,00428.4545,W,1,08,1.0,89.0,M,52.0,M,,0000*79
$GPGSA,A,3,29,31,25,26,18,02,12,32,,,,,1.6,1.0,1.2*34
$GPRMC,083832.000,A,4825.1428,N,00428.4545,W,0.00,270.56,090621,,,A*7E
$GPGGA,083833.000,4825.1428,N,00428.4545,W,1,08,1.0,89.0,M,52.0,M,,0000*78
$GPGSA,A,3,29,31,25,26,18,02,12,32,,,,,1.6,1.0,1.2*34
$GPRMC,083833.000,A,4825.1428,N,00428.4545,W,0.00,270.56,090621,,,A*7F
$GPGGA,083834.000,4825.1428,N,00428.4545,W,1,08,1.0,89.0,M,52.0,M,,0000*7F
$GPGSA,A,3,29,31,25,26,18,02,12,32,,,,,1.5,1.0,1.2*37
$GPRMC,083834.000,A,4825.1428,N,00428.4545,W,0.00,270.56,090621,,,A*78
$GPGGA,083835.000,4825.1428,N,00428.4545,W,1,08,1.0,89.0,M,52.0,M,,0000*7E
$GPGSA,A,3,29,31,25,26,18,02,12,32,,,,,1.5,1.0,1.2*37
$GPRMC,083835.000,A,4825.1428,N,00428.4545,W,0.00,270.56,090621,,,A*79
$GPGGA,083836.000,4825.1428,N,00428.4545,W,1,08,1.0,89.0,M,52.0,M,,0000*7D
$GPGSA,A,3,29,31,25,26,18,02,12,32,,,,,1.5,1.0,1.2*37
$GPGSV,3,1,12,29,80,089,43,31,63,280,43,25,47,089,39,26,30,285,37*74
$GPGSV,3,1,12,29,80,089,43,31,63,280,43,25,47,089,39,26,30,285,37*74
$GPGSV,3,2,12,18,17,163,37,02,14,036,36,12,12,091,32,32,08,212,32*73
$GPGSV,3,2,12,18,17,163,37,02,14,036,36,12,12,091,32,32,08,212,32*73
$GPGSV,3,3,12,57,68,131,,58,68,131,,59,68,131,,07,33,051,*77
$GPGSV,3,3,12,57,68,131,,58,68,131,,59,68,131,,07,33,051,*77
$GPRMC,083836.000,A,4825.1428,N,00428.4545,W,0.00,270.56,090621,,,A*7A
$GPGGA,083837.000,4825.1428,N,00428.4545,W,1,08,1.0,89.0,M,52.0,M,,0000*7C
$GPGSA,A,3,29,31,25,26,18,02,12,32,,,,,1.5,1.0,1.2*37
$GPRMC,083837.000,A,4825.1428,N,00428.4545,W,0.00,270.56,090621,,,A*7B
$GPGGA,083838.000,4825.1428,N,00428.4545,W,1,08,1.0,89.0,M,52.0,M,,0000*73
$GPGSA,A,3,29,31,25,26,18,02,12,32,,,,,1.5,1.0,1.2*37
$GPRMC,083838.000,A,4825.1428,N,00428.4545,W,0.00,270.56,090621,,,A*74
$GPGGA,083839.000,4825.1428,N,00428.4545,W,1,08,1.0,89.0,M,52.0,M,,0000*72
$GPGSA,A,3,29,31,25,26,18,02,12,32,,,,,1.5,1.0,1.2*37
$GPRMC,083839.000,A,4825.1428,N,00428.4545,W,0.00,270.56,090621,,,A*75
$GPGGA,083840.000,4825.1428,N,00428.4545,W,1,08,1.0,89.0,M,52.0,M,,0000*7C
$GPGSA,A,3,29,31,25,26,18,02,12,32,,,,,1.5,1.0,1.2*37
$GPRMC,083840.000,A,4825.1428,N,00428.4545,W,0.00,270.56,090621,,,A*7B
$GPGGA,083841.000,4825.1428,N,00428.4545,W,1,08,1.0,89.0,M,52.0,M,,0000*7D
$GPGSA,A,3,29,31,25,26,18,02,12,32,,,,,1.5,1.0,1.2*37
$GPGSV,3,1,12,29,80,089,43,31,63,280,43,25,47,089,39,26,30,285,37*74
$GPGSV,3,1,12,29,80,089,43,31,63,280,43,25,47,089,39,26,30,285,37*74
$GPGSV,3,2,12,18,17,163,37,02,14,036,36,12,12,091,33,32,08,212,31*71
$GPGSV,3,2,12,18,17,163,37,02,14,036,36,12,12,091,33,32,08,212,31*71
$GPGSV,3,3,12,57,68,131,,58,68,131,,59,68,131,,07,33,051,*77
$GPGSV,3,3,12,57,68,131,,58,68,131,,59,68,131,,07,33,051,*77
$GPRMC,083841.000,A,4825.1428,N,00428.4545,W,0.00,270.56,090621,,,A*7A
$GPGGA,083842.000,4825.1428,N,00428.4545,W,1,08,1.0,89.0,M,52.0,M,,0000*7E
$GPGSA,A,3,29,31,25,26,18,02,12,32,,,,,1.5,1.0,1.2*37
$GPRMC,083842.000,A,4825.1428,N,00428.4545,W,0.00,270.56,090621,,,A*79
$GPGGA,083843.000,4825.1428,N,00428.4545,W,1,08,1.0,89.0,M,52.0,M,,0000*7F
$GPGSA,A,3,29,31,25,26,18,02,12,32,,,,,1.5,1.0,1.2*37
$GPRMC,083843.000,A,4825.1428,N,00428.4545,W,0.00,270.56,090621,,,A*78
$GPGGA,083844.000,4825.1428,N,00428.4545,W,1,08,1.0,89.0,M,52.0,M,,0000*78
$GPGSA,A,3,29,31,25,26,18,02,12,32,,,,,1.5,1.0,1.2*37
$GPRMC,083844.000,A,4825.1428,N,00428.4545,W,0.00,270.56,090621,,,A*7F
$GPGGA,083845.000,4825.1428,N,00428.4545,W,1,08,1.0,89.0,M,52.0,M,,0000*79
$GPGSA,A,3,29,31,25,26,18,02,12,32,,,,,1.5,1.0,1.2*37
$GPRMC,083845.000,A,4825.1428,N,00428.4545,W,0.00,270.56,090621,,,A*7E
$GPGGA,083846.000,4825.1428,N,00428.4545,W,1,08,1.0,89.0,M,52.0,M,,0000*7A
$GPGSA,A,3,29,31,25,26,18,02,12,32,,,,,1.5,1.0,1.2*37
$GPGSV,3,1,12,29,80,089,43,31,63,280,43,25,47,089,39,26,30,285,38*7B
$GPGSV,3,1,12,29,80,089,43,31,63,280,43,25,47,089,39,26,30,285,38*7B
$GPGSV,3,2,12,18,17,163,38,02,14,036,36,12,12,091,33,32,08,212,31*7E
$GPGSV,3,2,12,18,17,163,38,02,14,036,36,12,12,091,33,32,08,212,31*7E
$GPGSV,3,3,12,57,68,131,,58,68,131,,59,68,131,,07,33,051,*77
$GPGSV,3,3,12,57,68,131,,58,68,131,,59,68,131,,07,33,051,*77
$GPRMC,083846.000,A,4825.1428,N,00428.4545,W,0.00,270.56,090621,,,A*7D
$GPGGA,083847.000,4825.1428,N,00428.4545,W,1,08,1.0,89.0,M,52.0,M,,0000*7B
$GPGSA,A,3,29,31,25,26,18,02,12,32,,,,,1.5,1.0,1.2*37
$GPRMC,083847.000,A,4825.1428,N,00428.4545,W,0.00,270.56,090621,,,A*7C
$GPGGA,083848.000,4825.1428,N,00428.4545,W,1,08,1.0,89.0,M,52.0,M,,0000*74
$GPGSA,A,3,29,31,25,26,18,02,12,32,,,,,1.5,1.0,1.2*37
$GPRMC,083848.000,A,4825.1428,N,00428.4545,W,0.00,270.56,090621,,,A*73
$GPGGA,083849.000,4825.1428,N,00428.4545,W,1,08,1.0,89.0,M,52.0,M,,0000*75
$GPGSA,A,3,29,31,25,26,18,02,12,32,,,,,1.5,1.0,1.2*37
$GPRMC,083849.000,A,4825.1428,N,00428.4545,W,0.00,270.56,090621,,,A*72
$GPGGA,083850.000,4825.1428,N,00428.4545,W,1,08,1.0,89.0,M,52.0,M,,0000*7D
$GPGSA,A,3,29,31,25,26,18,02,12,32,,,,,1.5,1.0,1.2*37
$GPRMC,083850.000,A,4825.1428,N,00428.4545,W,0.00,270.56,090621,,,A*7A
$GPGGA,083851.000,4825.1428,N,00428.4545,W,1,08,1.0,89.0,M,52.0,M,,0000*7C
$GPGSA,A,3,29,31,25,26,18,02,12,32,,,,,1.5,1.0,1.2*37
$GPGSV,3,1,12,29,80,089,43,31,63,280,43,25,47,089,39,26,30,285,39*7A
$GPGSV,3,1,12,29,80,089,43,31,63,280,43,25,47,089,39,26,30,285,39*7A
$GPGSV,3,2,12,18,17,163,38,02,14,036,36,12,12,091,33,32,08,212,32*7D
$GPGSV,3,2,12,18,17,163,38,02,14,036,36,12,12,091,33,32,08,212,32*7D
$GPGSV,3,3,12,57,68,131,,58,68,131,,59,68,131,,07,33,051,*77
$GPGSV,3,3,12,57,68,131,,58,68,131,,59,68,131,,07,33,051,*77
$GPRMC,083851.000,A,4825.1428,N,00428.4545,W,0.00,270.56,090621,,,A*7B
$GPGGA,083852.000,4825.1428,N,00428.4545,W,1,08,1.0,89.0,M,52.0,M,,0000*7F
$GPGSA,A,3,29,31,25,26,18,02,12,32,,,,,1.5,1.0,1.2*37
$GPRMC,083852.000,A,4825.1428,N,00428.4545,W,0.00,270.56,090621,,,A*78
$GPGGA,083853.000,4825.1428,N,00428.4545,W,1,08,1.0,89.0,M,52.0,M,,0000*7E
$GPGSA,A,3,29,31,25,26,18,02,12,32,,,,,1.5,1.0,1.2*37
$GPRMC,083853.000,A,4825.1428,N,00428.4545,W,0.00,270.56,090621,,,A*79
$GPGGA,083854.000,4825.1428,N,00428.4545,W,1,08,1.0,89.0,M,52.0,M,,0000*79
$GPGSA,A,3,29,31,25,26,18,02,12,32,,,,,1.5,1.0,1.2*37
$GPRMC,083854.000,A,4825.1428,N,00428.4545,W,0.00,270.56,090621,,,A*7E
$GPGGA,083855.000,4825.1428,N,00428.4545,W,1,08,1.0,89.0,M,52.0,M,,0000*78
$GPGSA,A,3,29,31,25,26,18,02,12,32,,,,,1.5,1.0,1.2*37
$GPRMC,083855.000,A,4825.1428,N,00428.4545,W,0.00,270.56,090621,,,A*7F
$GPGGA,083856.000,4825.1428,N,00428.4545,W,1,08,1.0,89.0,M,52.0,M,,0000*7B
$GPGSA,A,3,29,31,25,26,18,02,12,32,,,,,1.5,1.0,1.2*37
$GPGSV,3,1,12,29,80,089,43,31,63,280,43,25,47,089,39,26,30,285,39*7A
$GPGSV,3,1,12,29,80,089,43,31,63,280,43,25,47,089,39,26,30,285,39*7A
$GPGSV,3,2,12,18,17,163,38,02,14,036,36,12,12,091,33,32,08,212,32*7D
$GPGSV,3,2,12,18,17,163,38,02,14,036,36,12,12,091,33,32,08,212,32*7D
$GPGSV,3,3,12,57,68,131,,58,68,131,,59,68,131,,07,33,051,*77
$GPGSV,3,3,12,57,68,131,,58,68,131,,59,68,131,,07,33,051,*77
$GPRMC,083856.000,A,4825.1428,N,00428.4545,W,0.00,270.56,090621,,,A*7C
$GPGGA,083857.000,4825.1428,N,00428.4545,W,1,08,1.0,89.0,M,52.0,M,,0000*7A
$GPGSA,A,3,29,31,25,26,18,02,12,32,,,,,1.5,1.0,1.2*37
$GPRMC,083857.000,A,4825.1428,N,00428.4545,W,0.00,270.56,090621,,,A*7D
$GPGGA,083858.000,4825.1428,N,00428.4545,W,1,08,1.0,89.0,M,52.0,M,,0000*75
$GPGSA,A,3,29,31,25,26,18,02,12,32,,,,,1.5,1.0,1.2*37
$GPRMC,083858.000,A,4825.1428,N,00428.4545,W,0.00,270.56,090621,,,A*72
$GPGGA,083859.000,4825.1428,N,00428.4545,W,1,08,1.0,89.0,M,52.0,M,,0000*74
$GPGSA,A,3,29,31,25,26,18,02,12,32,,,,,1.5,1.0,1.2*37
$GPRMC,083859.000,A,4825.1428,N,00428.4545,W,0.00,270.56,090621,,,A*73
$GPGGA,083900.000,4825.1428,N,00428.4545,W,1,08,1.0,89.0,M,52.0,M,,0000*79
$GPGSA,A,3,29,31,25,26,18,02,12,32,,,,,1.5,1.0,1.2*37
$GPRMC,083900.000,A,4825.1428,N,00428.4545,W,0.00,270.56,090621,,,A*7E
$GPGGA,083901.000,4825.1428,N,00428.4545,W,1,08,1.0,89.0,M,52.0,M,,0000*78
$GPGSA,A,3,29,31,25,26,18,02,12,32,,,,,1.5,1.0,1.2*37
$GPGSV,3,1,12,29,80,089,43,31,63,280,43,25,47,089,40,26,30,285,39*74
$GPGSV,3,1,12,29,80,089,43,31,63,280,43,25,47,089,40,26,30,285,39*74
$GPGSV,3,2,12,18,17,163,37,02,14,036,36,12,12,091,33,32,08,212,32*72
$GPGSV,3,2,12,18,17,163,37,02,14,036,36,12,12,091,33,32,08,212,32*72
$GPGSV,3,3,12,57,68,131,,58,68,131,,59,68,131,,07,33,051,*77
$GPGSV,3,3,12,57,68,131,,58,68,131,,59,68,131,,07,33,051,*77
$GPRMC,083901.000,A,4825.1428,N,00428.4545,W,0.00,270.56,090621,,,A*7F
$GPGGA,083902.000,4825.1428,N,00428.4545,W,1,08,1.0,89.0,M,52.0,M,,0000*7B
$GPGSA,A,3,29,31,25,26,18,02,12,32,,,,,1.5,1.0,1.2*37
$GPRMC,083902.000,A,4825.1428,N,00428.4545,W,0.00,270.56,090621,,,A*7C
$GPGGA,083903.000,4825.1428,N,00428.4545,W,1,08,1.0,89.0,M,52.0,M,,0000*7A
$GPGSA,A,3,29,31,25,26,18,02,12,32,,,,,1.5,1.0,1.2*37
$GPRMC,083903.000,A,4825.1428,N,00428.4545,W,0.00,270.56,090621,,,A*7D
$GPGGA,083904.000,4825.1428,N,00428.4545,W,1,08,1.0,89.0,M,52.0,M,,0000*7D
$GPGSA,A,3,29,31,25,26,18,02,12,32,,,,,1.5,1.0,1.2*37
$GPRMC,083904.000,A,4825.1428,N,00428.4545,W,0.00,270.56,090621,,,A*7A
$GPGGA,083905.000,4825.1428,N,00428.4545,W,1,08,1.0,89.0,M,52.0,M,,0000*7C
$GPGSA,A,3,29,31,25,26,18,02,12,32,,,,,1.5,1.0,1.2*37
$GPRMC,083905.000,A,4825.1428,N,00428.4545,W,0.00,270.56,090621,,,A*7B
$GPGGA,083906.000,4825.1428,N,00428.4545,W,1,08,1.0,89.0,M,52.0,M,,0000*7F
$GPGSA,A,3,29,31,25,26,18,02,12,32,,,,,1.5,1.0,1.2*37
$GPGSV,3,1,12,29,80,089,43,31,63,280,43,25,47,089,40,26,30,285,40*7A
$GPGSV,3,1,12,29,80,089,43,31,63,280,43,25,47,089,40,26,30,285,40*7A
$GPGSV,3,2,12,18,17,163,37,02,14,036,36,12,12,091,33,32,08,212,32*72
$GPGSV,3,2,12,18,17,163,37,02,14,036,36,12,12,091,33,32,08,212,32*72
$GPGSV,3,3,12,57,68,131,,58,68,131,,59,68,131,,07,33,051,*77
$GPGSV,3,3,12,57,68,131,,58,68,131,,59,68,131,,07,33,051,*77
$GPRMC,083906.000,A,4825.1428,N,00428.4545,W,0.00,270.56,090621,,,A*78
$GPGGA,083907.000,4825.1428,N,00428.4545,W,1,08,1.0,89.0,M,52.0,M,,0000*7E
$GPGSA,A,3,29,31,25,26,18,02,12,32,,,,,1.5,1.0,1.2*37
$GPRMC,083907.000,A,4825.1428,N,00428.4545,W,0.00,270.56,090621,,,A*79
$GPGGA,083908.000,4825.1428,N,00428.4545,W,1,08,1.0,89.0,M,52.0,M,,0000*71
$GPGSA,A,3,29,31,25,26,18,02,12,32,,,,,1.5,1.0,1.2*37
$GPRMC,083908.000,A,4825.1428,N,00428.4545,W,0.00,270.56,090621,,,A*76
$GPGGA,083909.000,4825.1428,N,00428.4545,W,1,08,1.0,89.0,M,52.0,M,,0000*70
$GPGSA,A,3,29,31,25,26,18,02,12,32,,,,,1.5,1.0,1.2*37
$GPRMC,083909.000,A,4825.1428,N,00428.4545,W,0.00,270.56,090621,,,A*77
$GPGGA,083910.000,4825.1428,N,00428.4545,W,1,08,1.0,89.0,M,52.0,M,,0000*78
$GPGSA,A,3,29,31,25,26,18,02,12,32,,,,,1.5,1.0,1.2*37
$GPRMC,083910.000,A,4825.1428,N,00428.4545,W,0.00,270.56,090621,,,A*7F
$GPGGA,083911.000,4825.1428,N,00428.4545,W,1,08,1.0,89.0,M,52.0,M,,0000*79
$GPGSA,A,3,29,31,25,26,18,02,12,32,,,,,1.5,1.0,1.2*37
$GPGSV,3,1,12,29,80,089,43,31,63,280,43,25,47,089,40,26,30,285,40*7A
$GPGSV,3,1,12,29,80,089,43,31,63,280,43,25,47,089,40,26,30,285,40*7A
$GPGSV,3,2,12,18,17,163,37,02,14,036,36,12,12,091,33,32,08,212,31*71
$GPGSV,3,2,12,18,17,163,37,02,14,036,36,12,12,091,33,32,08,212,31*71
$GPGSV,3,3,12,57,68,131,,58,68,131,,59,68,131,,07,33,051,*77
$GPGSV,3,3,12,57,68,131,,58,68,131,,59,68,131,,07,33,051,*77
$GPRMC,083911.000,A,4825.1428,N,00428.4545,W,0.00,270.56,090621,,,A*7E
$GPGGA,083912.000,4825.1428,N,00428.4545,W,1,08,1.0,89.0,M,52.0,M,,0000*7A
$GPGSA,A,3,29,31,25,26,18,02,12,32,,,,,1.5,1.0,1.2*37
$GPRMC,083912.000,A,4825.1428,N,00428.4545,W,0.00,270.56,090621,,,A*7D
$GPGGA,083913.000,4825.1428,N,00428.4545,W,1,08,1.0,89.0,M,52.0,M,,0000*7B
$GPGSA,A,3,29,31,25,26,18,02,12,32,,,,,1.5,1.0,1.2*37
$GPRMC,083913.000,A,4825.1428,N,00428.4545,W,0.00,270.56,090621,,,A*7C
$GPGGA,083914.000,4825.1428,N,00428.4545,W,1,08,1.0,89.0,M,52.0,M,,0000*7C
$GPGSA,A,3,29,31,25,26,18,02,12,32,,,,,1.5,1.0,1.2*37
$GPRMC,083914.000,A,4825.1428,N,00428.4545,W,0.00,270.56,090621,,,A*7B
$GPGGA,083915.000,4825.1428,N,00428.4545,W,1,08,1.0,89.0,M,52.0,M,,0000*7D
$GPGSA,A,3,29,31,25,26,18,02,12,32,,,,,1.5,1.0,1.2*37
$GPRMC,083915.000,A,4825.1428,N,00428.4545,W,0.00,270.56,090621,,,A*7A
$GPGGA,083916.000,4825.1428,N,00428.4545,W,1,08,1.0,89.0,M,52.0,M,,0000*7E
$GPGSA,A,3,29,31,25,26,18,02,12,32,,,,,1.5,1.0,1.2*37
$GPGSV,3,1,12,29,80,089,43,31,63,280,43,25,47,089,40,26,30,285,40*7A
$GPGSV,3,1,12,29,80,089,43,31,63,280,43,25,47,089,40,26,30,285,40*7A
$GPGSV,3,2,12,18,17,163,37,02,14,036,36,12,12,091,33,32,08,212,31*71
$GPGSV,3,2,12,18,17,163,37,02,14,036,36,12,12,091,33,32,08,212,31*71
$GPGSV,3,3,12,57,68,131,,58,68,131,,59,68,131,,07,33,051,*77
$GPGSV,3,3,12,57,68,131,,58,68,131,,59,68,131,,07,33,051,*77
$GPRMC,083916.000,A,4825.1428,N,00428.4545,W,0.00,270.56,090621,,,A*79
$GPGGA,083917.000,4825.1428,N,00428.4545,W,1,08,1.0,89.0,M,52.0,M,,0000*7F
$GPGSA,A,3,29,31,25,26,18,02,12,32,,,,,1.5,1.0,1.2*37
$GPRMC,083917.000,A,4825.1428,N,00428.4545,W,0.00,270.56,090621,,,A*78
$GPGGA,083918.000,4825.1428,N,00428.4545,W,1,08,1.0,89.0,M,52.0,M,,0000*70
$GPGSA,A,3,29,31,25,26,18,02,12,32,,,,,1.5,1.0,1.2*37
$GPRMC,083918.000,A,4825.1428,N,00428.4545,W,0.00,270.56,090621,,,A*77
$GPGGA,083919.000,4825.1428,N,00428.4545,W,1,08,1.0,89.0,M,52.0,M,,0000*71
$GPGSA,A,3,29,31,25,26,18,02,12,32,,,,,1.5,1.0,1.2*37
$GPRMC,083919.000,A,4825.1428,N,00428.4545,W,0.00,270.56,090621,,,A*76
$GPGGA,083920.000,4825.1428,N,00428.4545,W,1,08,1.0,89.0,M,52.0,M,,0000*7B
$GPGSA,A,3,29,31,25,26,18,02,12,32,,,,,1.5,1.0,1.2*37
$GPRMC,083920.000,A,4825.1428,N,00428.4545,W,0.00,270.56,090621,,,A*7C
$GPGGA,083921.000,4825.1428,N,00428.4545,W,1,08,1.0,89.0,M,52.0,M,,0000*7A
$GPGSA,A,3,29,31,25,26,18,02,12,32,,,,,1.5,1.0,1.2*37
$GPGSV,3,1,12,29,80,089,43,31,63,280,43,25,47,089,39,26,30,285,39*7A
$GPGSV,3,1,12,29,80,089,43,31,63,280,43,25,47,089,39,26,30,285,39*7A
$GPGSV,3,2,12,18,17,163,37,02,14,036,36,12,12,091,33,32,08,212,31*71
$GPGSV,3,2,12,18,17,163,37,02,14,036,36,12,12,091,33,32,08,212,31*71
$GPGSV,3,3,12,57,68,131,,58,68,131,,59,68,131,,07,33,051,*77
$GPGSV,3,3,12,57,68,131,,58,68,131,,59,68,131,,07,33,051,*77
$GPRMC,083921.000,A,4825.1428,N,00428.4545,W,0.00,270.56,090621,,,A*7D
$GPGGA,083922.000,4825.1428,N,00428.4545,W,1,08,1.0,89.0,M,52.0,M,,0000*79
$GPGSA,A,3,29,31,25,26,18,02,12,32,,,,,1.5,1.0,1.2*37
$GPRMC,083922.000,A,4825.1428,N,00428.4545,W,0.00,270.56,090621,,,A*7E
$GPGGA,083923.000,4825.1428,N,00428.4545,W,1,08,1.0,89.0,M,52.0,M,,0000*78
$GPGSA,A,3,29,31,25,26,18,02,12,32,,,,,1.5,1.0,1.2*37
$GPRMC,083923.000,A,4825.1428,N,00428.4545,W,0.00,270.56,090621,,,A*7F
$GPGGA,083924.000,4825.1428,N,00428.4545,W,1,08,1.0,89.0,M,52.0,M,,0000*7F
$GPGSA,A,3,29,31,25,26,18,02,12,32,,,,,1.5,1.0,1.2*37
$GPRMC,083924.000,A,4825.1428,N,00428.4545,W,0.00,270.56,090621,,,A*78
$GPGGA,083925.000,4825.1428,N,00428.4545,W,1,08,1.0,89.0,M,52.0,M,,0000*7E
$GPGSA,A,3,29,31,25,26,18,02,12,32,,,,,1.5,1.0,1.2*37
$GPRMC,083925.000,A,4825.1428,N,00428.4545,W,0.00,270.56,090621,,,A*79
$GPGGA,083926.000,4825.1428,N,00428.4545,W,1,08,1.0,89.0,M,52.0,M,,0000*7D
$GPGSA,A,3,29,31,25,26,18,02,12,32,,,,,1.5,1.0,1.2*37
$GPGSV,3,1,12,29,80,089,43,31,63,280,43,25,47,089,39,26,30,285,39*7A
$GPGSV,3,1,12,29,80,089,43,31,63,280,43,25,47,089,39,26,30,285,39*7A
$GPGSV,3,2,12,18,17,163,37,02,14,036,36,12,12,091,32,32,08,212,31*70
$GPGSV,3,2,12,18,17,163,37,02,14,036,36,12,12,091,32,32,08,212,31*70
$GPGSV,3,3,12,57,68,131,,58,68,131,,59,68,131,,07,33,051,*77
$GPGSV,3,3,12,57,68,131,,58,68,131,,59,68,131,,07,33,051,*77
$GPRMC,083926.000,A,4825.1428,N,00428.4545,W,0.00,270.56,090621,,,A*7A
$GPGGA,083927.000,4825.1428,N,00428.4545,W,1,08,1.0,89.0,M,52.0,M,,0000*7C
$GPGSA,A,3,29,31,25,26,18,02,12,32,,,,,1.5,1.0,1.2*37
$GPRMC,083927.000,A,4825.1428,N,00428.4545,W,0.00,270.56,090621,,,A*7B
$GPGGA,083928.000,4825.1428,N,00428.4545,W,1,08,1.0,89.0,M,52.0,M,,0000*73
$GPGSA,A,3,29,31,25,26,18,02,12,32,,,,,1.5,1.0,1.2*37
$GPRMC,083928.000,A,4825.1428,N,00428.4545,W,0.00,270.56,090621,,,A*74
$GPGGA,083929.000,4825.1428,N,00428.4545,W,1,08,1.0,89.0,M,52.0,M,,0000*72
$GPGSA,A,3,29,31,25,26,18,02,12,32,,,,,1.5,1.0,1.2*37
$GPRMC,083929.000,A,4825.1428,N,00428.4545,W,0.00,270.56,090621,,,A*75
$GPGGA,083930.000,4825.1428,N,00428.4545,W,1,08,1.0,89.0,M,52.0,M,,0000*7A
$GPGSA,A,3,29,31,25,26,18,02,12,32,,,,,1.5,1.0,1.2*37
$GPRMC,083930.000,A,4825.1428,N,00428.4545,W,0.00,270.56,090621,,,A*7D
$GPGGA,083931.000,4825.1428,N,00428.4545,W,1,08,1.0,89.0,M,52.0,M,,0000*7B
$GPGSA,A,3,29,31,25,26,18,02,12,32,,,,,1.5,1.0,1.2*37
$GPGSV,3,1,12,29,80,089,44,31,63,280,43,25,47,089,39,26,30,285,39*7D
$GPGSV,3,1,12,29,80,089,44,31,63,280,43,25,47,089,39,26,30,285,39*7D
$GPGSV,3,2,12,18,17,163,37,02,14,036,36,12,12,091,32,32,08,212,31*70
$GPGSV,3,2,12,18,17,163,37,02,14,036,36,12,12,091,32,32,08,212,31*70
$GPGSV,3,3,12,57,68,131,,58,68,131,,59,68,131,,07,33,051,*77
$GPGSV,3,3,12,57,68,131,,58,68,131,,59,68,131,,07,33,051,*77
$GPRMC,083931.000,A,4825.1428,N,00428.4545,W,0.00,270.56,090621,,,A*7C
$GPGGA,083932.000,4825.1428,N,00428.4545,W,1,08,1.0,89.0,M,52.0,M,,0000*78
$GPGSA,A,3,29,31,25,26,18,02,12,32,,,,,1.5,1.0,1.2*37
$GPRMC,083932.000,A,4825.1428,N,00428.4545,W,0.00,270.56,090621,,,A*7F
$GPGGA,083933.000,4825.1428,N,00428.4545,W,1,08,1.0,89.0,M,52.0,M,,0000*79
$GPGSA,A,3,29,31,25,26,18,02,12,32,,,,,1.5,1.0,1.2*37
$GPRMC,083933.000,A,4825.1428,N,00428.4545,W,0.00,270.56,090621,,,A*7E
$GPGGA,083934.000,4825.1428,N,00428.4545,W,1,08,1.0,89.0,M,52.0,M,,0000*7E
$GPGSA,A,3,29,31,25,26,18,02,12,32,,,,,1.5,1.0,1.2*37
$GPRMC,083934.000,A,4825.1428,N,00428.4545,W,0.00,270.56,090621,,,A*79
$GPGGA,083935.000,4825.1428,N,00428.4545,W,1,08,1.0,89.0,M,52.0,M,,0000*7F
$GPGSA,A,3,29,31,25,26,18,02,12,32,,,,,1.5,1.0,1.2*37
$GPRMC,083935.000,A,4825.1428,N,00428.4545,W,0.00,270.56,090621,,,A*78
$GPGGA,083936.000,4825.1428,N,00428.4545,W,1,08,1.0,89.0,M,52.0,M,,0000*7C
$GPGSA,A,3,29,31,25,26,18,02,12,32,,,,,1.5,1.0,1.2*37
$GPGSV,3,1,12,29,80,089,44,31,63,280,43,25,47,089,39,26,30,285,39*7D
$GPGSV,3,1,12,29,80,089,44,31,63,280,43,25,47,089,39,26,30,285,39*7D
$GPGSV,3,2,12,18,17,163,37,02,14,036,36,12,12,091,32,32,08,212,30*71
$GPGSV,3,2,12,18,17,163,37,02,14,036,36,12,12,091,32,32,08,212,30*71
$GPGSV,3,3,12,57,68,131,,58,68,131,,59,68,131,,07,33,051,*77
$GPGSV,3,3,12,57,68,131,,58,68,131,,59,68,131,,07,33,051,*77
$GPRMC,083936.000,A,4825.1428,N,00428.4545,W,0.00,270.56,090621,,,A*7B
$GPGGA,083937.000,4825.1428,N,00428.4545,W,1,08,1.0,89.0,M,52.0,M,,0000*7D
$GPGSA,A,3,29,31,25,26,18,02,12,32,,,,,1.5,1.0,1.2*37
$GPRMC,083937.000,A,4825.1428,N,00428.4545,W,0.00,270.56,090621,,,A*7A
$GPGGA,083938.000,4825.1428,N,00428.4545,W,1,08,1.0,89.0,M,52.0,M,,0000*72
$GPGSA,A,3,29,31,25,26,18,02,12,32,,,,,1.5,1.0,1.2*37
$GPRMC,083938.000,A,4825.1428,N,00428.4545,W,0.00,270.56,090621,,,A*75
$GPGGA,083939.000,4825.1428,N,00428.4545,W,1,08,1.0,89.0,M,52.0,M,,0000*73
$GPGSA,A,3,29,31,25,26,18,02,12,32,,,,,1.5,1.0,1.2*37
$GPRMC,083939.000,A,4825.1428,N,00428.4545,W,0.00,270.56,090621,,,A*74
$GPGGA,083940.000,4825.1428,N,00428.4545,W,1,08,1.0,89.0,M,52.0,M,,0000*7D
$GPGSA,A,3,29,31,25,26,18,02,12,32,,,,,1.5,1.0,1.2*37
$GPRMC,083940.000,A,4825.1428,N,00428.4545,W,0.00,270.56,090621,,,A*7A
$GPGGA,083941.000,4825.1428,N,00428.4545,W,1,08,1.0,89.0,M,52.0,M,,0000*7C
$GPGSA,A,3,29,31,25,26,18,02,12,32,,,,,1.5,1.0,1.2*37
$GPGSV,3,1,12,29,80,089,44,31,63,280,43,25,47,089,39,26,30,285,38*7C
$GPGSV,3,1,12,29,80,089,44,31,63,280,43,25,47,089,39,26,30,285,38*7C
$GPGSV,3,2,12,18,17,163,37,02,14,036,36,12,12,091,32,32,08,212,30*71
$GPGSV,3,2,12,18,17,163,37,02,14,036,36,12,12,091,32,32,08,212,30*71
$GPGSV,3,3,12,57,68,131,,58,68,131,,59,68,131,,07,33,051,*77
$GPGSV,3,3,12,57,68,131,,58,68,131,,59,68,131,,07,33,051,*77
$GPRMC,083941.000,A,4825.1428,N,00428.4545,W,0.00,270.56,090621,,,A*7B
$GPGGA,083942.000,4825.1428,N,00428.4545,W,1,08,1.0,89.0,M,52.0,M,,0000*7F
$GPGSA,A,3,29,31,25,26,18,02,12,32,,,,,1.5,1.0,1.2*37
$GPRMC,083942.000,A,4825.1428,N,00428.4545,W,0.00,270.56,090621,,,A*78
$GPGGA,083943.000,4825.1428,N,00428.4545,W,1,08,1.0,89.0,M,52.0,M,,0000*7E
$GPGSA,A,3,29,31,25,26,18,02,12,32,,,,,1.5,1.0,1.2*37
$GPRMC,083943.000,A,4825.1428,N,00428.4545,W,0.00,270.56,090621,,,A*79
$GPGGA,083944.000,4825.1428,N,00428.4545,W,1,08,1.0,89.0,M,52.0,M,,0000*79
$GPGSA,A,3,29,31,25,26,18,02,12,32,,,,,1.5,1.0,1.2*37
$GPRMC,083944.000,A,4825.1428,N,00428.4545,W,0.00,270.56,090621,,,A*7E
$GPGGA,083945.000,4825.1428,N,00428.4545,W,1,08,1.0,89.0,M,52.0,M,,0000*78
$GPGSA,A,3,29,31,25,26,18,02,12,32,,,,,1.5,1.0,1.2*37
$GPRMC,083945.000,A,4825.1428,N,00428.4545,W,0.00,270.56,090621,,,A*7F
$GPGGA,083946.000,4825.1428,N,00428.4545,W,1,08,1.0,89.0,M,52.0,M,,0000*7B
$GPGSA,A,3,29,31,25,26,18,02,12,32,,,,,1.5,1.0,1.2*37
$GPGSV,3,1,12,29,80,089,43,31,63,280,43,25,47,089,39,26,30,285,38*7B
$GPGSV,3,1,12,29,80,089,43,31,63,280,43,25,47,089,39,26,30,285,38*7B
$GPGSV,3,2,12,18,17,163,37,02,14,036,36,12,12,091,32,32,08,212,30*71
$GPGSV,3,2,12,18,17,163,37,02,14,036,36,12,12,091,32,32,08,212,30*71
$GPGSV,3,3,12,57,68,131,,58,68,131,,59,68,131,,07,33,051,*77
$GPGSV,3,3,12,57,68,131,,58,68,131,,59,68,131,,07,33,051,*77
$GPRMC,083946.000,A,4825.1428,N,00428.4545,W,0.00,270.56,090621,,,A*7C
$GPGGA,083947.000,4825.1428,N,00428.4545,W,1,08,1.0,89.0,M,52.0,M,,0000*7A
$GPGSA,A,3,29,31,25,26,18,02,12,32,,,,,1.5,1.0,1.2*37
$GPRMC,083947.000,A,4825.1428,N,00428.4545,W,0.00,270.56,090621,,,A*7D
$GPGGA,083948.000,4825.1428,N,00428.4545,W,1,08,1.0,89.0,M,52.0,M,,0000*75
$GPGSA,A,3,29,31,25,26,18,02,12,32,,,,,1.5,1.0,1.2*37
$GPRMC,083948.000,A,4825.1428,N,00428.4545,W,0.00,270.56,090621,,,A*72
$GPGGA,083949.000,4825.1428,N,00428.4545,W,1,08,1.0,89.0,M,52.0,M,,0000*74
$GPGSA,A,3,29,31,25,26,18,02,12,32,,,,,1.5,1.0,1.2*37
$GPRMC,083949.000,A,4825.1428,N,00428.4545,W,0.00,270.56,090621,,,A*73
$GPGGA,083950.000,4825.1428,N,00428.4545,W,1,08,1.0,89.0,M,52.0,M,,0000*7C
$GPGSA,A,3,29,31,25,26,18,02,12,32,,,,,1.5,1.0,1.2*37
$GPRMC,083950.000,A,4825.1428,N,00428.4545,W,0.00,270.56,090621,,,A*7B
$GPGGA,083951.000,4825.1428,N,00428.4545,W,1,08,1.0,89.0,M,52.0,M,,0000*7D
$GPGSA,A,3,29,31,25,26,18,02,12,32,,,,,1.5,1.0,1.2*37
$GPGSV,3,1,12,29,80,089,43,31,63,280,43,25,47,089,39,26,30,285,37*74
$GPGSV,3,1,12,29,80,089,43,31,63,280,43,25,47,089,39,26,30,285,37*74
$GPGSV,3,2,12,18,17,163,37,02,14,036,36,12,12,091,32,32,08,212,30*71
$GPGSV,3,2,12,18,17,163,37,02,14,036,36,12,12,091,32,32,08,212,30*71
$GPGSV,3,3,12,57,68,131,,58,68,131,,59,68,131,,07,33,051,*77
$GPGSV,3,3,12,57,68,131,,58,68,131,,59,68,131,,07,33,051,*77
$GPRMC,083951.000,A,4825.1428,N,00428.4545,W,0.00,270.56,090621,,,A*7A
$GPGGA,083952.000,4825.1428,N,00428.4545,W,1,08,1.0,89.0,M,52.0,M,,0000*7E
$GPGSA,A,3,29,31,25,26,18,02,12,32,,,,,1.5,1.0,1.2*37
$GPRMC,083952.000,A,4825.1428,N,00428.4545,W,0.00,270.56,090621,,,A*79
$GPGGA,083953.000,4825.1428,N,00428.4545,W,1,08,1.0,89.0,M,52.0,M,,0000*7F
$GPGSA,A,3,29,31,25,26,18,02,12,32,,,,,1.5,1.0,1.2*37
$GPRMC,083953.000,A,4825.1428,N,00428.4545,W,0.00,270.56,090621,,,A*78
$GPGGA,083954.000,4825.1428,N,00428.4545,W,1,08,1.0,89.0,M,52.0,M,,0000*78
$GPGSA,A,3,29,31,25,26,18,02,12,32,,,,,1.5,1.0,1.2*37
$GPRMC,083954.000,A,4825.1428,N,00428.4545,W,0.00,270.56,090621,,,A*7F
$GPGGA,083955.000,4825.1428,N,00428.4545,W,1,08,1.0,89.0,M,52.0,M,,0000*79
$GPGSA,A,3,29,31,25,26,18,02,12,32,,,,,1.5,1.0,1.2*37
$GPRMC,083955.000,A,4825.1428,N,00428.4545,W,0.00,270.56,090621,,,A*7E
$GPGGA,083956.000,4825.1428,N,00428.4545,W,1,08,1.0,89.0,M,52.0,M,,0000*7A
$GPGSA,A,3,29,31,25,26,18,02,12,32,,,,,1.5,1.0,1.2*37
$GPGSV,3,1,12,29,80,089,43,31,63,280,43,25,47,089,39,26,30,285,37*74
$GPGSV,3,1,12,29,80,089,43,31,63,280,43,25,47,089,39,26,30,285,37*74
$GPGSV,3,2,12,18,17,163,37,02,14,036,36,12,12,091,31,32,08,212,30*72
$GPGSV,3,2,12,18,17,163,37,02,14,036,36,12,12,091,31,32,08,212,30*72
$GPGSV,3,3,12,57,68,131,,58,68,131,,59,68,131,,07,33,051,*77
$GPGSV,3,3,12,57,68,131,,58,68,131,,59,68,131,,07,33,051,*77
$GPRMC,083956.000,A,4825.1428,N,00428.4545,W,0.00,270.56,090621,,,A*7D
$GPGGA,083957.000,4825.1428,N,00428.4545,W,1,08,1.0,89.0,M,52.0,M,,0000*7B
$GPGSA,A,3,29,31,25,26,18,02,12,32,,,,,1.5,1.0,1.2*37
$GPRMC,083957.000,A,4825.1428,N,00428.4545,W,0.00,270.56,090621,,,A*7C
$GPGGA,083958.000,4825.1428,N,00428.4545,W,1,08,1.0,89.0,M,52.0,M,,0000*74
$GPGSA,A,3,29,31,25,26,18,02,12,32,,,,,1.5,1.0,1.2*37
$GPRMC,083958.000,A,4825.1428,N,00428.4545,W,0.00,270.56,090621,,,A*73
$GPGGA,083959.000,4825.1428,N,00428.4545,W,1,08,1.0,89.0,M,52.0,M,,0000*75
$GPGSA,A,3,29,31,25,26,18,02,12,32,,,,,1.5,1.0,1.2*37
$GPRMC,083959.000,A,4825.1428,N,00428.4545,W,0.00,270.56,090621,,,A*72
$GPGGA,084000.000,4825.1427,N,00428.4545,W,1,08,1.0,88.9,M,52.0,M,,0000*70
$GPGSA,A,3,29,31,25,26,18,02,12,32,,,,,1.5,1.0,1.2*37
$GPRMC,084000.000,A,4825.1427,N,00428.4545,W,0.09,270.56,090621,,,A*76
$GPGGA,084001.000,4825.1427,N,00428.4545,W,1,08,1.0,88.9,M,52.0,M,,0000*71
$GPGSA,A,3,29,31,25,26,18,02,12,32,,,,,1.5,1.0,1.2*37
$GPGSV,3,1,12,29,80,089,43,31,63,280,42,25,47,089,39,26,30,285,37*75
$GPGSV,3,1,12,29,80,089,43,31,63,280,42,25,47,089,39,26,30,285,37*75
$GPGSV,3,2,12,18,17,163,37,02,14,036,35,12,12,091,31,32,08,212,30*71
$GPGSV,3,2,12,18,17,163,37,02,14,036,35,12,12,091,31,32,08,212,30*71
$GPGSV,3,3,12,57,68,131,,58,68,131,,59,68,131,,07,33,051,*77
$GPGSV,3,3,12,57,68,131,,58,68,131,,59,68,131,,07,33,051,*77
$GPRMC,084001.000,A,4825.1427,N,00428.4545,W,0.00,270.56,090621,,,A*7E
$GPGGA,084002.000,4825.1427,N,00428.4545,W,1,08,1.0,88.9,M,52.0,M,,0000*72
$GPGGA,084003.000,4825.1427,N,00428.4545,W,1,08,1.0,88.9,M,52.0,M,,0000*73
$GPGSA,A,3,29,31,25,26,18,02,12,32,,,,,1.5,1.0,1.2*37
$GPRMC,084003.000,A,4825.1427,N,00428.4545,W,0.00,270.56,090621,,,A*7C
$GPGGA,084004.000,4825.1427,N,00428.4545,W,1,08,1.0,88.9,M,52.0,M,,0000*74
$GPGSA,A,3,29,31,25,26,18,02,12,32,,,,,1.5,1.0,1.2*37
$GPRMC,084004.000,A,4825.1427,N,00428.4545,W,0.00,270.56,090621,,,A*7B
$GPGGA,084005.000,4825.1427,N,00428.4545,W,1,08,1.0,88.9,M,52.0,M,,0000*75
$GPGSA,A,3,29,31,25,26,18,02,12,32,,,,,1.5,1.0,1.2*37
$GPRMC,084005.000,A,4825.1427,N,00428.4545,W,0.00,270.56,090621,,,A*7A
$GPGGA,084006.000,4825.1427,N,00428.4545,W,1,08,1.0,88.9,M,52.0,M,,0000*76
$GPGSA,A,3,29,31,25,26,18,02,12,32,,,,,1.5,1.0,1.2*37
$GPGSV,3,1,12,29,80,089,43,31,63,280,42,25,47,089,38,26,30,285,38*7B
$GPGSV,3,1,12,29,80,089,43,31,63,280,42,25,47,089,38,26,30,285,38*7B
$GPGSV,3,2,12,18,17,163,37,02,14,036,35,12,12,091,31,32,08,212,30*71
$GPGSV,3,2,12,18,17,163,37,02,14,036,35,12,12,091,31,32,08,212,30*71
$GPGSV,3,3,12,57,68,131,,58,68,131,,59,68,131,,07,33,051,*77
$GPGSV,3,3,12,57,68,131,,58,68,131,,59,68,131,,07,33,051,*77
$GPRMC,084006.000,A,4825.1427,N,00428.4545,W,0.00,270.56,090621,,,A*79
8,1.0,88.9,M,52.0,M,,0000*77
$GPGSA,A,3,29,31,25,26,18,02,12,32,,,,,1.5,1.0,1.2*37
$GPRMC,084007.000,A,4825.1427,N,00428.4545,W,0.00,270.56,090621,,,A*78
$GPGGA,084008.000,4825.1427,N,00428.4545,W,1,01,25,26,18,02,12,32,,,,,1.5,1.0,1.2*37
$GPRMC,084008.000,A,4825.1427,N,00428.4545,W,0.00,270.56,090621,,,A*77
$PSRF156,23,1,0*09
$GPGGA,084009.000,4825.1427,N,00428.4545,W,1,08,1.0,88.9,M,52.0,M,,0000*79
$GPGSA,A,3,29,31,25,26,18,02,12,32,,,,,1.5,1.0,1.2*37
$GPRMC,084009.000,A,4825.1427,N,00428.4545,W,0.00,270.56,090621,,,A*76
$GPGGA,084010.000,4825.1427,N,00428.4545,W,1,08,1.0,88.9,M,52.0,M,,0000*71
$GPGSA,A,3,29,31,25,26,18,02,12,32,,,,,1.5,1.0,1.2*37
$GPRMC,084010.000,A,4825.1427,N,00428.4545,W,0.00,270.56,090621,,,A*7E
$GPGGA,084011.000,4825.1427,N,00428.4545,W,1,08,1.0,88.9,M,52.0,M,,0000*70
$GPGSA,A,3,29,31,25,26,18,02,12,32,,,,,1.5,1.0,1.2*37
$GPGSV,3,1,12,29,80,089,43,31,63,280,42,25,47,089,39,26,30,285,38*7A
$GPGSV,3,1,12,29,80,089,43,31,63,280,42,25,47,089,39,26,30,285,38*7A
$GPGSV,3,2,12,18,17,163,37,02,14,036,35,12,12,091,31,32,08,212,30*71
$GPGSV,3,2,12,18,17,163,37,02,14,036,35,12,12,091,31,32,08,212,30*71
$GPGSV,3,3,12,57,68,131,,58,68,131,,59,68,131,,07,33,051,*77
$GPGSV,3,3,12,57,68,131,,58,68,131,,59,68,131,,07,33,051,*77
$GPRMC,084011.000,A,4825.1427,N,00428.4545,W,0.00,270.56,090621,,,A*7F
$GPGGA,084013.000,4825.1427,N,00428.4545,W,1,08,1.0,88.9,M,52.0,M,,0000*72
$GPGSA,A,3,29,31,25,26,18,02,12,32,,,,,1.5,1.0,1.2*37
$GPRMC,084013.000,A,4825.1427,N,00428.4545,W,0.00,270.56,090621,,,A*7D
$GPGGA,084014.000,4825.1427,N,00428.4545,W,1,08,1.0,88.9,M,52.0,M,,0000*75
$GPGSA,A,3,29,31,25,26,18,02,12,32,,,,,1.5,1.0,1.2*37
$GPRMC,084014.000,A,4825.1427,N,00428.4545,W,0.00,270.56,090621,,,A*7A
$GPGGA,084015.000,4825.1427,N,00428.4545,W,1,08,1.0,88.9,M,52.0,M,,0000*74
$GPGSA,A,3,29,31,25,26,18,02,12,32,,,,,1.5,1.0,1.2*37
$GPRMC,084015.000,A,4825.1427,N,00428.4545,W,0.00,270.56,090621,,,A*7B
$GPGGA,084016.000,4825.1427,N,00428.4545,W,1,08,1.0,88.9,M,52.0,M,,0000*77
$GPGSA,A,3,29,31,25,26,18,02,12,32,,,,,1.5,1.0,1.2*37
$GPGSV,3,1,12,29,80,089,43,31,63,280,42,25,47,089,39,26,30,285,38*7A
$GPGSV,3,1,12,29,80,089,43,31,63,280,42,25,47,089,39,26,30,285,38*7A
$GPGSV,3,2,12,18,17,163,36,02,14,036,35,12,12,091,31,32,08,212,30*70
$GPGSV,3,2,12,18,17,163,36,02,14,036,35,12,12,091,31,32,08,212,30*70
$GPGSV,3,3,12,57,68,131,,58,68,131,,59,68,131,,07,33,051,*77
$GPGSV,3,3,12,57,68,131,,58,68,131,,59,68,131,,07,33,051,*77
$GPRMC,084016.000,A,4825.1427,N,00428.4545,W,0.00,270.56,090621,,,A*78
4825.1427,N,00428.4545,W,1,08,1.0,88.9,M,52.0,M,,0000*76
$GPGSA,A,3,29,31,25,26,18,02,12,32,,,,,1.5,1.0,1.2*37
$GPRMC,084017.000,A,4825.1427,N,00428.4545,W,0.00,270.56,090621,,,A*79
$GPGGA,084018.000,A,3,29,31,25,26,18,02,12,32,,,,,1.5,1.0,1.2*37
$GPRMC,084018.000,A,4825.1427,N,00428.4545,W,0.00,270.56,090621,,,A*76
$GPGGA,084019.000,4825.1427,N,00428.4545,W,1,08,1.0,88.9,M,52.0,M,,0000*78
$GPGSA,0,A,4825.1427,N,00428.4545,W,0.00,270.56,090621,,,A*77
$GPGGA,084020.000,4825.1427,N,00428.4545,W,1,08,1.0,88.9,M,52.0,M,,0000*72
$GPGSA,A,3,29,31,25,26,18,02,12,32,,,,,1.5,1.0,1.2*37
$GPRMC,084020.000,A,4825.1427,N,00428.4545,W,0.00,270.56,090621,,,A*7D
$GPGGA,084021.000,4825.1427,N,00428.4545,W,1,08,1.0,88.9,M,52.0,M,,0000*73
$GPGSA,A,3,29,31,25,26,18,02,12,32,,,,,1.5,1.0,1.2*37
$GPGSV,3,1,12,29,80,089,43,31,63,280,42,25,47,089,39,26,30,285,39*7B
$GPGSV,3,1,12,29,80,089,43,31,63,280,42,25,47,089,39,26,30,285,39*7B
$GPGSV,3,2,12,18,17,163,37,02,14,036,34,12,12,091,32,32,08,212,30*73
$GPGSV,3,2,12,18,17,163,37,02,14,036,34,12,12,091,32,32,08,212,30*73
$GPGSV,3,3,12,57,68,131,,58,68,131,,59,68,131,,07,33,051,*77
$GPGSV,3,3,12,57,68,131,,58,68,131,,59,68,131,,07,33,051,*77
$GPRMC,084021.000,A,4825.1427,N,00428.4545,W,0.00,270.56,090621,,,A*7C
$GPGGA,084022.000,4825.1427,N,00428.4545,W,1,08,1.0,88.9,M,52.0,M,,0000*70
$GPGSA,A,3,29,31,25,26,18,02,12,32,,,,,1.5,1.0,1.2*37
$GPRMC,084022.000,A,4825.1427,N,00428.4545,W,0.00,270.56,090621,,,A*7F
$GPGGA,084023.000,4825.1427,N,00428.4545,W,1,08,1.0,88.9,M,52.0,M,,0000*71
$GPGSA,A,3,29,31,25,26,18,02,12,32,,,,,1.5,1.0,1.2*37
$GPRMC,084023.000,A,4825.1427,N,00428.4545,W,0.00,270.56,090621,,,A*7E
$GPGGA,084024.000,4825.1427,N,00428.4545,W,1,08,1.0,88.9,M,52.0,M,,0000*76
$GPGSA,A,3,29,31,25,26,18,02,12,32,,,,,1.5,1.0,1.2*37
$GPRMC,084024.000,A,4825.1427,N,00428.4545,W,0.00,270.56,090621,,,A*79
$GPGGA,084025.000,4825.1427,N,00428.4545,W,1,08,1.0,88.9,M,52.0,M,,0000*77
$GPGSA,A,3,29,31,25,26,18,02,12,32,,,,,1.5,1.0,1.2*37
$GPRMC,084025.000,A,4825.1427,N,00428.4545,W,0.00,270.56,090621,,,A*78
$GPGGA,084026.000,4825.1427,N,00428.4545,W,1,08,1.0,88.9,M,52.0,M,,0000*74
$GPGSA,A,3,29,31,25,26,18,02,12,32,,,,,1.5,1.0,1.2*37
$GPGSV,3,1,12,29,80,089,43,31,63,280,42,25,47,089,39,26,30,285,39*7B
$GPGSV,3,1,12,29,80,089,43,31,63,280,42,25,47,089,39,26,30,285,39*7B
$GPGSV,3,2,12,18,17,163,37,02,14,036,34,12,12,091,32,32,08,212,31*72
$GPGSV,3,2,12,18,17,163,37,02,14,036,34,12,12,091,32,32,08,212,31*72
$GPGSV,3,3,12,57,68,131,,58,68,131,,59,68,131,,07,33,051,*77
$GPGSV,3,3,12,57,68,131,,58,68,131,,59,68,131,,07,33,051,*77
$GPRMC,084026.000,A,4825.1427,N,00428.4545,W,0.00,270.56,090621,,,A*7B
$GPGGA,084027.000,4825.1427,N,00428.4545,W,1,08,1.0,88.9,M,52.0,M,,0000*75
$GPGSA,A,3,29,31,25,26,18,02,12,32,,,,,1.5,1.0,1.2*37
$GPRMC,084027.000,A,4825.1427,N,00428.4545,W,0.00,270.56,090621,,,A*7A
$GPGGA,084028.000,4825.1427,N,00428.4545,W,1,08,1.0,88.9,M,52.0,M,,0000*7A
$GPGSA,A,3,29,31,25,26,18,02,12,32,,,,,1.5,1.0,1.2*37
$GPRMC,084028.000,A,4825.1427,N,00428.4545,W,0.00,270.56,090621,,,A*75
$GPGGA,084029.000,4825.1427,N,00428.4545,W,1,08,1.0,88.9,M,52.0,M,,0000*7B
$GPGSA,A,3,29,31,25,26,18,02,12,32,,,,,1.5,1.0,1.2*37
$GPRMC,084029.000,A,4825.1427,N,00428.4545,W,0.00,270.56,090621,,,A*74
$GPGGA,084030.000,4825.1427,N,00428.4545,W,1,08,1.0,88.9,M,52.0,M,,0000*73
$GPGSA,A,3,29,31,25,26,18,02,12,32,,,,,1.5,1.0,1.2*37
$GPRMC,084030.000,A,4825.1427,N,00428.4545,W,0.00,270.56,090621,,,A*7C
$GPGGA,084031.000,4825.1427,N,00428.4545,W,1,08,1.0,88.9,M,52.0,M,,0000*72
$GPGSA,A,3,29,31,25,26,18,02,12,32,,,,,1.5,1.0,1.2*37
$GPGSV,3,1,12,29,80,089,43,31,63,280,43,25,47,089,39,26,30,285,39*7A
$GPGSV,3,1,12,29,80,089,43,31,63,280,43,25,47,089,39,26,30,285,39*7A
$GPGSV,3,2,12,18,17,163,37,02,14,036,34,12,12,091,32,32,08,212,31*72
$GPGSV,3,2,12,18,17,163,37,02,14,036,34,12,12,091,32,32,08,212,31*72
$GPGSV,3,3,12,57,68,131,,58,68,131,,59,68,131,,07,33,051,*77
$GPGSV,3,3,12,57,68,131,,58,68,131,,59,68,131,,07,33,051,*77
$GPRMC,084031.000,A,4825.1427,N,00428.4545,W,0.00,270.56,090621,,,A*7D
$GPGGA,084032.000,4825.1427,N,00428.4545,W,1,08,1.0,88.9,M,52.0,M,,0000*71
$GPGSA,A,3,29,31,25,26,18,02,12,32,,,,,1.5,1.0,1.2*37
$GPRMC,084032.000,A,4825.1427,N,00428.4545,W,0.00,270.56,090621,,,A*7E
$GPGGA,084033.000,4825.1427,N,00428.4545,W,1,08,1.0,88.9,M,52.0,M,,0000*70
$GPGSA,A,3,29,31,25,26,18,02,12,32,,,,,1.5,1.0,1.2*37
$GPRMC,084033.000,A,4825.1427,N,00428.4545,W,0.00,270.56,090621,,,A*7F
$GPGGA,084034.000,4825.1427,N,00428.4545,W,1,08,1.0,88.9,M,52.0,M,,0000*77
$GPGSA,A,3,29,31,25,26,18,02,12,32,,,,,1.5,1.0,1.2*37
$GPRMC,084034.000,A,4825.1427,N,00428.4545,W,0.00,270.56,090621,,,A*78
$GPGGA,084035.000,4825.1427,N,00428.4545,W,1,08,1.0,88.9,M,52.0,M,,0000*76
$GPGSA,A,3,29,31,25,26,18,02,12,32,,,,,1.5,1.0,1.2*37
$GPRMC,084035.000,A,4825.1427,N,00428.4545,W,0.00,270.56,090621,,,A*79
$GPGGA,084036.000,4825.1427,N,00428.4545,W,1,08,1.0,88.9,M,52.0,M,,0000*75
$GPGSA,A,3,29,31,25,26,18,02,12,32,,,,,1.5,1.0,1.2*37
$GPGSV,3,1,12,29,80,089,43,31,63,280,43,25,47,089,39,26,30,285,40*74
$GPGSV,3,1,12,29,80,089,43,31,63,280,43,25,47,089,39,26,30,285,40*74
$GPGSV,3,2,12,18,17,163,37,02,14,036,34,12,12,091,32,32,08,212,30*73
$GPGSV,3,2,12,18,17,163,37,02,14,036,34,12,12,091,32,32,08,212,30*73
$GPGSV,3,3,12,57,68,131,,58,68,131,,59,68,131,,07,33,051,*77
$GPGSV,3,3,12,57,68,131,,58,68,131,,59,68,131,,07,33,051,*77
$GPRMC,084036.000,A,4825.1427,N,00428.4545,W,0.00,270.56,090621,,,A*7A
$GPGGA,084037.000,4825.1427,N,00428.4545,W,1,08,1.0,88.9,M,52.0,M,,0000*74
$GPGSA,A,3,29,31,25,26,18,02,12,32,,,,,1.5,1.0,1.2*37
$GPRMC,084037.000,A,4825.1427,N,00428.4545,W,0.00,270.56,090621,,,A*7B
$GPGGA,084038.000,4825.1427,N,00428.4545,W,1,08,1.0,88.9,M,52.0,M,,0000*7B
$GPGSA,A,3,29,31,25,26,18,02,12,32,,,,,1.5,1.0,1.2*37
$GPRMC,084038.000,A,4825.1427,N,00428.4545,W,0.00,270.56,090621,,,A*74
$GPGGA,084039.000,4825.1427,N,00428.4545,W,1,08,1.0,88.9,M,52.0,M,,0000*7A
$GPGSA,A,3,29,31,25,26,18,02,12,32,,,,,1.5,1.0,1.2*37
$GPRMC,084039.000,A,4825.1427,N,00428.4545,W,0.00,270.56,090621,,,A*75
$GPGGA,084040.000,4825.1427,N,00428.4545,W,1,08,1.0,88.9,M,52.0,M,,0000*74
$GPGSA,A,3,29,31,25,26,18,02,12,32,,,,,1.5,1.0,1.2*37
$GPRMC,084040.000,A,4825.1427,N,00428.4545,W,0.00,270.56,090621,,,A*7B
$GPGGA,084041.000,4825.1427,N,00428.4545,W,1,08,1.0,88.9,M,52.0,M,,0000*75
$GPGSA,A,3,29,31,25,26,18,02,12,32,,,,,1.5,1.0,1.2*37
$GPGSV,3,1,12,29,80,089,43,31,63,280,43,25,47,089,39,26,30,285,40*74
$GPGSV,3,1,12,29,80,089,43,31,63,280,43,25,47,089,39,26,30,285,40*74
$GPGSV,3,2,12,18,17,163,37,02,14,036,34,12,12,091,32,32,08,212,30*73
$GPGSV,3,2,12,18,17,163,37,02,14,036,34,12,12,091,32,32,08,212,30*73
$GPGSV,3,3,12,57,68,131,,58,68,131,,59,68,131,,07,33,051,*77
$GPGSV,3,3,12,57,68,131,,58,68,131,,59,68,131,,07,33,051,*77
$GPRMC,084041.000,A,4825.1427,N,00428.4545,W,0.00,270.56,090621,,,A*7A
$GPGGA,084042.000,4825.1427,N,00428.4545,W,1,08,1.0,88.9,M,52.0,M,,0000*76
$GPGSA,A,3,29,31,25,26,18,02,12,32,,,,,1.5,1.0,1.2*37
$GPRMC,084042.000,A,4825.1427,N,00428.4545,W,0.00,270.56,090621,,,A*79
$GPGGA,084043.000,4825.1427,N,00428.4545,W,1,08,1.0,88.9,M,52.0,M,,0000*77
$GPGSA,A,3,29,31,25,26,18,02,12,32,,,,,1.5,1.0,1.2*37
$GPRMC,084043.000,A,4825.1427,N,00428.4545,W,0.00,270.56,090621,,,A*78
$GPGGA,084044.000,4825.1427,N,00428.4545,W,1,08,1.0,88.9,M,52.0,M,,0000*70
$GPGSA,A,3,29,31,25,26,18,02,12,32,,,,,1.5,1.0,1.2*37
$GPRMC,084044.000,A,4825.1427,N,00428.4545,W,0.00,270.56,090621,,,A*7F
$GPGGA,084045.000,4825.1427,N,00428.4545,W,1,08,1.0,88.9,M,52.0,M,,0000*71
$GPGSA,A,3,29,31,25,26,18,02,12,32,,,,,1.5,1.0,1.2*37
$GPRMC,084045.000,A,4825.1427,N,00428.4545,W,0.00,270.56,090621,,,A*7E
$GPGGA,084046.000,4825.1427,N,00428.4545,W,1,08,1.0,88.9,M,52.0,M,,0000*72
$GPGSA,A,3,29,31,25,26,18,02,12,32,,,,,1.5,1.0,1.2*37
$GPGSV,3,1,12,29,80,089,43,31,63,280,43,25,47,089,39,26,30,285,40*74
$GPGSV,3,1,12,29,80,089,43,31,63,280,43,25,47,089,39,26,30,285,40*74
$GPGSV,3,2,12,18,17,163,37,02,14,036,34,12,12,091,32,32,08,212,30*73
$GPGSV,3,2,12,18,17,163,37,02,14,036,34,12,12,091,32,32,08,212,30*73
$GPGSV,3,3,12,57,68,131,,58,68,131,,59,68,131,,07,33,051,*77
$GPGSV,3,3,12,57,68,131,,58,68,131,,59,68,131,,07,33,051,*77
$GPRMC,084046.000,A,4825.1427,N,00428.4545,W,0.00,270.56,090621,,,A*7D
$GPGGA,084047.000,4825.1427,N,00428.4545,W,1,08,1.0,88.9,M,52.0,M,,0000*73
$GPGSA,A,3,29,31,25,26,18,02,12,32,,,,,125.1427,N,00428.4545,W,0.00,270.56,090621,,,A*7C
$GPGGA,084048.000,4825.1427,N,00428.4545,W,1,08,1.0,88.9,M,52.0,M,,0000*7C
$GPGSA,A,3,29,31,25,26,18,02,12,32,,,,,1.5,1.0,1.2*37
$GPRMC,084048.000,A,4825.1427,N,00428.4545,W,0.00,270.56,090621,,,A*73
$GPGGA,084049.000,4825.1427,N,00428.4545,W,1,08,1.0,88.9,M,52.0,M,,0000*7D
$GPGSA,A,3,29,31,25,26,18,02,12,32,,,,,1.5,1.0,1.2*37
$GPRMC,084049.000,A,4825.1427,N,00428.4545,W,0.00,270.56,090621,,,A*72
$GPGGA,084050.000,4825.1427,N,00428.4545,W,1,08,1.0,88.8,M,52.0,M,,0000*74
$GPGSA,A,3,29,31,25,26,18,02,12,32,,,,,1.5,1.0,1.2*37
$GPRMC,084050.000,A,4825.1427,N,00428.4545,W,0.00,270.56,090621,,,A*7A
$GPGGA,084051.000,4825.1427,N,00428.4545,W,1,08,1.0,88.8,M,52.0,M,,0000*75
$GPGSA,A,3,29,31,25,26,18,02,12,32,,,,,1.5,1.0,1.2*37
$GPGSV,3,1,12,29,80,089,43,31,63,280,43,25,47,089,39,26,30,285,40*74
$GPGSV,3,1,12,29,80,089,43,31,63,280,43,25,47,089,39,26,30,285,40*74
$GPGSV,3,2,12,18,17,163,37,02,14,036,34,12,12,091,32,32,08,212,30*73
$GPGSV,3,2,12,18,17,163,37,02,14,036,34,12,12,091,32,32,08,212,30*73
$GPGSV,3,3,12,57,68,131,,58,68,131,,59,68,131,,07,33,051,*77
$GPGSV,3,3,12,57,68,131,,58,68,131,,59,68,131,,07,33,051,*77
$GPRMC,084051.000,A,487B
$GPGGA,084052.000,4825.1427,N,00428.4545,W,1,08,1.0,88.8,M,52.0,M,,0000*76
$GPGSA,A,3,29,31,25,26,18,02,12,32,,,,,1.5,1.0,1.2*37
$GPGSA,A,3,29,31,25,26,18,02,12,32,,,,,1.5,1.0,1.2*37
$GPRMC,084053.000,A,4825.1427,N,00428.4545,W,0.00,270.56,090621,,,A*79
$GPGGA,084054.000,4825.1427,N,00428.4545,W,1,08,1.0,88.8,M,52.0,M,,0000*70
$GPGSA,A,3,29,31,25,26,18,02,12,32,,,,,1.5,1.0,1.2*37
$GPRMC,084054.000,A,4825.1427,N,00428.4545,W,0.00,270.56,090621,,,A*7E
$GPGGA,084055.000,4825.1427,N,00428.4545,W,1,08,1.0,88.8,M,52.0,M,,0000*71
$GPGSA,A,3,29,31,25,26,18,02,12,32,,,,,1.5,1.0,1.2*37
$GPRMC,084055.000,A,4825.1427,N,00428.4545,W,0.00,270.56,090621,,,A*7F
$GPGGA,084056.000,4825.1427,N,00428.4545,W,1,08,1.0,88.8,M,52.0,M,,0000*72
$GPGSA,A,3,29,31,25,26,18,02,12,32,,,,,1.5,1.0,1.2*37
$GPGSV,3,1,12,29,80,089,43,31,63,280,43,25,47,089,39,26,30,285,40*74
$GPGSV,3,1,12,29,80,089,43,31,63,280,43,25,47,089,39,26,30,285,40*74
$GPGSV,3,2,163,37,02,14,036,34,12,12,091,32,32,08,212,29*7B
$GPGSV,3,2,163,37,02,14,036,34,12,12,091,32,32,08,212,29*7B
$GPGSV,3,3,12,57,68,131,,58,68,131,,59,68,131,,07,33,051,*77
$GPGSV,3,3,12,57,68,131,,58,68,131,,59,68,131,,07,33,051,*77
$GPRMC,084056.000,A,4825.1427,N,00428.4545,W,0.00,270.56,090621,,,A*7C
$GPGGA,084058.000,4825.1427,N,00428.4545,W,1,08,1.0,88.8,M,52.0,M,,0000*7C
$GPGSA,A,3,29,31,25,26,18,02,12,32,,,,,1.5,1.0,1.2*37
$GPRMC,084058.000,A,4825.1427,N,00428.4545,W,0.00,270.56,090621,,,A*72
$GPGGA,084059.000,4825.1427,N,00428.4545,W,1,08,1.0,88.8,M,52.0,M,,0000*7D
$GPGSA,A,3,29,31,25,26,18,02,12,32,,,,,1.5,1.0,1.2*37
$GPRMC,084059.000,A,4825.1427,N,00428.4545,W,0.00,270.56,090621,,,A*73
$GPGGA,084100.000,4825.1427,N,00428.4545,W,1,08,1.0,88.8,M,52.0,M,,0000*70
$GPGSA,A,3,29,31,25,26,18,02,12,32,,,,,1.5,1.0,1.2*37
$GPRMC,084100.000,A,4825.1427,N,00428.4545,W,0.00,270.56,090621,,,A*7E
$GPGGA,084101.000,4825.1427,N,00428.4545,W,1,08,1.0,88.8,M,52.0,M,,0000*71
$GPGSA,A,3,29,31,25,26,18,02,12,32,,,,,1.5,1.0,1.2*37
$GPGSV,3,1,12,29,80,089,43,31,63,280,43,25,47,089,39,26,30,285,40*74
$GPGSV,3,1,12,29,80,089,43,31,63,280,43,25,47,089,39,26,30,285,40*74
$GPGSV,3,2,12,18,17,163,37,02,14,036,34,12,12,091,32,32,08,212,29*7B
$GPGSV,3,2,12,18,17,163,37,02,14,036,34,12,12,091,32,32,08,212,29*7B
$GPGSV,3,3,12,57,68,131,,58,68,131,,59,68,131,,07,33,051,*77
$GPGSV,3,3,12,57,68,131,,58,68,131,,59,68,131,,07,33,051,*77
$GPRMC,084101.000,A,4825.1427,N,00428.4545,W,0.00,270.56,090621,,,A*7F
$GPGGA,084102.000,4825.1427,N,00428.4545,W,1,08,1.0,88.8,M,52.0,M,,0000*72
$GPGSA,A,3,29,31,25,26,18,02,12,32,,,,,1.5,1.0,1.2*37
$GPRMC,084102.000,A,4825.1427,N,00428.4545,W,0.00,270.56,090621,,,A*7C
545,W,1,08,1.0,88.8,M,52.0,M,,0000*73
$GPGSA,A,3,29,31,25,26,18,02,12,32,,,,,1.5,1.0,1.2*37
$GPRMC,084103.000,A,4825.1427,N,00428.4545,W,0.00,270.56,090621,,,A*7D
$GPRMC,084104.000,A,4825.1427,N,00428.4545,W,0.00,270.56,090621,,,A*7A
$GPGGA,084105.000,4825.1427,N,00428.4545,W,1,08,1.0,88.8,M,52.0,M,,0000*75
$GPGSA,A,3,29,31,25,26,18,02,12,32,,,,,1.5,1.0,1.2*37
$GPRMC,084105.000,A,4825.1427,N,00428.4545,W,0.00,270.56,090621,,,A*7B
$GPGGA,084106.000,4825.1427,N,00428.4545,W,1,08,1.0,88.8,M,52.0,M,,0000*76
$GPGSA,A,3,29,31,25,26,18,02,12,32,,,,,1.5,1.0,1.2*37
$GPGSV,3,1,12,29,80,089,43,31,63,280,43,25,47,089,39,26,30,285,40*74
$GPGSV,3,1,12,29,80,089,43,31,63,280,43,25,47,089,39,26,30,285,40*74
$GPGSV,3,2,12,18,17,163,37,02,14,036,34,12,12,091,31,32,08,212,29*78
$GPGSV,3,2,12,18,17,163,37,02,14,036,34,12,12,091,31,32,08,212,29*78
$GPGSV,3,3,12,57,68,131,,58,68,131,,59,68,131,,07,33,051,*77
$GPGSV,3,3,12,57,68,131,,58,68,131,,59,68,131,,07,33,051,*77
$GPRMC,084106.000,A,4825.1427,N,00428.4545,W,0.00,270.56,090621,,,A*78
$GPGGA,084108.000,4825.1427,N,00428.4545,W,1,08,1.0,88.8,M,52.0,M,,0000*78
$GPGSA,A,3,29,31,25,26,18,02,12,32,,,,,1.5,1.0,1.2*37
$GPRMC,084108.000,A,4825.1427,N,00428.4545,W,0.00,270.56,090621,,,A*76
$GPGGA,084109.000,4825.1427,N,00428.4545,W,1,08,1.0,88.8,M,52.0,M,,0000*79
$GPGSA,A,3,29,31,25,26,18,02,12,32,,,,,1.5,1.0,1.2*37
$GPRMC,084109.000,A,4825.1427,N,00428.4545,W,0.00,270.56,090621,,,A*77
$GPGGA,084110.000,4825.1427,N,00428.4545,W,1,08,1.0,88.8,M,52.0,M,,0000*71
$GPGSA,A,3,29,31,25,26,18,02,12,32,,,,,1.5,1.0,1.2*37
$GPRMC,084110.000,A,4825.1427,N,00428.4545,W,0.00,270.56,090621,,,A*7F
$GPGGA,084111.000,4825.1427,N,00428.4545,W,1,08,1.0,88.8,M,52.0,M,,0000*70
$GPGSA,A,3,29,31,25,26,18,02,12,32,,,,,1.5,1.0,1.2*37
$GPGSV,3,1,12,29,79,083,43,31,64,277,43,25,46,090,39,26,31,285,39*71
$GPGSV,3,1,12,29,79,083,43,31,64,277,43,25,46,090,39,26,31,285,39*71
$GPGSV,3,2,12,18,19,162,37,02,13,036,34,12,11,092,31,32,07,212,28*7E
$GPGSV,3,2,12,18,19,162,37,02,13,036,34,12,11,092,31,32,07,212,28*7E
$GPGSV,3,3,12,57,68,131,,58,68,131,,59,68,131,,07,31,051,*75
$GPGSV,3,3,12,57,68,131,,58,68,131,,59,68,131,,07,31,051,*75
$GPRMC,084111.000,A,4825.1427,N,00428.4545,W,0.00,270.56,090621,,,A*7E
$GPGGA,084112.000,4825.1427,N,00428.4545,W,1,08,1.0,88.8,M,52.0,M,,0000*73
$GPGSA,A,3,29,31,25,26,18,02,12,32,,,,,1.5,1.0,1.2*37
$GPRMC,084112.000,A,4825.1427,N,00428.4545,W,0.00,270.56,090621,,,A*7D
$GPGGA,084113.000,4825.1427,N,00428.4545,W,1,08,1.0,88.8,M,52.0,M,,0000*72
$GPGSA,A,3,29,31,25,26,18,02,12,32,,,,,1.5,1.0,1.2*37
$GPRMC,084113.000,A,4825.1427,N,00428.4545,W,0.00,270.56,090621,,,A*7C
$GPGGA,084114.000,4825.1427,N,00428.4545,W,1,07,1.1,88.8,M,52.0,M,,0000*7B
$GPGSA,A,3,29,31,25,26,18,02,12,,,,,,1.8,1.1,1.4*3C
