$GPGGA,063758.000,4825.1424,N,00428.4556,W,1,06,1.2,92.0,M,52.0,M,,0000*7C
$GPGSA,A,3,25,32,29,02,06,31,,,,,,,2.2,1.2,1.8*33
$GPRMC,063758.000,A,4825.1424,N,00428.4556,W,0.00,272.38,090621,,,A*77
$GPGGA,063759.000,4825.1424,N,00428.4556,W,1,06,1.2,92.0,M,52.0,M,,0000*7D
$GPGSA,A,3,25,32,29,02,06,31,,,,,,,2.2,1.2,1.8*33
$GPRMC,063759.000,A,4825.1424,N,00428.4556,W,0.00,272.38,090621,,,A*76
$GPGGA,063800.000,4825.1424,N,00428.4556,W,1,06,1.2,92.0,M,52.0,M,,0000*7E
$GPGSA,A,3,25,32,29,02,06,31,,,,,,,2.2,1.2,1.8*33
$GPRMC,063800.000,A,4825.1424,N,00428.4556,W,0.00,272.38,090621,,,A*75
$GPGGA,063801.000,4825.1424,N,00428.4556,W,1,06,1.2,92.0,M,52.0,M,,0000*7F
$GPGSA,A,3,25,32,29,02,06,31,,,,,,,2.2,1.2,1.8*33
$GPGSV,3,1,12,25,76,282,42,32,48,260,46,29,31,186,37,02,22,085,38*7D
$GPGSV,3,1,12,25,76,282,42,32,48,260,46,29,31,186,37,02,22,085,38*7D
$GPGSV,3,2,12,06,17,051,39,31,15,300,36,57,68,131,,58,68,131,*7A
$GPGSV,3,2,12,06,17,051,39,31,15,300,36,57,68,131,,58,68,131,*7A
$GPGSV,3,3,12,59,68,131,,07,45,118,,17,03,340,,03,02,345,*74
$GPGSV,3,3,12,59,68,131,,07,45,118,,17,03,340,,03,02,345,*74
$GPRMC,063801.000,A,4825.1424,N,00428.4556,W,0.00,272.38,090621,,,A*74
$GPGGA,063802.000,4825.1424,N,00428.4555,W,1,06,1.2,92.0,M,52.0,M,,0000*7F
$GPGSA,A,3,25,32,29,02,06,31,,,,,,,2.2,1.2,1.8*33
$GPRMC,063802.000,A,4825.1424,N,00428.4555,W,0.00,272.38,090621,,,A*74
$GPGGA,063803.000,4825.1424,N,00428.4555,W,1,06,1.2,91.9,M,52.0,M,,0000*74
$GPGSA,A,3,25,32,29,02,06,31,,,,,,,2.2,1.2,1.8*33
$GPRMC,063803.000,A,4825.1424,N,00428.4555,W,0.00,272.38,090621,,,A*75
$GPGGA,063804.000,4825.1424,N,00428.4555,W,1,06,1.2,91.9,M,52.0,M,,0000*73
$GPGSA,A,3,25,32,29,02,06,31,,,,,,,2.2,1.2,1.8*33
$GPRMC,063804.000,A,4825.1424,N,00428.4555,W,0.00,272.38,090621,,,A*72
$GPGGA,063805.000,4825.1424,N,00428.4555,W,1,06,1.2,91.9,M,52.0,M,,0000*72
$GPGSA,A,3,25,32,29,02,06,31,,,,,,,2.2,1.2,1.8*33
$GPRMC,063805.000,A,4825.1424,N,00428.4555,W,0.00,272.38,090621,,,A*73
$GPGGA,063806.000,4825.1424,N,00428.4555,W,1,06,1.2,91.9,M,52.0,M,,0000*71
$GPGSA,A,3,25,32,29,02,06,31,,,,,,,2.2,1.2,1.8*33
$GPGSV,3,1,12,25,76,282,42,32,48,260,46,29,31,186,37,02,22,085,33*76
$GPGSV,3,1,12,25,76,282,42,32,48,260,46,29,31,186,37,02,22,085,33*76
$GPGSV,3,2,12,06,17,051,39,31,15,300,36,57,68,131,,58,68,131,*7A
$GPGSV,3,2,12,06,17,051,39,31,15,300,36,57,68,131,,58,68,131,*7A
$GPGSV,3,3,12,59,68,131,,07,45,118,,17,03,340,,03,02,345,*74
$GPGSV,3,3,12,59,68,131,,07,45,118,,17,03,340,,03,02,345,*74
$GPRMC,063806.000,A,4825.1424,N,00428.4555,W,0.00,272.38,090621,,,A*70
$GPGGA,063807.000,4825.1424,N,00428.4555,W,1,06,1.2,91.9,M,52.0,M,,0000*70
$GPGSA,A,3,25,32,29,02,06,31,,,,,,,2.2,1.2,1.8*33
$GPRMC,063807.000,A,4825.1424,N,00428.4555,W,0.00,272.38,090621,,,A*71
$GPGGA,063808.000,4825.1424,N,00428.4555,W,1,06,1.2,91.9,M,52.0,M,,0000*7F
$GPGSA,A,3,25,32,29,02,06,31,,,,,,,2.2,1.2,1.8*33
$GPRMC,063808.000,A,4825.1424,N,00428.4555,W,0.00,272.38,090621,,,A*7E
$GPGGA,063809.000,4825.1424,N,00428.4555,W,1,06,1.2,91.9,M,52.0,M,,0000*7E
$GPGSA,A,3,25,32,29,02,06,31,,,,,,,2.2,1.2,1.8*33
$GPRMC,063809.000,A,4825.1424,N,00428.4555,W,0.00,272.38,090621,,,A*7F
$GPGGA,063810.000,4825.1424,N,00428.4555,W,1,06,1.2,91.9,M,52.0,M,,0000*76
$GPGSA,A,3,25,32,29,02,06,31,,,,,,,2.2,1.2,1.8*33
$GPRMC,063810.000,A,4825.1424,N,00428.4555,W,0.00,272.38,090621,,,A*77
$GPGGA,063811.000,4825.1424,N,00428.4555,W,1,06,1.2,91.9,M,52.0,M,,0000*77
$GPGSA,A,3,25,32,29,02,06,31,,,,,,,2.2,1.2,1.8*33
$GPGSV,3,1,12,25,76,282,42,32,48,260,46,29,31,186,37,02,22,085,36*73
$GPGSV,3,1,12,25,76,282,42,32,48,260,46,29,31,186,37,02,22,085,36*73
$GPGSV,3,2,12,06,17,051,39,31,15,300,36,57,68,131,,58,68,131,*7A
$GPGSV,3,2,12,06,17,051,39,31,15,300,36,57,68,131,,58,68,131,*7A
$GPGSV,3,3,12,59,68,131,,07,45,118,,17,03,340,,03,02,345,*74
$GPGSV,3,3,12,59,68,131,,07,45,118,,17,03,340,,03,02,345,*74
$GPRMC,063811.000,A,4825.1424,N,00428.4555,W,0.00,272.38,090621,,,A*76
$GPGGA,063812.000,4825.1424,N,00428.4555,W,1,06,1.2,91.9,M,52.0,M,,0000*74
$GPGSA,A,3,25,32,29,02,06,31,,,,,,,2.2,1.2,1.8*33
$GPRMC,063812.000,A,4825.1424,N,00428.4555,W,0.00,272.38,090621,,,A*75
$GPGGA,063813.000,4825.1424,N,00428.4555,W,1,06,1.2,91.9,M,52.0,M,,0000*75
$GPGSA,A,3,25,32,29,02,06,31,,,,,,,2.2,1.2,1.8*33
$GPRMC,063813.000,A,4825.1424,N,00428.4555,W,0.00,272.38,090621,,,A*74
$GPGGA,063814.000,4825.1424,N,00428.4555,W,1,06,1.2,91.9,M,52.0,M,,0000*72
$GPGSA,A,3,25,32,29,02,06,31,,,,,,,2.2,1.2,1.8*33
$GPRMC,063814.000,A,4825.1424,N,00428.4555,W,0.00,272.38,090621,,,A*73
$GPGGA,063815.000,4825.1424,N,00428.4555,W,1,06,1.2,91.9,M,52.0,M,,0000*73
$GPGSA,A,3,25,32,29,02,06,31,,,,,,,2.2,1.2,1.8*33
$GPRMC,063815.000,A,4825.1424,N,00428.4555,W,0.00,272.38,090621,,,A*72
$GPGGA,063816.000,4825.1424,N,00428.4555,W,1,06,1.2,91.9,M,52.0,M,,0000*70
$GPGSA,A,3,25,32,29,02,06,31,,,,,,,2.2,1.2,1.8*33
$GPGSV,3,1,12,25,77,284,42,32,48,259,46,29,32,186,37,02,22,084,40*7D
$GPGSV,3,1,12,25,77,284,42,32,48,259,46,29,32,186,37,02,22,084,40*7D
$GPGSV,3,2,12,06,17,051,39,31,16,300,36,12,59,059,44,57,68,131,*7A
$GPGSV,3,2,12,06,17,051,39,31,16,300,36,12,59,059,44,57,68,131,*7A
$GPGSV,3,3,12,58,68,131,,59,68,131,,07,45,117,,17,03,340,*78
$GPGSV,3,3,12,58,68,131,,59,68,131,,07,45,117,,17,03,340,*78
$GPRMC,063816.000,A,4825.1424,N,00428.4555,W,0.00,272.38,090621,,,A*71
$GPGGA,063817.000,4825.1424,N,00428.4555,W,1,06,1.2,91.9,M,52.0,M,,0000*71
$GPGSA,A,3,25,32,29,02,06,31,,,,,,,2.2,1.2,1.8*33
$GPRMC,063817.000,A,4825.1424,N,00428.4555,W,0.00,272.38,090621,,,A*70
$GPGGA,063818.000,4825.1424,N,00428.4555,W,1,06,1.2,91.9,M,52.0,M,,0000*7E
$GPGSA,A,3,25,32,29,02,06,31,,,,,,,2.2,1.2,1.8*33
$GPRMC,063818.000,A,4825.1424,N,00428.4555,W,0.00,272.38,090621,,,A*7F
$GPGGA,063819.000,4825.1424,N,00428.4555,W,1,06,1.2,91.9,M,52.0,M,,0000*7F
$GPGSA,A,3,25,32,29,02,06,31,,,,,,,2.2,1.2,1.8*33
$GPRMC,063819.000,A,4825.1424,N,00428.4555,W,0.00,272.38,090621,,,A*7E
$GPGGA,063820.000,4825.1424,N,00428.4555,W,1,06,1.2,91.9,M,52.0,M,,0000*75
$GPGSA,A,3,25,32,29,02,06,31,,,,,,,2.2,1.2,1.8*33
$GPRMC,063820.000,A,4825.1424,N,00428.4555,W,0.00,272.38,090621,,,A*74
$GPGGA,063821.000,4825.1424,N,00428.4555,W,1,06,1.2,91.9,M,52.0,M,,0000*74
$GPGSA,A,3,25,32,29,02,06,31,,,,,,,2.2,1.2,1.8*33
$GPGSV,3,1,12,25,77,284,42,32,48,259,46,29,32,186,37,02,22,084,39*73
$GPGSV,3,1,12,25,77,284,42,32,48,259,46,29,32,186,37,02,22,084,39*73
$GPGSV,3,2,12,06,17,051,39,31,16,300,36,12,59,059,44,57,68,131,*7A
$GPGSV,3,2,12,06,17,051,39,31,16,300,36,12,59,059,44,57,68,131,*7A
$GPGSV,3,3,12,58,68,131,,59,68,131,,07,45,117,,17,03,340,*78
$GPGSV,3,3,12,58,68,131,,59,68,131,,07,45,117,,17,03,340,*78
$GPRMC,063821.000,A,4825.1424,N,00428.4555,W,0.00,272.38,090621,,,A*75
$GPGGA,063822.000,4825.1424,N,00428.4555,W,1,06,1.2,91.9,M,52.0,M,,0000*77
$GPGSA,A,3,25,32,29,02,06,31,,,,,,,2.2,1.2,1.8*33
$GPRMC,063822.000,A,4825.1424,N,00428.4555,W,0.00,272.38,090621,,,A*76
$GPGGA,063823.000,4825.1424,N,00428.4555,W,1,06,1.2,91.9,M,52.0,M,,0000*76
$GPGSA,A,3,25,32,29,02,06,31,,,,,,,2.2,1.2,1.8*33
$GPRMC,063823.000,A,4825.1424,N,00428.4555,W,0.00,272.38,090621,,,A*77
$GPGGA,063824.000,4825.1424,N,00428.4555,W,1,06,1.2,91.9,M,52.0,M,,0000*71
$GPGSA,A,3,25,32,29,02,06,31,,,,,,,2.2,1.2,1.8*33
$GPRMC,063824.000,A,4825.1424,N,00428.4555,W,0.00,272.38,090621,,,A*70
$GPGGA,063825.000,4825.1424,N,00428.4555,W,1,06,1.2,91.9,M,52.0,M,,0000*70
$GPGSA,A,3,25,32,29,02,06,31,,,,,,,2.2,1.2,1.8*33
$GPRMC,063825.000,A,4825.1424,N,00428.4555,W,0.00,272.38,090621,,,A*71
$GPGGA,063826.000,4825.1424,N,00428.4555,W,1,06,1.2,91.9,M,52.0,M,,0000*73
$GPGSA,A,3,25,32,29,02,06,31,,,,,,,2.2,1.2,1.8*33
$GPGSV,3,1,12,25,77,284,42,32,48,259,46,29,32,186,36,02,22,084,37*7C
$GPGSV,3,1,12,25,77,284,42,32,48,259,46,29,32,186,36,02,22,084,37*7C
$GPGSV,3,2,12,06,17,051,39,31,16,300,36,12,59,059,44,57,68,131,*7A
$GPGSV,3,2,12,06,17,051,39,31,16,300,36,12,59,059,44,57,68,131,*7A
$GPGSV,3,3,12,58,68,131,,59,68,131,,07,45,117,,17,03,340,*78
$GPGSV,3,3,12,58,68,131,,59,68,131,,07,45,117,,17,03,340,*78
$GPRMC,063826.000,A,4825.1424,N,00428.4555,W,0.00,272.38,090621,,,A*72
$GPGGA,063827.000,4825.1424,N,00428.4555,W,1,06,1.2,91.9,M,52.0,M,,0000*72
$GPGSA,A,3,25,32,29,02,06,31,,,,,,,2.2,1.2,1.8*33
$GPRMC,063827.000,A,4825.1424,N,00428.4555,W,0.00,272.38,090621,,,A*73
$GPGGA,063828.000,4825.1424,N,00428.4555,W,1,06,1.2,91.9,M,52.0,M,,0000*7D
$GPGSA,A,3,25,32,29,02,06,31,,,,,,,2.2,1.2,1.8*33
$GPRMC,063828.000,A,4825.1424,N,00428.4555,W,0.00,272.38,090621,,,A*7C
$GPGGA,063829.000,4825.1424,N,00428.4555,W,1,06,1.2,91.9,M,52.0,M,,0000*7C
$GPGSA,A,3,25,32,29,02,06,31,,,,,,,2.2,1.2,1.8*33
$GPRMC,063829.000,A,4825.1424,N,00428.4555,W,0.00,272.38,090621,,,A*7D
$GPGGA,063830.000,4825.1424,N,00428.4555,W,1,06,1.2,91.9,M,52.0,M,,0000*74
$GPGSA,A,3,25,32,29,02,06,31,,,,,,,2.2,1.2,1.8*33
$GPRMC,063830.000,A,4825.1424,N,00428.4555,W,0.00,272.38,090621,,,A*75
$GPGGA,063831.000,4825.1424,N,00428.4555,W,1,06,1.2,91.9,M,52.0,M,,0000*75
$GPGSA,A,3,25,32,29,02,06,31,,,,,,,2.2,1.2,1.8*33
$GPGSV,3,1,12,25,77,284,42,32,48,259,46,29,32,186,36,02,22,084,39*72
$GPGSV,3,1,12,25,77,284,42,32,48,259,46,29,32,186,36,02,22,084,39*72
$GPGSV,3,2,12,06,17,051,38,31,16,300,36,12,59,059,44,57,68,131,*7B
$GPGSV,3,2,12,06,17,051,38,31,16,300,36,12,59,059,44,57,68,131,*7B
$GPGSV,3,3,12,58,68,131,,59,68,131,,07,45,117,,17,03,340,*78
$GPGSV,3,3,12,58,68,131,,59,68,131,,07,45,117,,17,03,340,*78
$GPRMC,063831.000,A,4825.1424,N,00428.4555,W,0.00,272.38,090621,,,A*74
$GPGGA,063832.000,4825.1424,N,00428.4555,W,1,06,1.2,91.9,M,52.0,M,,0000*76
$GPGSA,A,3,25,32,29,02,06,31,,,,,,,2.2,1.2,1.8*33
$GPRMC,063832.000,A,4825.1424,N,00428.4555,W,0.00,272.38,090621,,,A*77
$GPGGA,063833.000,4825.1424,N,00428.4555,W,1,06,1.2,91.9,M,52.0,M,,0000*77
$GPGSA,A,3,25,32,29,02,06,31,,,,,,,2.2,1.2,1.8*33
$GPRMC,063833.000,A,4825.1424,N,00428.4555,W,0.00,272.38,090621,,,A*76
$GPGGA,063834.000,4825.1424,N,00428.4555,W,1,06,1.2,91.9,M,52.0,M,,0000*70
$GPGSA,A,3,25,32,29,02,06,31,,,,,,,2.2,1.2,1.8*33
$GPRMC,063834.000,A,4825.1424,N,00428.4555,W,0.00,272.38,090621,,,A*71
$GPGGA,063835.000,4825.1424,N,00428.4555,W,1,06,1.2,91.9,M,52.0,M,,0000*71
$GPGSA,A,3,25,32,29,02,06,31,,,,,,,2.2,1.2,1.8*33
$GPRMC,063835.000,A,4825.1424,N,00428.4555,W,0.00,272.38,090621,,,A*70
$GPGGA,063836.000,4825.1424,N,00428.4555,W,1,06,1.2,91.9,M,52.0,M,,0000*72
$GPGSA,A,3,25,32,29,02,06,31,,,,,,,2.2,1.2,1.8*33
$GPGSV,3,1,12,25,77,284,42,32,48,259,46,29,32,186,36,02,22,084,39*72
$GPGSV,3,1,12,25,77,284,42,32,48,259,46,29,32,186,36,02,22,084,39*72
$GPGSV,3,2,12,06,17,051,38,31,16,300,36,12,59,059,44,57,68,131,*7B
$GPGSV,3,2,12,06,17,051,38,31,16,300,36,12,59,059,44,57,68,131,*7B
$GPGSV,3,3,12,58,68,131,,59,68,131,,07,45,117,,17,03,340,*78
$GPGSV,3,3,12,58,68,131,,59,68,131,,07,45,117,,17,03,340,*78
$GPRMC,063836.000,A,4825.1424,N,00428.4555,W,0.00,272.38,090621,,,A*73
$GPGGA,063837.000,4825.1424,N,00428.4555,W,1,06,1.2,91.9,M,52.0,M,,0000*73
$GPGSA,A,3,25,32,29,02,06,31,,,,,,,2.2,1.2,1.8*33
$GPRMC,063837.000,A,4825.1424,N,00428.4555,W,0.00,272.38,090621,,,A*72
$GPGGA,063838.000,4825.1424,N,00428.4555,W,1,06,1.2,91.9,M,52.0,M,,0000*7C
$GPGSA,A,3,25,32,29,02,06,31,,,,,,,2.2,1.2,1.8*33
$GPRMC,063838.000,A,4825.1424,N,00428.4555,W,0.00,272.38,090621,,,A*7D
$GPGGA,063839.000,4825.1424,N,00428.4555,W,1,06,1.2,91.9,M,52.0,M,,0000*7D
$GPGSA,A,3,25,32,29,02,06,31,,,,,,,2.2,1.2,1.8*33
$GPRMC,063839.000,A,4825.1424,N,00428.4555,W,0.00,272.38,090621,,,A*7C
$GPGGA,063840.000,4825.1424,N,00428.4555,W,1,06,1.2,91.9,M,52.0,M,,0000*73
$GPGSA,A,3,25,32,29,02,06,31,,,,,,,2.2,1.2,1.8*33
$GPRMC,063840.000,A,4825.1424,N,00428.4555,W,0.00,272.38,090621,,,A*72
$GPGGA,063841.000,4825.1424,N,00428.4555,W,1,06,1.2,91.9,M,52.0,M,,0000*72
$GPGSA,A,3,25,32,29,02,06,31,,,,,,,2.2,1.2,1.8*33
$GPGSV,3,1,12,25,77,284,42,32,48,259,46,29,32,186,37,02,22,084,39*73
$GPGSV,3,1,12,25,77,284,42,32,48,259,46,29,32,186,37,02,22,084,39*73
$GPGSV,3,2,12,06,17,051,39,31,16,300,36,12,59,059,44,57,68,131,*7A
$GPGSV,3,2,12,06,17,051,39,31,16,300,36,12,59,059,44,57,68,131,*7A
$GPGSV,3,3,12,58,68,131,,59,68,131,,07,45,117,,17,03,340,*78
$GPGSV,3,3,12,58,68,131,,59,68,131,,07,45,117,,17,03,340,*78
$GPRMC,063841.000,A,4825.1424,N,00428.4555,W,0.00,272.38,090621,,,A*73
$GPGGA,063842.000,4825.1424,N,00428.4555,W,1,06,1.2,91.9,M,52.0,M,,0000*71
$GPGSA,A,3,25,32,29,02,06,31,,,,,,,2.2,1.2,1.8*33
$GPRMC,063842.000,A,4825.1424,N,00428.4555,W,0.00,272.38,090621,,,A*70
$GPGGA,063843.000,4825.1424,N,00428.4555,W,1,06,1.2,91.9,M,52.0,M,,0000*70
$GPGSA,A,3,25,32,29,02,06,31,,,,,,,2.2,1.2,1.8*33
$GPRMC,063843.000,A,4825.1424,N,00428.4555,W,0.00,272.38,090621,,,A*71
$GPGGA,063844.000,4825.1424,N,00428.4555,W,1,06,1.2,91.9,M,52.0,M,,0000*77
$GPGSA,A,3,25,32,29,02,06,31,,,,,,,2.2,1.2,1.8*33
$GPRMC,063844.000,A,4825.1424,N,00428.4555,W,0.00,272.38,090621,,,A*76
$GPGGA,063845.000,4825.1424,N,00428.4554,W,1,06,1.2,91.9,M,52.0,M,,0000*77
$GPGSA,A,3,25,32,29,02,06,31,,,,,,,2.2,1.2,1.8*33
$GPRMC,063845.000,A,4825.1424,N,00428.4554,W,0.00,272.38,090621,,,A*76
$GPGGA,063846.000,4825.1424,N,00428.4554,W,1,06,1.2,91.9,M,52.0,M,,0000*74
$GPGSA,A,3,25,32,29,02,06,31,,,,,,,2.2,1.2,1.8*33
$GPGSV,3,1,12,25,77,284,42,32,48,259,46,29,32,186,37,02,22,084,39*73
$GPGSV,3,1,12,25,77,284,42,32,48,259,46,29,32,186,37,02,22,084,39*73
$GPGSV,3,2,12,06,17,051,39,31,16,300,36,12,58,059,44,57,68,131,*7B
$GPGSV,3,2,12,06,17,051,39,31,16,300,36,12,58,059,44,57,68,131,*7B
$GPGSV,3,3,12,58,68,131,,59,68,131,,07,45,117,,17,03,340,*78
$GPGSV,3,3,12,58,68,131,,59,68,131,,07,45,117,,17,03,340,*78
$GPRMC,063846.000,A,4825.1424,N,00428.4554,W,0.00,272.38,090621,,,A*75
$GPGGA,063847.000,4825.1424,N,00428.4554,W,1,06,1.2,91.9,M,52.0,M,,0000*75
$GPGSA,A,3,25,32,29,02,06,31,,,,,,,2.2,1.2,1.8*33
$GPRMC,063847.000,A,4825.1424,N,00428.4554,W,0.00,272.38,090621,,,A*74
$GPGGA,063848.000,4825.1424,N,00428.4554,W,1,07,1.1,91.9,M,52.0,M,,0000*78
$GPGSA,A,3,25,32,29,02,06,31,12,,,,,,1.9,1.1,1.5*36
$GPRMC,063848.000,A,4825.1424,N,00428.4554,W,0.00,272.38,090621,,,A*7B
$GPGGA,063849.000,4825.1424,N,00428.4554,W,1,07,1.1,91.9,M,52.0,M,,0000*79
$GPGSA,A,3,25,12,32,29,02,06,31,,,,,,1.9,1.1,1.5*36
$GPRMC,063849.000,A,4825.1424,N,00428.4554,W,0.00,272.38,090621,,,A*7A
$GPGGA,063850.000,4825.1424,N,00428.4554,W,1,07,1.1,91.8,M,52.0,M,,0000*70
$GPGSA,A,3,25,12,32,29,02,06,31,,,,,,1.9,1.1,1.5*36
$GPRMC,063850.000,A,4825.1424,N,00428.4554,W,0.00,272.38,090621,,,A*72
$GPGGA,063851.000,4825.1424,N,00428.4554,W,1,07,1.1,91.8,M,52.0,M,,0000*71
$GPGSA,A,3,25,12,32,29,02,06,31,,,,,,1.9,1.1,1.5*36
$GPGSV,3,1,12,25,77,285,42,12,58,059,44,32,48,259,46,29,32,186,37*74
$GPGSV,3,1,12,25,77,285,42,12,58,059,44,32,48,259,46,29,32,186,37*74
$GPGSV,3,2,12,02,22,084,38,06,17,051,39,31,16,300,36,57,68,131,*7C
$GPGSV,3,2,12,02,22,084,38,06,17,051,39,31,16,300,36,57,68,131,*7C
$GPGSV,3,3,12,58,68,131,,59,68,131,,07,45,117,,17,03,340,*78
$GPGSV,3,3,12,58,68,131,,59,68,131,,07,45,117,,17,03,340,*78
$GPRMC,063851.000,A,4825.1424,N,00428.4554,W,0.00,272.38,090621,,,A*73
$GPGGA,063852.000,4825.1424,N,00428.4554,W,1,07,1.1,91.8,M,52.0,M,,0000*72
$GPGSA,A,3,25,12,32,29,02,06,31,,,,,,1.9,1.1,1.5*36
$GPRMC,063852.000,A,4825.1424,N,00428.4554,W,0.00,272.38,090621,,,A*70
$GPGGA,063853.000,4825.1424,N,00428.4554,W,1,07,1.1,91.8,M,52.0,M,,0000*73
$GPGSA,A,3,25,12,32,29,02,06,31,,,,,,1.9,1.1,1.5*36
$GPRMC,063853.000,A,4825.1424,N,00428.4554,W,0.00,272.38,090621,,,A*71
$GPGGA,063854.000,4825.1424,N,00428.4554,W,1,07,1.1,91.8,M,52.0,M,,0000*74
$GPGSA,A,3,25,12,32,29,02,06,31,,,,,,1.9,1.1,1.5*36
$GPRMC,063854.000,A,4825.1424,N,00428.4554,W,0.00,272.38,090621,,,A*76
$GPGGA,063855.000,4825.1424,N,00428.4554,W,1,07,1.1,91.8,M,52.0,M,,0000*75
$GPGSA,A,3,25,12,32,29,02,06,31,,,,,,1.9,1.1,1.5*36
$GPRMC,063855.000,A,4825.1424,N,00428.4554,W,0.00,272.38,090621,,,A*77
$GPGGA,063856.000,4825.1424,N,00428.4554,W,1,07,1.1,91.8,M,52.0,M,,0000*76
$GPGSA,A,3,25,12,32,29,02,06,31,,,,,,1.9,1.1,1.5*36
$GPGSV,3,1,12,25,77,285,42,12,58,059,44,32,48,259,46,29,32,186,37*74
$GPGSV,3,1,12,25,77,285,42,12,58,059,44,32,48,259,46,29,32,186,37*74
$GPGSV,3,2,12,02,22,084,40,06,17,051,40,31,16,300,36,57,68,131,*7D
$GPGSV,3,2,12,02,22,084,40,06,17,051,40,31,16,300,36,57,68,131,*7D
$GPGSV,3,3,12,58,68,131,,59,68,131,,07,45,117,,17,03,340,*78
$GPGSV,3,3,12,58,68,131,,59,68,131,,07,45,117,,17,03,340,*78
$GPRMC,063856.000,A,4825.1424,N,00428.4554,W,0.00,272.38,090621,,,A*74
$GPGGA,063857.000,4825.1424,N,00428.4554,W,1,07,1.1,91.8,M,52.0,M,,0000*77
$GPGSA,A,3,25,12,32,29,02,06,31,,,,,,1.9,1.1,1.5*36
$GPRMC,063857.000,A,4825.1424,N,00428.4554,W,0.00,272.38,090621,,,A*75
$GPGGA,063858.000,4825.1424,N,00428.4554,W,1,07,1.1,91.8,M,52.0,M,,0000*78
$GPGSA,A,3,25,12,32,29,02,06,31,,,,,,1.9,1.1,1.5*36
$GPRMC,063858.000,A,4825.1424,N,00428.4554,W,0.00,272.38,090621,,,A*7A
$GPGGA,063859.000,4825.1424,N,00428.4554,W,1,07,1.1,91.8,M,52.0,M,,0000*79
$GPGSA,A,3,25,12,32,29,02,06,31,,,,,,1.9,1.1,1.5*36
$GPRMC,063859.000,A,4825.1424,N,00428.4554,W,0.00,272.38,090621,,,A*7B
$GPGGA,063900.000,4825.1424,N,00428.4554,W,1,07,1.1,91.8,M,52.0,M,,0000*74
$GPGSA,A,3,25,12,32,29,02,06,31,,,,,,1.9,1.1,1.5*36
$GPRMC,063900.000,A,4825.1424,N,00428.4554,W,0.00,272.38,090621,,,A*76
$GPGGA,063901.000,4825.1424,N,00428.4554,W,1,07,1.1,91.8,M,52.0,M,,0000*75
$GPGSA,A,3,25,12,32,29,02,06,31,,,,,,1.9,1.1,1.5*36
$GPGSV,3,1,12,25,77,285,42,12,58,059,44,32,48,259,46,29,32,186,37*74
$GPGSV,3,1,12,25,77,285,42,12,58,059,44,32,48,259,46,29,32,186,37*74
$GPGSV,3,2,12,02,22,084,34,06,17,051,40,31,16,300,36,57,68,131,*7E
$GPGSV,3,2,12,02,22,084,34,06,17,051,40,31,16,300,36,57,68,131,*7E
$GPGSV,3,3,12,58,68,131,,59,68,131,,07,45,117,,17,03,340,*78
$GPGSV,3,3,12,58,68,131,,59,68,131,,07,45,117,,17,03,340,*78
$GPRMC,063901.000,A,4825.1424,N,00428.4554,W,0.00,272.38,090621,,,A*77
$GPGGA,063902.000,4825.1424,N,00428.4554,W,1,07,1.1,91.8,M,52.0,M,,0000*76
$GPGSA,A,3,25,12,32,29,02,06,31,,,,,,1.9,1.1,1.5*36
$GPRMC,063902.000,A,4825.1424,N,00428.4554,W,0.00,272.38,090621,,,A*74
$GPGGA,063903.000,4825.1424,N,00428.4554,W,1,07,1.1,91.8,M,52.0,M,,0000*77
$GPGSA,A,3,25,12,32,29,02,06,31,,,,,,1.9,1.1,1.5*36
$GPRMC,063903.000,A,4825.1424,N,00428.4554,W,0.00,272.38,090621,,,A*75
$GPGGA,063904.000,4825.1424,N,00428.4554,W,1,07,1.1,91.8,M,52.0,M,,0000*70
$GPGSA,A,3,25,12,32,29,02,06,31,,,,,,1.9,1.1,1.5*36
$GPRMC,063904.000,A,4825.1424,N,00428.4554,W,0.00,272.38,090621,,,A*72
$GPGGA,063905.000,4825.1424,N,00428.4554,W,1,07,1.1,91.8,M,52.0,M,,0000*71
$GPGSA,A,3,25,12,32,29,02,06,31,,,,,,1.9,1.1,1.5*36
$GPRMC,063905.000,A,4825.1424,N,00428.4554,W,0.00,272.38,090621,,,A*73
$GPGGA,063906.000,4825.1424,N,00428.4554,W,1,07,1.1,91.8,M,52.0,M,,0000*72
$GPGSA,A,3,25,12,32,29,02,06,31,,,,,,1.9,1.1,1.5*36
$GPGSV,3,1,12,25,77,285,42,12,58,059,44,32,48,259,46,29,32,186,37*74
$GPGSV,3,1,12,25,77,285,42,12,58,059,44,32,48,259,46,29,32,186,37*74
$GPGSV,3,2,12,02,22,084,39,06,17,051,39,31,16,300,36,57,68,131,*7D
$GPGSV,3,2,12,02,22,084,39,06,17,051,39,31,16,300,36,57,68,131,*7D
$GPGSV,3,3,12,58,68,131,,59,68,131,,07,45,117,,17,03,340,*78
$GPGSV,3,3,12,58,68,131,,59,68,131,,07,45,117,,17,03,340,*78
$GPRMC,063906.000,A,4825.1424,N,00428.4554,W,0.00,272.38,090621,,,A*70
$GPGGA,063907.000,4825.1424,N,00428.4554,W,1,07,1.1,91.8,M,52.0,M,,0000*73
$GPGSA,A,3,25,12,32,29,02,06,31,,,,,,1.9,1.1,1.5*36
$GPRMC,063907.000,A,4825.1424,N,00428.4554,W,0.00,272.38,090621,,,A*71
$GPGGA,063908.000,4825.1424,N,00428.4554,W,1,07,1.1,91.8,M,52.0,M,,0000*7C
$GPGSA,A,3,25,12,32,29,02,06,31,,,,,,1.9,1.1,1.5*36
$GPRMC,063908.000,A,4825.1424,N,00428.4554,W,0.00,272.38,090621,,,A*7E
$GPGGA,063909.000,4825.1424,N,00428.4554,W,1,07,1.1,91.8,M,52.0,M,,0000*7D
$GPGSA,A,3,25,12,32,29,02,06,31,,,,,,1.9,1.1,1.5*36
$GPRMC,063909.000,A,4825.1424,N,00428.4554,W,0.00,272.38,090621,,,A*7F
$GPGGA,063910.000,4825.1424,N,00428.4554,W,1,07,1.1,91.8,M,52.0,M,,0000*75
$GPGSA,A,3,25,12,32,29,02,06,31,,,,,,1.9,1.1,1.5*36
$GPRMC,063910.000,A,4825.1424,N,00428.4554,W,0.00,272.38,090621,,,A*77
$GPGGA,063911.000,4825.1424,N,00428.4554,W,1,07,1.1,91.8,M,52.0,M,,0000*74
$GPGSA,A,3,25,12,32,29,02,06,31,,,,,,1.9,1.1,1.5*36
$GPGSV,3,1,12,25,77,285,42,12,58,059,44,32,48,259,46,29,32,186,37*74
$GPGSV,3,1,12,25,77,285,42,12,58,059,44,32,48,259,46,29,32,186,37*74
$GPGSV,3,2,12,02,22,084,39,06,17,051,39,31,16,300,36,57,68,131,*7D
$GPGSV,3,2,12,02,22,084,39,06,17,051,39,31,16,300,36,57,68,131,*7D
$GPGSV,3,3,12,58,68,131,,59,68,131,,07,45,117,,17,03,340,*78
$GPGSV,3,3,12,58,68,131,,59,68,131,,07,45,117,,17,03,340,*78
$GPRMC,063911.000,A,4825.1424,N,00428.4554,W,0.00,272.38,090621,,,A*76
$GPGGA,063912.000,4825.1424,N,00428.4554,W,1,07,1.1,91.8,M,52.0,M,,0000*77
$GPGSA,A,3,25,12,32,29,02,06,31,,,,,,1.9,1.1,1.5*36
$GPRMC,063912.000,A,4825.1424,N,00428.4554,W,0.00,272.38,090621,,,A*75
$GPGGA,063913.000,4825.1424,N,00428.4554,W,1,07,1.1,91.8,M,52.0,M,,0000*76
$GPGSA,A,3,25,12,32,29,02,06,31,,,,,,1.9,1.1,1.5*36
$GPRMC,063913.000,A,4825.1424,N,00428.4554,W,0.00,272.38,090621,,,A*74
$GPGGA,063914.000,4825.1424,N,00428.4554,W,1,07,1.1,91.8,M,52.0,M,,0000*71
$GPGSA,A,3,25,12,32,29,02,06,31,,,,,,1.9,1.1,1.5*36
$GPRMC,063914.000,A,4825.1424,N,00428.4554,W,0.00,272.38,090621,,,A*73
$GPGGA,063915.000,4825.1424,N,00428.4554,W,1,07,1.1,91.8,M,52.0,M,,0000*70
$GPGSA,A,3,25,12,32,29,02,06,31,,,,,,1.9,1.1,1.5*36
$GPRMC,063915.000,A,4825.1424,N,00428.4554,W,0.00,272.38,090621,,,A*72
$GPGGA,063916.000,4825.1424,N,00428.4554,W,1,07,1.1,91.8,M,52.0,M,,0000*73
$GPGSA,A,3,25,12,32,29,02,06,31,,,,,,1.9,1.1,1.5*36
$GPGSV,3,1,12,25,77,285,42,12,58,059,44,32,48,259,46,29,32,186,37*74
$GPGSV,3,1,12,25,77,285,42,12,58,059,44,32,48,259,46,29,32,186,37*74
$GPGSV,3,2,12,02,22,084,39,06,17,051,39,31,16,300,36,57,68,131,*7D
$GPGSV,3,2,12,02,22,084,39,06,17,051,39,31,16,300,36,57,68,131,*7D
$GPGSV,3,3,12,58,68,131,,59,68,131,,07,45,117,,17,03,340,*78
$GPGSV,3,3,12,58,68,131,,59,68,131,,07,45,117,,17,03,340,*78
$GPRMC,063916.000,A,4825.1424,N,00428.4554,W,0.00,272.38,090621,,,A*71
$GPGGA,063917.000,4825.1424,N,00428.4554,W,1,07,1.1,91.8,M,52.0,M,,0000*72
$GPGSA,A,3,25,12,32,29,02,06,31,,,,,,1.9,1.1,1.5*36
$GPRMC,063917.000,A,4825.1424,N,00428.4554,W,0.00,272.38,090621,,,A*70
$GPGGA,063918.000,4825.1424,N,00428.4554,W,1,07,1.1,91.8,M,52.0,M,,0000*7D
$GPGSA,A,3,25,12,32,29,02,06,31,,,,,,1.9,1.1,1.5*36
$GPRMC,063918.000,A,4825.1424,N,00428.4554,W,0.00,272.38,090621,,,A*7F
$GPGGA,063919.000,4825.1424,N,00428.4554,W,1,07,1.1,91.8,M,52.0,M,,0000*7C
$GPGSA,A,3,25,12,32,29,02,06,31,,,,,,1.9,1.1,1.5*36
$GPRMC,063919.000,A,4825.1424,N,00428.4554,W,0.00,272.38,090621,,,A*7E
$GPGGA,063920.000,4825.1424,N,00428.4554,W,1,07,1.1,91.8,M,52.0,M,,0000*76
$GPGSA,A,3,25,12,32,29,02,06,31,,,,,,1.9,1.1,1.5*36
$GPRMC,063920.000,A,4825.1424,N,00428.4554,W,0.00,272.38,090621,,,A*74
$GPGGA,063921.000,4825.1424,N,00428.4554,W,1,07,1.1,91.8,M,52.0,M,,0000*77
$GPGSA,A,3,25,12,32,29,02,06,31,,,,,,1.9,1.1,1.5*36
$GPGSV,3,1,12,25,77,285,42,12,58,059,44,32,48,259,46,29,32,186,37*74
$GPGSV,3,1,12,25,77,285,42,12,58,059,44,32,48,259,46,29,32,186,37*74
$GPGSV,3,2,12,02,22,084,39,06,17,051,39,31,16,300,36,57,68,131,*7D
$GPGSV,3,2,12,02,22,084,39,06,17,051,39,31,16,300,36,57,68,131,*7D
$GPGSV,3,3,12,58,68,131,,59,68,131,,07,45,117,,17,03,340,*78
$GPGSV,3,3,12,58,68,131,,59,68,131,,07,45,117,,17,03,340,*78
$GPRMC,063921.000,A,4825.1424,N,00428.4554,W,0.00,272.38,090621,,,A*75
$GPGGA,063922.000,4825.1424,N,00428.4554,W,1,07,1.1,91.8,M,52.0,M,,0000*74
$GPGSA,A,3,25,12,32,29,02,06,31,,,,,,1.9,1.1,1.5*36
$GPRMC,063922.000,A,4825.1424,N,00428.4554,W,0.00,272.38,090621,,,A*76
$GPGGA,063923.000,4825.1424,N,00428.4554,W,1,07,1.1,91.8,M,52.0,M,,0000*75
$GPGSA,A,3,25,12,32,29,02,06,31,,,,,,1.9,1.1,1.5*36
$GPRMC,063923.000,A,4825.1424,N,00428.4554,W,0.00,272.38,090621,,,A*77
$GPGGA,063924.000,4825.1424,N,00428.4554,W,1,07,1.1,91.8,M,52.0,M,,0000*72
$GPGSA,A,3,25,12,32,29,02,06,31,,,,,,1.9,1.1,1.5*36
$GPRMC,063924.000,A,4825.1424,N,00428.4554,W,0.00,272.38,090621,,,A*70
$GPGGA,063925.000,4825.1424,N,00428.4554,W,1,07,1.1,91.8,M,52.0,M,,0000*73
$GPGSA,A,3,25,12,32,29,02,06,31,,,,,,1.9,1.1,1.5*36
$GPRMC,063925.000,A,4825.1424,N,00428.4554,W,0.00,272.38,090621,,,A*71
$GPGGA,063926.000,4825.1424,N,00428.4554,W,1,07,1.1,91.8,M,52.0,M,,0000*70
$GPGSA,A,3,25,12,32,29,02,06,31,,,,,,1.9,1.1,1.5*36
$GPGSV,3,1,12,25,77,285,42,12,58,059,44,32,48,259,46,29,32,186,37*74
$GPGSV,3,1,12,25,77,285,42,12,58,059,44,32,48,259,46,29,32,186,37*74
$GPGSV,3,2,12,02,22,084,39,06,17,051,39,31,16,300,36,57,68,131,*7D
$GPGSV,3,2,12,02,22,084,39,06,17,051,39,31,16,300,36,57,68,131,*7D
$GPGSV,3,3,12,58,68,131,,59,68,131,,07,45,117,,17,03,340,*78
$GPGSV,3,3,12,58,68,131,,59,68,131,,07,45,117,,17,03,340,*78
$GPRMC,063926.000,A,4825.1424,N,00428.4554,W,0.00,272.38,090621,,,A*72
$GPGGA,063927.000,4825.1424,N,00428.4554,W,1,07,1.1,91.8,M,52.0,M,,0000*71
$GPGSA,A,3,25,12,32,29,02,06,31,,,,,,1.9,1.1,1.5*36
$GPRMC,063927.000,A,4825.1424,N,00428.4554,W,0.00,272.38,090621,,,A*73
$GPGGA,063928.000,4825.1424,N,00428.4554,W,1,07,1.1,91.8,M,52.0,M,,0000*7E
$GPGSA,A,3,25,12,32,29,02,06,31,,,,,,1.9,1.1,1.5*36
$GPRMC,063928.000,A,4825.1424,N,00428.4554,W,0.00,272.38,090621,,,A*7C
$GPGGA,063929.000,4825.1424,N,00428.4554,W,1,07,1.1,91.8,M,52.0,M,,0000*7F
$GPGSA,A,3,25,12,32,29,02,06,31,,,,,,1.9,1.1,1.5*36
$GPRMC,063929.000,A,4825.1424,N,00428.4554,W,0.00,272.38,090621,,,A*7D
$GPGGA,063930.000,4825.1424,N,00428.4553,W,1,07,1.1,91.8,M,52.0,M,,0000*70
$GPGSA,A,3,25,12,32,29,02,06,31,,,,,,1.9,1.1,1.5*36
$GPRMC,063930.000,A,4825.1424,N,00428.4553,W,0.00,272.38,090621,,,A*72
$GPGGA,063931.000,4825.1424,N,00428.4553,W,1,07,1.1,91.8,M,52.0,M,,0000*71
$GPGSA,A,3,25,12,32,29,02,06,31,,,,,,1.9,1.1,1.5*36
$GPGSV,3,1,12,25,77,285,42,12,58,059,44,32,48,259,46,29,32,186,37*74
$GPGSV,3,1,12,25,77,285,42,12,58,059,44,32,48,259,46,29,32,186,37*74
$GPGSV,3,2,12,02,22,084,39,06,17,051,39,31,16,300,36,57,68,131,*7D
$GPGSV,3,2,12,02,22,084,39,06,17,051,39,31,16,300,36,57,68,131,*7D
$GPGSV,3,3,12,58,68,131,,59,68,131,,07,45,117,,17,03,340,*78
$GPGSV,3,3,12,58,68,131,,59,68,131,,07,45,117,,17,03,340,*78
$GPRMC,063931.000,A,4825.1424,N,00428.4553,W,0.00,272.38,090621,,,A*73
$GPGGA,063932.000,4825.1424,N,00428.4553,W,1,07,1.1,91.8,M,52.0,M,,0000*72
$GPGSA,A,3,25,12,32,29,02,06,31,,,,,,1.9,1.1,1.5*36
$GPRMC,063932.000,A,4825.1424,N,00428.4553,W,0.00,272.38,090621,,,A*70
$GPGGA,063933.000,4825.1424,N,00428.4553,W,1,07,1.1,91.8,M,52.0,M,,0000*73
$GPGSA,A,3,25,12,32,29,02,06,31,,,,,,1.9,1.1,1.5*36
$GPRMC,063933.000,A,4825.1424,N,00428.4553,W,0.00,272.38,090621,,,A*71
$GPGGA,063934.000,4825.1424,N,00428.4553,W,1,07,1.1,91.8,M,52.0,M,,0000*74
$GPGSA,A,3,25,12,32,29,02,06,31,,,,,,1.9,1.1,1.5*36
$GPRMC,063934.000,A,4825.1424,N,00428.4553,W,0.00,272.38,090621,,,A*76
$GPGGA,063935.000,4825.1424,N,00428.4553,W,1,07,1.1,91.8,M,52.0,M,,0000*75
$GPGSA,A,3,25,12,32,29,02,06,31,,,,,,1.9,1.1,1.5*36
$GPRMC,063935.000,A,4825.1424,N,00428.4553,W,0.00,272.38,090621,,,A*77
$GPGGA,063936.000,4825.1424,N,00428.4553,W,1,07,1.1,91.8,M,52.0,M,,0000*76
$GPGSA,A,3,25,12,32,29,02,06,31,,,,,,1.9,1.1,1.5*36
$GPGSV,3,1,12,25,77,285,42,12,58,059,44,32,48,259,46,29,32,186,37*74
$GPGSV,3,1,12,25,77,285,42,12,58,059,44,32,48,259,46,29,32,186,37*74
$GPGSV,3,2,12,02,22,084,39,06,17,051,39,31,16,300,36,57,68,131,*7D
$GPGSV,3,2,12,02,22,084,39,06,17,051,39,31,16,300,36,57,68,131,*7D
$GPGSV,3,3,12,58,68,131,,59,68,131,,07,45,117,,17,03,340,*78
$GPGSV,3,3,12,58,68,131,,59,68,131,,07,45,117,,17,03,340,*78
$GPRMC,063936.000,A,4825.1424,N,00428.4553,W,0.00,272.38,090621,,,A*74
$GPGGA,063937.000,4825.1424,N,00428.4553,W,1,07,1.1,91.8,M,52.0,M,,0000*77
$GPGSA,A,3,25,12,32,29,02,06,31,,,,,,1.9,1.1,1.5*36
$GPRMC,063937.000,A,4825.1424,N,00428.4553,W,0.00,272.38,090621,,,A*75
$GPGGA,063938.000,4825.1424,N,00428.4553,W,1,07,1.1,91.7,M,52.0,M,,0000*77
$GPGSA,A,3,25,12,32,29,02,06,31,,,,,,1.9,1.1,1.5*36
$GPRMC,063938.000,A,4825.1424,N,00428.4553,W,0.00,272.38,090621,,,A*7A
$GPGGA,063939.000,4825.1424,N,00428.4553,W,1,07,1.1,91.7,M,52.0,M,,0000*76
$GPGSA,A,3,25,12,32,29,02,06,31,,,,,,1.9,1.1,1.5*36
$GPRMC,063939.000,A,4825.1424,N,00428.4553,W,0.00,272.38,090621,,,A*7B
$GPGGA,063940.000,4825.1424,N,00428.4553,W,1,07,1.1,91.7,M,52.0,M,,0000*78
$GPGSA,A,3,25,12,32,29,02,06,31,,,,,,1.9,1.1,1.5*36
$GPRMC,063940.000,A,4825.1424,N,00428.4553,W,0.00,272.38,090621,,,A*75
$GPGGA,063941.000,4825.1424,N,00428.4553,W,1,07,1.1,91.7,M,52.0,M,,0000*79
$GPGSA,A,3,25,12,32,29,02,06,31,,,,,,1.9,1.1,1.5*36
$GPGSV,3,1,12,25,77,285,42,12,58,059,44,32,48,259,46,29,32,186,37*74
$GPGSV,3,1,12,25,77,285,42,12,58,059,44,32,48,259,46,29,32,186,37*74
$GPGSV,3,2,12,02,22,084,39,06,17,051,39,31,16,300,37,57,68,131,*7C
$GPGSV,3,2,12,02,22,084,39,06,17,051,39,31,16,300,37,57,68,131,*7C
$GPGSV,3,3,12,58,68,131,,59,68,131,,07,45,117,,17,03,340,*78
$GPGSV,3,3,12,58,68,131,,59,68,131,,07,45,117,,17,03,340,*78
$GPRMC,063941.000,A,4825.1424,N,00428.4553,W,0.00,272.38,090621,,,A*74
$GPGGA,063942.000,4825.1424,N,00428.4553,W,1,07,1.1,91.7,M,52.0,M,,0000*7A
$GPGSA,A,3,25,12,32,29,02,06,31,,,,,,1.9,1.1,1.5*36
$GPRMC,063942.000,A,4825.1424,N,00428.4553,W,0.00,272.38,090621,,,A*77
$GPGGA,063943.000,4825.1424,N,00428.4553,W,1,07,1.1,91.7,M,52.0,M,,0000*7B
$GPGSA,A,3,25,12,32,29,02,06,31,,,,,,1.9,1.1,1.5*36
$GPRMC,063943.000,A,4825.1424,N,00428.4553,W,0.00,272.38,090621,,,A*76
$GPGGA,063944.000,4825.1424,N,00428.4553,W,1,07,1.1,91.7,M,52.0,M,,0000*7C
$GPGSA,A,3,25,12,32,29,02,06,31,,,,,,1.9,1.1,1.5*36
$GPRMC,063944.000,A,4825.1424,N,00428.4553,W,0.00,272.38,090621,,,A*71
$GPGGA,063945.000,4825.1424,N,00428.4553,W,1,07,1.1,91.7,M,52.0,M,,0000*7D
$GPGSA,A,3,25,12,32,29,02,06,31,,,,,,1.9,1.1,1.5*36
$GPRMC,063945.000,A,4825.1424,N,00428.4553,W,0.00,272.38,090621,,,A*70
$GPGGA,063946.000,4825.1424,N,00428.4553,W,1,07,1.1,91.7,M,52.0,M,,0000*7E
$GPGSA,A,3,25,12,32,29,02,06,31,,,,,,1.9,1.1,1.5*36
$GPGSV,3,1,12,25,77,285,42,12,58,059,44,32,48,259,46,29,32,186,37*74
$GPGSV,3,1,12,25,77,285,42,12,58,059,44,32,48,259,46,29,32,186,37*74
$GPGSV,3,2,12,02,22,084,39,06,17,051,39,31,16,300,37,57,68,131,*7C
$GPGSV,3,2,12,02,22,084,39,06,17,051,39,31,16,300,37,57,68,131,*7C
$GPGSV,3,3,12,58,68,131,,59,68,131,,07,45,117,,17,03,340,*78
$GPGSV,3,3,12,58,68,131,,59,68,131,,07,45,117,,17,03,340,*78
$GPRMC,063946.000,A,4825.1424,N,00428.4553,W,0.00,272.38,090621,,,A*73
$GPGGA,063947.000,4825.1424,N,00428.4553,W,1,07,1.1,91.7,M,52.0,M,,0000*7F
$GPGSA,A,3,25,12,32,29,02,06,31,,,,,,1.9,1.1,1.5*36
$GPRMC,063947.000,A,4825.1424,N,00428.4553,W,0.00,272.38,090621,,,A*72
$GPGGA,063948.000,4825.1424,N,00428.4553,W,1,07,1.1,91.7,M,52.0,M,,0000*70
$GPGSA,A,3,25,12,32,29,02,06,31,,,,,,1.9,1.1,1.5*36
$GPRMC,063948.000,A,4825.1424,N,00428.4553,W,0.00,272.38,090621,,,A*7D
$GPGGA,063949.000,4825.1424,N,00428.4553,W,1,07,1.1,91.7,M,52.0,M,,0000*71
$GPGSA,A,3,25,12,32,29,02,06,31,,,,,,1.9,1.1,1.5*36
$GPRMC,063949.000,A,4825.1424,N,00428.4553,W,0.00,272.38,090621,,,A*7C
$GPGGA,063950.000,4825.1424,N,00428.4553,W,1,07,1.1,91.7,M,52.0,M,,0000*79
$GPGSA,A,3,25,12,32,29,02,06,31,,,,,,1.9,1.1,1.5*36
$GPRMC,063950.000,A,4825.1424,N,00428.4553,W,0.00,272.38,090621,,,A*74
$GPGGA,063951.000,4825.1424,N,00428.4553,W,1,07,1.1,91.7,M,52.0,M,,0000*78
$GPGSA,A,3,25,12,32,29,02,06,31,,,,,,1.9,1.1,1.5*36
$GPGSV,3,1,12,25,77,285,42,12,58,059,44,32,48,259,46,29,32,186,37*74
$GPGSV,3,1,12,25,77,285,42,12,58,059,44,32,48,259,46,29,32,186,37*74
$GPGSV,3,2,12,02,22,084,39,06,17,051,39,31,16,300,37,57,68,131,*7C
$GPGSV,3,2,12,02,22,084,39,06,17,051,39,31,16,300,37,57,68,131,*7C
$GPGSV,3,3,12,58,68,131,,59,68,131,,07,45,117,,17,03,340,*78
$GPGSV,3,3,12,58,68,131,,59,68,131,,07,45,117,,17,03,340,*78
$GPRMC,063951.000,A,4825.1424,N,00428.4553,W,0.00,272.38,090621,,,A*75
$GPGGA,063952.000,4825.1424,N,00428.4553,W,1,07,1.1,91.7,M,52.0,M,,0000*7B
$GPGSA,A,3,25,12,32,29,02,06,31,,,,,,1.9,1.1,1.5*36
$GPRMC,063952.000,A,4825.1424,N,00428.4553,W,0.00,272.38,090621,,,A*76
$GPGGA,063953.000,4825.1424,N,00428.4553,W,1,07,1.1,91.7,M,52.0,M,,0000*7A
$GPGSA,A,3,25,12,32,29,02,06,31,,,,,,1.9,1.1,1.5*36
$GPRMC,063953.000,A,4825.1424,N,00428.4553,W,0.00,272.38,090621,,,A*77
$PSRF156,23,1,0*09
$GPGGA,063954.000,4825.1424,N,00428.4553,W,1,07,1.1,91.7,M,52.0,M,,0000*7D
$GPGSA,A,3,25,12,32,29,02,06,31,,,,,,1.9,1.1,1.5*36
$GPRMC,063954.000,A,4825.1424,N,00428.4553,W,0.00,272.38,090621,,,A*70
$GPGGA,063955.000,4825.1424,N,00428.4553,W,1,07,1.1,91.7,M,52.0,M,,0000*7C
$GPGSA,A,3,25,12,32,29,02,06,31,,,,,,1.9,1.1,1.5*36
$GPRMC,063955.000,A,4825.1424,N,00428.4553,W,0.00,272.38,090621,,,A*71
$GPGGA,063956.000,4825.1424,N,00428.4553,W,1,07,1.1,91.7,M,52.0,M,,0000*7F
$GPGSA,A,3,25,12,32,29,02,06,31,,,,,,1.9,1.1,1.5*36
$GPGSV,3,1,12,25,77,285,42,12,58,059,44,32,48,259,46,29,32,186,37*74
$GPGSV,3,1,12,25,77,285,42,12,58,059,44,32,48,259,46,29,32,186,37*74
$GPGSV,3,2,12,02,22,084,39,06,17,051,38,31,16,300,37,57,68,131,*7D
$GPGSV,3,2,12,02,22,084,39,06,17,051,38,31,16,300,37,57,68,131,*7D
$GPGSV,3,3,12,58,68,131,,59,68,131,,07,45,117,,17,03,340,*78
$GPGSV,3,3,12,58,68,131,,59,68,131,,07,45,117,,17,03,340,*78
$GPRMC,063956.000,A,4825.1424,N,00428.4553,W,0.00,272.38,090621,,,A*72
$GPGGA,063957.000,4825.1424,N,00428.4553,W,1,07,1.1,91.7,M,52.0,M,,0000*7E
$GPGSA,A,3,25,12,32,29,02,06,31,,,,,,1.9,1.1,1.5*36
$GPRMC,063957.000,A,4825.1424,N,00428.4553,W,0.00,272.38,090621,,,A*73
$GPGGA,063958.000,4825.1424,N,00428.4553,W,1,07,1.1,91.7,M,52.0,M,,0000*71
$GPGSA,A,3,25,12,32,29,02,06,31,,,,,,1.9,1.1,1.5*36
$GPRMC,063958.000,A,4825.1424,N,00428.4553,W,0.00,272.38,090621,,,A*7C
$GPGGA,063959.000,4825.1424,N,00428.4553,W,1,07,1.1,91.7,M,52.0,M,,0000*70
$GPGSA,A,3,25,12,32,29,02,06,31,,,,,,1.9,1.1,1.5*36
$GPRMC,063959.000,A,4825.1424,N,00428.4553,W,0.00,272.38,090621,,,A*7D
$GPGGA,064000.000,4825.1424,N,00428.4553,W,1,07,1.1,91.7,M,52.0,M,,0000*72
$GPGSA,A,3,25,12,32,29,02,06,31,,,,,,1.9,1.1,1.5*36
$GPRMC,064000.000,A,4825.1424,N,00428.4553,W,0.00,272.38,090621,,,A*7F
$GPGGA,064001.000,4825.1424,N,00428.4553,W,1,07,1.1,91.7,M,52.0,M,,0000*73
$GPGSA,A,3,25,12,32,29,02,06,31,,,,,,1.9,1.1,1.5*36
$GPGSV,3,1,12,25,77,285,42,12,58,059,44,32,48,259,46,29,32,186,37*74
$GPGSV,3,1,12,25,77,285,42,12,58,059,44,32,48,259,46,29,32,186,37*74
$GPGSV,3,2,12,02,22,084,38,06,17,051,38,31,16,300,37,57,68,131,*7C
$GPGSV,3,2,12,02,22,084,38,06,17,051,38,31,16,300,37,57,68,131,*7C
$GPGSV,3,3,12,58,68,131,,59,68,131,,07,45,117,,17,03,340,*78
$GPGSV,3,3,12,58,68,131,,59,68,131,,07,45,117,,17,03,340,*78
$GPRMC,064001.000,A,4825.1424,N,00428.4553,W,0.00,272.38,090621,,,A*7E
$GPGGA,064002.000,4825.1424,N,00428.4553,W,1,07,1.1,91.7,M,52.0,M,,0000*70
$GPGSA,A,3,25,12,32,29,02,06,31,,,,,,1.9,1.1,1.5*36
$GPRMC,064002.000,A,4825.1424,N,00428.4553,W,0.00,272.38,090621,,,A*7D
$GPGGA,064003.000,4825.1424,N,00428.4553,W,1,07,1.1,91.7,M,52.0,M,,0000*71
$GPGSA,A,3,25,12,32,29,02,06,31,,,,,,1.9,1.1,1.5*36
$GPRMC,064003.000,A,4825.1424,N,00428.4553,W,0.00,272.38,090621,,,A*7C
$GPGGA,064004.000,4825.1424,N,00428.4553,W,1,07,1.1,91.7,M,52.0,M,,0000*76
$GPGSA,A,3,25,12,32,29,02,06,31,,,,,,1.9,1.1,1.5*36
$GPRMC,064004.000,A,4825.1424,N,00428.4553,W,0.00,272.38,090621,,,A*7B
$GPGGA,064005.000,4825.1424,N,00428.4553,W,1,07,1.1,91.7,M,52.0,M,,0000*77
$GPGSA,A,3,25,12,32,29,02,06,31,,,,,,1.9,1.1,1.5*36
$GPRMC,064005.000,A,4825.1424,N,00428.4553,W,0.00,272.38,090621,,,A*7A
$GPGGA,064006.000,4825.1424,N,00428.4553,W,1,07,1.1,91.7,M,52.0,M,,0000*74
$GPGSA,A,3,25,12,32,29,02,06,31,,,,,,1.9,1.1,1.5*36
$GPGSV,3,1,12,25,77,285,42,12,58,059,44,32,48,259,46,29,32,186,37*74
$GPGSV,3,1,12,25,77,285,42,12,58,059,44,32,48,259,46,29,32,186,37*74
$GPGSV,3,2,12,02,22,084,38,06,17,051,38,31,16,300,36,57,68,131,*7D
$GPGSV,3,2,12,02,22,084,38,06,17,051,38,31,16,300,36,57,68,131,*7D
$GPGSV,3,3,12,58,68,131,,59,68,131,,07,45,117,,17,03,340,*78
$GPGSV,3,3,12,58,68,131,,59,68,131,,07,45,117,,17,03,340,*78
$GPRMC,064006.000,A,4825.1424,N,00428.4553,W,0.00,272.38,090621,,,A*79
$GPGGA,064007.000,4825.1424,N,00428.4553,W,1,07,1.1,91.7,M,52.0,M,,0000*75
$GPGSA,A,3,25,12,32,29,02,06,31,,,,,,1.9,1.1,1.5*36
$GPRMC,064007.000,A,4825.1424,N,00428.4553,W,0.00,272.38,090621,,,A*78
$GPGGA,064008.000,4825.1424,N,00428.4553,W,1,07,1.1,91.7,M,52.0,M,,0000*7A
$GPGSA,A,3,25,12,32,29,02,06,31,,,,,,1.9,1.1,1.5*36
$GPRMC,064008.000,A,4825.1424,N,00428.4553,W,0.00,272.38,090621,,,A*77
$GPGGA,064009.000,4825.1424,N,00428.4553,W,1,07,1.1,91.7,M,52.0,M,,0000*7B
$GPGSA,A,3,25,12,32,29,02,06,31,,,,,,1.9,1.1,1.5*36
$GPRMC,064009.000,A,4825.1424,N,00428.4553,W,0.00,272.38,090621,,,A*76
$GPGGA,064010.000,4825.1424,N,00428.4553,W,1,07,1.1,91.7,M,52.0,M,,0000*73
$GPGSA,A,3,25,12,32,29,02,06,31,,,,,,1.9,1.1,1.5*36
$GPRMC,064010.000,A,4825.1424,N,00428.4553,W,0.00,272.38,090621,,,A*7E
$GPGGA,064011.000,4825.1424,N,00428.4553,W,1,07,1.1,91.7,M,52.0,M,,0000*72
$GPGSA,A,3,25,12,32,29,02,06,31,,,,,,1.9,1.1,1.5*36
$GPGSV,3,1,12,25,77,285,43,12,58,059,44,32,48,259,46,29,32,186,37*75
$GPGSV,3,1,12,25,77,285,43,12,58,059,44,32,48,259,46,29,32,186,37*75
$GPGSV,3,2,12,02,22,084,39,06,17,051,38,31,16,300,36,57,68,131,*7C
$GPGSV,3,2,12,02,22,084,39,06,17,051,38,31,16,300,36,57,68,131,*7C
$GPGSV,3,3,12,58,68,131,,59,68,131,,07,45,117,,17,03,340,*78
$GPGSV,3,3,12,58,68,131,,59,68,131,,07,45,117,,17,03,340,*78
$GPRMC,064011.000,A,4825.1424,N,00428.4553,W,0.00,272.38,090621,,,A*7F
$GPGGA,064012.000,4825.1424,N,00428.4553,W,1,07,1.1,91.7,M,52.0,M,,0000*71
$GPGSA,A,3,25,12,32,29,02,06,31,,,,,,1.9,1.1,1.5*36
$GPRMC,064012.000,A,4825.1424,N,00428.4553,W,0.00,272.38,090621,,,A*7C
$GPGGA,064013.000,4825.1424,N,00428.4553,W,1,07,1.1,91.7,M,52.0,M,,0000*70
$GPGSA,A,3,25,12,32,29,02,06,31,,,,,,1.9,1.1,1.5*36
$GPRMC,064013.000,A,4825.1424,N,00428.4553,W,0.00,272.38,090621,,,A*7D
$GPGGA,064014.000,4825.1424,N,00428.4553,W,1,07,1.1,91.7,M,52.0,M,,0000*77
$GPGSA,A,3,25,12,32,29,02,06,31,,,,,,1.9,1.1,1.5*36
$GPRMC,064014.000,A,4825.1424,N,00428.4553,W,0.00,272.38,090621,,,A*7A
$GPGGA,064015.000,4825.1424,N,00428.4553,W,1,07,1.1,91.7,M,52.0,M,,0000*76
$GPGSA,A,3,25,12,32,29,02,06,31,,,,,,1.9,1.1,1.5*36
$GPRMC,064015.000,A,4825.1424,N,00428.4553,W,0.00,272.38,090621,,,A*7B
$GPGGA,064016.000,4825.1424,N,00428.4553,W,1,07,1.1,91.7,M,52.0,M,,0000*75
$GPGSA,A,3,25,12,32,29,02,06,31,,,,,,1.9,1.1,1.5*36
$GPGSV,3,1,12,25,77,285,43,12,58,059,44,32,48,259,46,29,32,186,37*75
$GPGSV,3,1,12,25,77,285,43,12,58,059,44,32,48,259,46,29,32,186,37*75
$GPGSV,3,2,12,02,22,084,39,06,17,051,38,31,16,300,36,57,68,131,*7C
$GPGSV,3,2,12,02,22,084,39,06,17,051,38,31,16,300,36,57,68,131,*7C
$GPGSV,3,3,12,58,68,131,,59,68,131,,07,45,117,,17,03,340,*78
$GPGSV,3,3,12,58,68,131,,59,68,131,,07,45,117,,17,03,340,*78
$GPRMC,064016.000,A,4825.1424,N,00428.4553,W,0.00,272.38,090621,,,A*78
$GPGGA,064017.000,4825.1424,N,00428.4553,W,1,07,1.1,91.7,M,52.0,M,,0000*74
$GPGSA,A,3,25,12,32,29,02,06,31,,,,,,1.9,1.1,1.5*36
$GPRMC,064017.000,A,4825.1424,N,00428.4553,W,0.00,272.38,090621,,,A*79
$GPGGA,064018.000,4825.1424,N,00428.4553,W,1,07,1.1,91.7,M,52.0,M,,0000*7B
$GPGSA,A,3,25,12,32,29,02,06,31,,,,,,1.9,1.1,1.5*36
$GPRMC,064018.000,A,4825.1424,N,00428.4553,W,0.00,272.38,090621,,,A*76
$GPGGA,064019.000,4825.1424,N,00428.4553,W,1,07,1.1,91.7,M,52.0,M,,0000*7A
$GPGSA,A,3,25,12,32,29,02,06,31,,,,,,1.9,1.1,1.5*36
$GPRMC,064019.000,A,4825.1424,N,00428.4553,W,0.00,272.38,090621,,,A*77
$GPGGA,064020.000,4825.1424,N,00428.4553,W,1,07,1.1,91.7,M,52.0,M,,0000*70
$GPGSA,A,3,25,12,32,29,02,06,31,,,,,,1.9,1.1,1.5*36
$GPRMC,064020.000,A,4825.1424,N,00428.4553,W,0.00,272.38,090621,,,A*7D
$GPGGA,064021.000,4825.1424,N,00428.4553,W,1,07,1.1,91.7,M,52.0,M,,0000*71
$GPGSA,A,3,25,12,32,29,02,06,31,,,,,,1.9,1.1,1.5*36
$GPGSV,3,1,12,25,77,285,43,12,58,059,44,32,48,259,46,29,32,186,37*75
$GPGSV,3,1,12,25,77,285,43,12,58,059,44,32,48,259,46,29,32,186,37*75
$GPGSV,3,2,12,02,22,084,38,06,17,051,38,31,16,300,36,57,68,131,*7D
$GPGSV,3,2,12,02,22,084,38,06,17,051,38,31,16,300,36,57,68,131,*7D
$GPGSV,3,3,12,58,68,131,,59,68,131,,07,45,117,,17,03,340,*78
$GPGSV,3,3,12,58,68,131,,59,68,131,,07,45,117,,17,03,340,*78
$GPRMC,064021.000,A,4825.1424,N,00428.4553,W,0.00,272.38,090621,,,A*7C
$GPGGA,064022.000,4825.1424,N,00428.4553,W,1,07,1.1,91.7,M,52.0,M,,0000*72
$GPGSA,A,3,25,12,32,29,02,06,31,,,,,,1.9,1.1,1.5*36
$GPRMC,064022.000,A,4825.1424,N,00428.4553,W,0.00,272.38,090621,,,A*7F
$GPGGA,064023.000,4825.1424,N,00428.4552,W,1,07,1.1,91.7,M,52.0,M,,0000*72
$GPGSA,A,3,25,12,32,29,02,06,31,,,,,,1.9,1.1,1.5*36
$GPRMC,064023.000,A,4825.1424,N,00428.4552,W,0.00,272.38,090621,,,A*7F
$GPGGA,064024.000,4825.1424,N,00428.4552,W,1,07,1.1,91.7,M,52.0,M,,0000*75
$GPGSA,A,3,25,12,32,29,02,06,31,,,,,,1.9,1.1,1.5*36
$GPRMC,064024.000,A,4825.1424,N,00428.4552,W,0.00,272.38,090621,,,A*78
$GPGGA,064025.000,4825.1424,N,00428.4552,W,1,07,1.1,91.7,M,52.0,M,,0000*74
$GPGSA,A,3,25,12,32,29,02,06,31,,,,,,1.9,1.1,1.5*36
$GPRMC,064025.000,A,4825.1424,N,00428.4552,W,0.00,272.38,090621,,,A*79
$GPGGA,064026.000,4825.1424,N,00428.4552,W,1,07,1.1,91.7,M,52.0,M,,0000*77
$GPGSA,A,3,25,12,32,29,02,06,31,,,,,,1.9,1.1,1.5*36
$GPGSV,3,1,12,25,77,285,43,12,58,059,44,32,48,259,46,29,32,186,37*75
$GPGSV,3,1,12,25,77,285,43,12,58,059,44,32,48,259,46,29,32,186,37*75
$GPGSV,3,2,12,02,22,084,38,06,17,051,39,31,16,300,36,57,68,131,*7C
$GPGSV,3,2,12,02,22,084,38,06,17,051,39,31,16,300,36,57,68,131,*7C
$GPGSV,3,3,12,58,68,131,,59,68,131,,07,45,117,,17,03,340,*78
$GPGSV,3,3,12,58,68,131,,59,68,131,,07,45,117,,17,03,340,*78
$GPRMC,064026.000,A,4825.1424,N,00428.4552,W,0.00,272.38,090621,,,A*7A
$GPGGA,064027.000,4825.1424,N,00428.4552,W,1,07,1.1,91.7,M,52.0,M,,0000*76
$GPGSA,A,3,25,12,32,29,02,06,31,,,,,,1.9,1.1,1.5*36
$GPRMC,064027.000,A,4825.1424,N,00428.4552,W,0.00,272.38,090621,,,A*7B
$GPGGA,064028.000,4825.1424,N,00428.4552,W,1,07,1.1,91.7,M,52.0,M,,0000*79
$GPGSA,A,3,25,12,32,29,02,06,31,,,,,,1.9,1.1,1.5*36
$GPRMC,064028.000,A,4825.1424,N,00428.4552,W,0.00,272.38,090621,,,A*74
$GPGGA,064029.000,4825.1424,N,00428.4552,W,1,07,1.1,91.6,M,52.0,M,,0000*79
$GPGSA,A,3,25,12,32,29,02,06,31,,,,,,1.9,1.1,1.5*36
$GPRMC,064029.000,A,4825.1424,N,00428.4552,W,0.00,272.38,090621,,,A*75
$GPGGA,064030.000,4825.1424,N,00428.4552,W,1,07,1.1,91.6,M,52.0,M,,0000*71
$GPGSA,A,3,25,12,32,29,02,06,31,,,,,,1.9,1.1,1.5*36
$GPRMC,064030.000,A,4825.1424,N,00428.4552,W,0.00,272.38,090621,,,A*7D
$GPGGA,064031.000,4825.1424,N,00428.4552,W,1,07,1.1,91.6,M,52.0,M,,0000*70
$GPGSA,A,3,25,12,32,29,02,06,31,,,,,,1.9,1.1,1.5*36
$GPGSV,3,1,12,25,77,285,42,12,58,059,45,32,48,259,46,29,32,186,37*75
$GPGSV,3,1,12,25,77,285,42,12,58,059,45,32,48,259,46,29,32,186,37*75
$GPGSV,3,2,12,02,22,084,38,06,17,051,39,31,16,300,36,57,68,131,*7C
$GPGSV,3,2,12,02,22,084,38,06,17,051,39,31,16,300,36,57,68,131,*7C
$GPGSV,3,3,12,58,68,131,,59,68,131,,07,45,117,,17,03,340,*78
$GPGSV,3,3,12,58,68,131,,59,68,131,,07,45,117,,17,03,340,*78
$GPRMC,064031.000,A,4825.1424,N,00428.4552,W,0.00,272.38,090621,,,A*7C
$GPGGA,064032.000,4825.1424,N,00428.4552,W,1,07,1.1,91.6,M,52.0,M,,0000*73
$GPGSA,A,3,25,12,32,29,02,06,31,,,,,,1.9,1.1,1.5*36
$GPRMC,064032.000,A,4825.1424,N,00428.4552,W,0.00,272.38,090621,,,A*7F
$GPGGA,064033.000,4825.1424,N,00428.4552,W,1,07,1.1,91.6,M,52.0,M,,0000*72
$GPGSA,A,3,25,12,32,29,02,06,31,,,,,,1.9,1.1,1.5*36
$GPRMC,064033.000,A,4825.1424,N,00428.4552,W,0.00,272.38,090621,,,A*7E
$GPGGA,064034.000,4825.1424,N,00428.4552,W,1,07,1.1,91.6,M,52.0,M,,0000*75
$GPGSA,A,3,25,12,32,29,02,06,31,,,,,,1.9,1.1,1.5*36
$GPRMC,064034.000,A,4825.1424,N,00428.4552,W,0.00,272.38,090621,,,A*79
$GPGGA,064035.000,4825.1424,N,00428.4552,W,1,07,1.1,91.6,M,52.0,M,,0000*74
$GPGSA,A,3,25,12,32,29,02,06,31,,,,,,1.9,1.1,1.5*36
$GPRMC,064035.000,A,4825.1424,N,00428.4552,W,0.00,272.38,090621,,,A*78
$GPGGA,064036.000,4825.1424,N,00428.4552,W,1,07,1.1,91.6,M,52.0,M,,0000*77
$GPGSA,A,3,25,12,32,29,02,06,31,,,,,,1.9,1.1,1.6*35
$GPGSV,3,1,12,25,77,285,42,12,58,059,45,32,48,259,46,29,32,186,37*75
$GPGSV,3,1,12,25,77,285,42,12,58,059,45,32,48,259,46,29,32,186,37*75
$GPGSV,3,2,12,02,22,084,38,06,17,051,38,31,16,300,37,57,68,131,*7C
$GPGSV,3,2,12,02,22,084,38,06,17,051,38,31,16,300,37,57,68,131,*7C
$GPGSV,3,3,12,58,68,131,,59,68,131,,07,45,117,,17,03,340,*78
$GPGSV,3,3,12,58,68,131,,59,68,131,,07,45,117,,17,03,340,*78
$GPRMC,064036.000,A,4825.1424,N,00428.4552,W,0.00,272.38,090621,,,A*7B
$GPGGA,064037.000,4825.1424,N,00428.4552,W,1,07,1.1,91.6,M,52.0,M,,0000*76
$GPGSA,A,3,25,12,32,29,02,06,31,,,,,,1.9,1.1,1.6*35
$GPGGA,064038.000,4825.1424,N,00428.4552,W,1,07,1.1,91.6,M,52.0,M,,0000*79
$GPGSA,A,3,25,12,32,29,02,06,31,,,,,,1.9,1.1,1.6*35
$GPRMC,064038.000,A,4825.1424,N,00428.4552,W,0.00,272.38,090621,,,A*75
$GPGGA,064039.000,4825.1424,N,00428.4552,W,1,07,1.1,91.6,M,52.0,M,,0000*78
$GPGSA,A,3,25,12,32,29,02,06,31,,,,,,1.9,1.1,1.6*35
$GPRMC,064039.000,A,4825.1424,N,00428.4552,W,0.00,272.38,090621,,,A*74
$GPGGA,064040.000,4825.1424,N,00428.4552,W,1,07,1.1,91.6,M,52.0,M,,0000*76
$GPGSA,A,3,25,12,32,29,02,06,31,,,,,,1.9,1.1,1.6*35
$GPRMC,064040.000,A,4825.1424,N,00428.4552,W,0.00,272.38,090621,,,A*7A
$GPGGA,064041.000,4825.1424,N,00428.4552,W,1,07,1.1,91.6,M,52.0,M,,0000*77
$GPGSA,A,3,25,12,32,29,02,06,31,,,,,,1.9,1.1,1.6*35
$GPGSV,3,1,12,25,77,285,43,12,58,059,45,32,48,259,46,29,32,186,38*7B
$GPGSV,3,1,12,25,77,285,43,12,58,059,45,32,48,259,46,29,32,186,38*7B
$GPGSV,3,2,12,02,22,084,38,06,17,051,38,31,16,300,37,57,68,131,*7C
$GPGSV,3,2,12,02,22,084,38,06,17,051,38,31,16,300,37,57,68,131,*7C
$GPGSV,3,3,12,58,68,131,,59,68,131,,07,45,117,,17,03,340,*78
$GPGSV,3,3,12,58,68,131,,59,68,131,,07,45,117,,17,03,340,*78
$GPRMC,064041.000,A,4825.1424,N,00428.4552,W,0.00,272.38,090621,,,A*7B
.1,91.6,M,52.0,M,,0000*74
$GPGSA,A,3,25,12,32,29,02,06,31,,,,,,1.9,1.1,1.6*35
$GPRMC,064042.000,A,4825.1424,N,00428.4552,W,0.00,272.38,090621,,,A*78
$GPGGA,064043.000,4825.1424,N,00428.4552,W,1,07,1.9,1.1,1.6*35
$GPRMC,064043.000,A,4825.1424,N,00428.4552,W,0.00,272.38,090621,,,A*79
$GPGGA,064044.000,4825.1424,N,00428.4552,W,1,07,1.1,91.6,M,52.0,M,,0000*72
$GPGSA,A,3,25,12,32,29,02,06,31,,,,,,1.9,1.1,1.6*35
$GPRMC,064044.000,A,4825.1424,N,00428.4552,W,0.00,272.38,090621,,,A*7E
$GPGGA,064045.000,4825.1424,N,00428.4552,W,1,07,1.1,91.6,M,52.0,M,,0000*73
$GPGSA,A,3,25,12,32,29,02,06,31,,,,,,1.9,1.1,1.6*35
$GPRMC,064045.000,A,4825.1424,N,00428.4552,W,0.00,272.38,090621,,,A*7F
$GPGGA,064046.000,4825.1424,N,00428.4552,W,1,07,1.1,91.6,M,52.0,M,,0000*70
$GPGSA,A,3,25,12,32,29,02,06,31,,,,,,1.9,1.1,1.6*35
$GPGSV,3,1,12,25,77,285,43,12,58,059,45,32,48,259,46,29,32,186,38*7B
$GPGSV,3,1,12,25,77,285,43,12,58,059,45,32,48,259,46,29,32,186,38*7B
$GPGSV,3,2,12,02,22,084,38,06,17,051,38,31,16,300,37,57,68,131,*7C
$GPGSV,3,2,12,02,22,084,38,06,17,051,38,31,16,300,37,57,68,131,*7C
$GPGSV,3,3,12,58,68,131,,59,68,131,,07,45,117,,17,03,340,*78
$GPGSV,3,3,12,58,68,131,,59,68,131,,07,45,117,,17,03,340,*78
$GPRMC,064046.000,A,4825.1424,N,00428.4552,W,0.00,272.38,090621,,,A*7C
$GPGGA,064047.000,4825.1424,N,00428.4552,W,1,07,1.1,91.6,M,52.0,M,,0000*71
$GPGGA,064048.000,4825.1424,N,00428.4552,W,1,07,1.1,91.6,M,52.0,M,,0000*7E
$GPGSA,A,3,25,12,32,29,02,06,31,,,,,,1.9,1.1,1.6*35
$GPRMC,064048.000,A,4825.1424,N,00428.4552,W,0.00,272.38,090621,,,A*72
$GPGGA,064049.000,4825.1424,N,00428.4552,W,1,07,1.1,91.6,M,52.0,M,,0000*7F
$GPGSA,A,3,25,12,32,29,02,06,31,,,,,,1.9,1.1,1.6*35
$GPRMC,064049.000,A,4825.1424,N,00428.4552,W,0.00,272.38,090621,,,A*73
$GPGGA,064050.000,4825.1424,N,00428.4552,W,1,07,1.1,91.6,M,52.0,M,,0000*77
$GPGSA,A,3,25,12,32,29,02,06,31,,,,,,1.9,1.1,1.6*35
$GPRMC,064050.000,A,4825.1424,N,00428.4552,W,0.00,272.38,090621,,,A*7B
$GPGGA,064051.000,4825.1424,N,00428.4552,W,1,07,1.1,91.6,M,52.0,M,,0000*76
$GPGSA,A,3,25,12,32,29,02,06,31,,,,,,1.9,1.1,1.6*35
$GPGSV,3,1,12,25,77,285,43,12,58,059,45,32,48,259,46,29,32,186,38*7B
$GPGSV,3,1,12,25,77,285,43,12,58,059,45,32,48,259,46,29,32,186,38*7B
$GPGSV,3,2,12,02,22,084,38,06,17,051,38,31,16,300,37,57,68,131,*7C
$GPGSV,3,2,12,02,22,084,38,06,17,051,38,31,16,300,37,57,68,131,*7C
$GPGSV,3,3,12,58,68,131,,59,68,131,,07,45,117,,17,03,340,*78
$GPGSV,3,3,12,58,68,131,,59,68,131,,07,45,117,,17,03,340,*78
$GPRMC,064051.000,A,4825.1424,N,00428.4552,W,0.00,272.38,090621,,,A*7A
3,25,12,32,29,02,06,31,,,,,,1.9,1.1,1.6*35
$GPRMC,064052.000,A,4825.1424,N,00428.4552,W,0.00,272.38,090621,,,A*79
$GPGGA,064053.000,4825.1424,N,00428.4552,W,1,07,1.1,91.6,M,52.0,M,,0000*74
$GPGSA,A,,1.1,1.6*35
$GPRMC,064053.000,A,4825.1424,N,00428.4552,W,0.00,272.38,090621,,,A*78
$GPGGA,064054.000,4825.1424,N,00428.4552,W,1,07,1.1,91.6,M,52.0,M,,0000*73
$GPGSA,A,3,25,12,32,29,02,06,31,,,,,,1.952,W,0.00,272.38,090621,,,A*7F
$GPGGA,064055.000,4825.1424,N,00428.4552,W,1,07,1.1,91.6,M,52.0,M,,0000*72
$GPGSA,A,3,25,12,32,29,02,06,31,,,,,,1.9,1.1,1.6*35
$GPRMC,064055.000,A,4825.1424,N,00428.4552,W,0.00,272.38,090621,,,A*7E
$GPGGA,064056.000,4825.1424,N,00428.4552,W,1,07,1.1,91.6,M,52.0,M,,0000*71
$GPGSA,A,3,25,12,32,29,02,06,31,,,,,,1.9,1.1,1.6*35
$GPGSV,3,1,12,25,77,285,43,12,58,059,45,32,48,259,46,29,32,186,38*7B
$GPGSV,3,1,12,25,77,285,43,12,58,059,45,32,48,259,46,29,32,186,38*7B
$GPGSV,3,2,12,02,22,084,38,06,17,051,38,31,16,300,37,57,68,131,*7C
$GPGSV,3,2,12,02,22,084,38,06,17,051,38,31,16,300,37,57,68,131,*7C
$GPGSV,3,3,12,58,68,131,,59,68,131,,07,45,117,,17,03,340,*78
$GPGSV,3,3,12,58,68,131,,59,68,131,,07,45,117,,17,03,340,*78
$GPRMC,064056.000,A,4825.1424,N,00428.4552,W,0.00,272.38,090621,,,A*7D
$GPGGA,064057.000,4825.1424,N,00428.4552,W,1,07,1.1,91.6,M,52.0,M,,0000*70
$GPGSA,A,3,25,12,32,29,02,06,31,,,,,,1.9,1.1,1.6*35
$GPRMC,064057.000,A,4825.1424,N,00428.4552,W,0.00,272.38,090621,,,A*7C
$GPGGA,064058.000,4825.1424,N,00428.4552,W,1,07,1.1,91.6,M,52.0,M,,0000*7F
$GPGSA,A,3,25,12,32,29,02,06,31,,,,,,1.9,1.1,1.6*35
$GPRMC,064058.000,A,4825.1424,N,00428.4552,W,0.00,272.38,090621,,,A*73
$GPGGA,064059.000,4825.1424,N,00428.4552,W,1,07,1.1,91.6,M,52.0,M,,0000*7E
$GPGSA,A,3,25,12,32,29,02,06,31,,,,,,1.9,1.1,1.6*35
$GPRMC,064059.000,A,4825.1424,N,00428.4552,W,0.00,272.38,090621,,,A*72
$GPGGA,064100.000,4825.1424,N,00428.4552,W,1,07,1.1,91.6,M,52.0,M,,0000*73
$GPGSA,A,3,25,12,32,29,02,06,31,,,,,,1.9,1.1,1.6*35
$GPRMC,064100.000,A,4825.1424,N,00428.4552,W,0.00,272.38,090621,,,A*7F
$GPGGA,064101.000,4825.1424,N,00428.4552,W,1,07,1.1,91.6,M,52.0,M,,0000*72
$GPGSA,A,3,25,12,32,29,02,06,31,,,,,,1.9,1.1,1.6*35
$GPGSV,3,1,12,25,77,285,43,12,58,059,45,32,48,259,46,29,32,186,38*7B
$GPGSV,3,1,12,25,77,285,43,12,58,059,45,32,48,259,46,29,32,186,38*7B
$GPGSV,3,2,12,02,22,084,39,06,17,051,38,31,16,300,37,57,68,131,*7D
$GPGSV,3,2,12,02,22,084,39,06,17,051,38,31,16,300,37,57,68,131,*7D
$GPGSV,3,3,12,58,68,131,,59,68,131,,07,45,117,,17,03,340,*78
$GPGSV,3,3,12,58,68,131,,59,68,131,,07,45,117,,17,03,340,*78
$GPRMC,064101.000,A,4825.1424,N,00428.4552,W,0.00,272.38,090621,,,A*7E
$GPGGA,064102.000,4825.1424,N,00428.4552,W,1,07,1.1,91.6,M,52.0,M,,0000*71
$GPGSA,A,3,25,12,32,29,02,06,31,,,,,,1.9,1.1,1.6*35
$GPRMC,064102.000,A,4825.1424,N,00428.4552,W,0.00,272.38,090621,,,A*7D
$GPGGA,064103.000,4825.1424,N,00428.4552,W,1,07,1.1,91.6,M,52.0,M,,0000*70
$GPGSA,A,3,25,12,32,29,02,06,31,,,,,,1.9,1.1,1.6*35
$GPRMC,064103.000,A,4825.1424,N,00428.4552,W,0.00,272.38,090621,,,A*7C
$GPGGA,064104.000,4825.1424,N,00428.4552,W,1,07,1.1,91.6,M,52.0,M,,0000*77
$GPGSA,A,3,25,12,32,29,02,06,31,,,,,,1.9,1.1,1.6*35
$GPRMC,064104.000,A,4825.1424,N,00428.4552,W,0.00,272.38,090621,,,A*7B
$GPGGA,064105.000,4825.1424,N,00428.4552,W,1,07,1.1,91.6,M,52.0,M,,0000*76
$GPGSA,A,3,25,12,32,29,02,06,31,,,,,,1.9,1.1,1.6*35
$GPRMC,064105.000,A,4825.1424,N,00428.4552,W,0.00,272.38,090621,,,A*7A
$GPGGA,064106.000,4825.1424,N,00428.4552,W,1,07,1.1,91.6,M,52.0,M,,0000*75
$GPGSA,A,3,25,12,32,29,02,06,31,,,,,,1.9,1.1,1.6*35
$GPGSV,3,1,12,25,77,285,43,12,58,059,45,32,48,259,46,29,32,186,37*74
$GPGSV,3,1,12,25,77,285,43,12,58,059,45,32,48,259,46,29,32,186,37*74
$GPGSV,3,2,12,02,22,084,39,06,17,051,38,31,16,300,37,57,68,131,*7D
$GPGSV,3,2,12,02,22,084,39,06,17,051,38,31,16,300,37,57,68,131,*7D
$GPGSV,3,3,12,58,68,131,,59,68,131,,07,45,117,,17,03,340,*78
$GPGSV,3,3,12,58,68,131,,59,68,131,,07,45,117,,17,03,340,*78
$GPRMC,064106.000,A,4825.1424,N,00428.4552,W,0.00,272.38,090621,,,A*79
$GPGGA,064107.000,4825.1424,N,00428.4552,W,1,07,1.1,91.6,M,52.0,M,,0000*74
$GPGSA,A,3,25,12,32,29,02,06,31,,,,,,1.9,1.1,1.6*35
$GPRMC,064107.000,A,4825.1424,N,00428.4552,W,0.00,272.38,090621,,,A*78
$GPGGA,064108.000,4825.1424,N,00428.4552,W,1,07,1.1,91.6,M,52.0,M,,0000*7B
$GPGSA,A,3,25,12,32,29,02,06,31,,,,,,1.9,1.1,1.6*35
$GPRMC,064108.000,A,4825.1424,N,00428.4552,W,0.00,272.38,090621,,,A*77
$GPGGA,064109.000,4825.1424,N,00428.4552,W,1,07,1.1,91.6,M,52.0,M,,0000*7A
$GPGSA,A,3,25,12,32,29,02,06,31,,,,,,1.9,1.1,1.6*35
$GPRMC,064109.000,A,4825.1424,N,00428.4552,W,0.00,272.38,090621,,,A*76
$GPGGA,064110.000,4825.1424,N,00428.4552,W,1,07,1.1,91.6,M,52.0,M,,0000*72
$GPGSA,A,3,25,12,32,29,02,06,31,,,,,,1.9,1.1,1.6*35
$GPRMC,064110.000,A,4825.1424,N,00428.4552,W,0.00,272.38,090621,,,A*7E
$GPGGA,064111.000,4825.1424,N,00428.4552,W,1,07,1.1,91.6,M,52.0,M,,0000*73
$GPGSA,A,3,25,12,32,29,02,06,31,,,,,,1.9,1.1,1.6*35
$GPGSV,3,1,12,25,77,285,43,12,58,059,44,32,48,259,46,29,32,186,37*75
$GPGSV,3,1,12,25,77,285,43,12,58,059,44,32,48,259,46,29,32,186,37*75
$GPGSV,3,2,12,02,22,084,39,06,17,051,38,31,16,300,37,57,68,131,*7D
$GPGSV,3,2,12,02,22,084,39,06,17,051,38,31,16,300,37,57,68,131,*7D
$GPGSV,3,3,12,58,68,131,,59,68,131,,07,45,117,,17,03,340,*78
$GPGSV,3,3,12,58,68,131,,59,68,131,,07,45,117,,17,03,340,*78
$GPRMC,064111.000,A,4825.1424,N,00428.4552,W,0.00,272.38,090621,,,A*7F
$GPGGA,064112.000,4825.1424,N,00428.4552,W,1,07,1.1,91.6,M,52.0,M,,0000*70
$GPGSA,A,3,25,12,32,29,02,06,31,,,,,,1.9,1.1,1.6*35
$GPRMC,064112.000,A,4825.1424,N,00428.4552,W,0.00,272.38,090621,,,A*7C
$GPGGA,064113.000,4825.1424,N,00428.4552,W,1,07,1.1,91.6,M,52.0,M,,0000*71
$GPGSA,A,3,25,12,32,29,02,31,06,,,,,,1.9,1.1,1.6*35
$GPRMC,064113.000,A,4825.1424,N,00428.4552,W,0.00,272.38,090621,,,A*7D
$GPGGA,064114.000,4825.1424,N,00428.4552,W,1,07,1.1,91.6,M,52.0,M,,0000*76
$GPGSA,A,3,25,12,32,29,02,31,06,,,,,,1.9,1.1,1.6*35
$GPRMC,064114.000,A,4825.1424,N,00428.4552,W,0.00,272.38,090621,,,A*7A
$GPGGA,064115.000,4825.1424,N,00428.4552,W,1,07,1.1,91.6,M,52.0,M,,0000*77
$GPGSA,A,3,25,12,32,29,02,31,06,,,,,,1.9,1.1,1.6*35
$GPRMC,064115.000,A,4825.1424,N,00428.4552,W,0.00,272.38,090621,,,A*7B
$GPGGA,064116.000,4825.1424,N,00428.4552,W,1,07,1.1,91.6,M,52.0,M,,0000*74
$GPGSA,A,3,25,12,32,29,02,31,06,,,,,,1.9,1.1,1.6*35
$GPGSV,3,1,12,25,78,288,43,12,57,060,44,32,47,257,46,29,33,186,37*72
$GPGSV,3,1,12,25,78,288,43,12,57,060,44,32,47,257,46,29,33,186,37*72
$GPGSV,3,2,12,02,23,083,37,31,17,301,37,06,17,050,38,57,68,131,*74
$GPGSV,3,2,12,02,23,083,37,31,17,301,37,06,17,050,38,57,68,131,*74
$GPGSV,3,3,12,58,68,131,,59,68,131,,07,46,116,,17,04,339,*73
$GPGSV,3,3,12,58,68,131,,59,68,131,,07,46,116,,17,04,339,*73
$GPRMC,064116.000,A,4825.1424,N,00428.4552,W,0.00,272.38,090621,,,A*78
$GPGGA,064117.000,4825.1424,N,00428.4552,W,1,07,1.1,91.6,M,52.0,M,,0000*75
$GPGSA,A,3,25,12,32,29,02,31,06,,,,,,1.9,1.1,1.6*35
$GPGGA,064118.000,4825.1424,N,00428.4552,W,1,07,1.1,91.6,M,52.0,M,,0000*7A
$GPGSA,A,3,25,12,32,29,02,31,06,,,,,,1.9,1.1,1.6*35
$GPRMC,064118.000,A,4825.1424,N,00428.4552,W,0.00,272.38,090621,,,A*76
$GPGGA,064119.000,4825.1424,N,00428.4552,W,1,07,1.1,91.5,M,52.0,M,,0000*78
$GPGSA,A,3,25,12,32,29,02,31,06,,,,,,1.9,1.1,1.6*35
$GPRMC,064119.000,A,4825.1424,N,00428.4552,W,0.00,272.38,090621,,,A*77
$GPGGA,064120.000,4825.1424,N,00428.4552,W,1,07,1.1,91.5,M,52.0,M,,0000*72
$GPGSA,A,3,25,12,32,29,02,31,06,,,,,,1.9,1.1,1.6*35
$GPRMC,064120.000,A,4825.1424,N,00428.4552,W,0.00,272.38,090621,,,A*7D
$GPGGA,064121.000,4825.1424,N,00428.4552,W,1,07,1.1,91.5,M,52.0,M,,0000*73
$GPGSA,A,3,25,12,32,29,02,31,06,,,,,,1.9,1.1,1.6*35
$GPGSV,3,1,12,25,78,288,43,12,57,060,45,32,47,257,46,29,33,186,37*73
$GPGSV,3,1,12,25,78,288,43,12,57,060,45,32,47,257,46,29,33,186,37*73
$GPGSV,3,2,12,02,23,083,38,31,17,301,37,06,17,050,38,57,68,131,*7B
$GPGSV,3,2,12,02,23,083,38,31,17,301,37,06,17,050,38,57,68,131,*7B
$GPGSV,3,3,12,58,68,131,,59,68,131,,07,46,116,,17,04,339,*73
$GPGSV,3,3,12,58,68,131,,59,68,131,,07,46,116,,17,04,339,*73
$GPRMC,064121.000,A,4825.1424,N,00428.4552,W,0.00,272.38,090621,,,A*7C
32,29,02,31,06,,,,,,1.9,1.1,1.6*35
$GPRMC,064122.000,A,4825.1424,N,00428.4552,W,0.00,272.38,090621,,,A*7F
$GPGGA,064123.000,4825.1424,N,00428.4552,W,1,07,1.1,91.5,M,52.0,M,,0000*71
$GPGSA,A,3,25,12,4123.000,A,4825.1424,N,00428.4552,W,0.00,272.38,090621,,,A*7E
$GPGGA,064124.000,4825.1424,N,00428.4552,W,1,07,1.1,91.5,M,52.0,M,,0000*76
$GPGSA,A,3,25,12,32,29,02,31,06,,,,,,1.9,1.1,1.6*35
$GPRMC,064124.000,A,4825.1424,N,00428.4552,W,0.00,272.38,090621,,,A*79
$GPGGA,064125.000,4825.1424,N,00428.4551,W,1,07,1.1,91.5,M,52.0,M,,0000*74
$GPGSA,A,3,25,12,32,29,02,31,06,,,,,,1.9,1.1,1.6*35
$GPRMC,064125.000,A,4825.1424,N,00428.4551,W,0.00,272.38,090621,,,A*7B
$GPGGA,064126.000,4825.1424,N,00428.4551,W,1,07,1.1,91.5,M,52.0,M,,0000*77
$GPGSA,A,3,25,12,32,29,02,31,06,,,,,,1.9,1.1,1.6*35
$GPGSV,3,1,12,25,78,288,43,12,57,060,45,32,47,257,46,29,33,186,37*73
$GPGSV,3,1,12,25,78,288,43,12,57,060,45,32,47,257,46,29,33,186,37*73
$GPGSV,3,2,12,02,23,083,39,31,17,301,37,06,17,050,38,57,68,131,*7A
$GPGSV,3,2,12,02,23,083,39,31,17,301,37,06,17,050,38,57,68,131,*7A
$GPGSV,3,3,12,58,68,131,,59,68,131,,07,46,116,,17,04,339,*73
$GPGSV,3,3,12,58,68,131,,59,68,131,,07,46,116,,17,04,339,*73
$GPRMC,064126.000,A,4825.1424,N,00428.4551,W,0.00,272.38,090621,,,A*78
$GPGGA,064127.000,4825.1424,N,00428.4551,W,1,07,1.1,91.5,M,52.0,M,,0000*76
$GPGSA,A,3,25,12,32,29,02,31,06,,,,,,1.9,1.1,1.6*35
$GPGGA,064128.000,4825.1424,N,00428.4551,W,1,07,1.1,91.5,M,52.0,M,,0000*79
$GPGSA,A,3,25,12,32,29,02,31,06,,,,,,1.9,1.1,1.6*35
$GPRMC,064128.000,A,4825.1424,N,00428.4551,W,0.00,272.38,090621,,,A*76
GPGGA,064129.000,4825.1424,N,00428.4551,W,1,07,1.1,91.5,M,52.0,M,,0000*78
$GPGSA,A,3,25,12,32,29,02,31,06,,,,,,1.9,1.1,1.6*35
$GPRMC,064129.000,A,4825.1424,N,00428.4551,W,0.00,272.38,090621,,,A*77
$GPGGA,064130.000,4825.1424,N,00428.4551,W,1,07,1.1,91.5,M,52.0,M,,0000*70
$GPGSA,A,3,25,12,32,29,02,31,06,,,,,,1.9,1.1,1.6*35
$GPRMC,064130.000,A,4825.1424,N,00428.4551,W,0.00,272.38,090621,,,A*7F
$GPGGA,064131.000,4825.1424,N,00428.4551,W,1,07,1.1,91.5,M,52.0,M,,0000*71
$GPGSA,A,3,25,12,32,29,02,31,06,,,,,,1.9,1.1,1.6*35
$GPGSV,3,1,12,25,78,288,43,12,57,060,44,32,47,257,46,29,33,186,37*72
$GPGSV,3,1,12,25,78,288,43,12,57,060,44,32,47,257,46,29,33,186,37*72
$GPGSV,3,2,12,02,23,083,39,31,17,301,37,06,17,050,38,57,68,131,*7A
$GPGSV,3,2,12,02,23,083,39,31,17,301,37,06,17,050,38,57,68,131,*7A
$GPGSV,3,3,12,58,68,131,,59,68,131,,07,46,116,,17,04,339,*73
$GPGSV,3,3,12,58,68,131,,59,68,131,,07,46,116,,17,04,339,*73
$GPRMC,064131.000,A,4825.1424,N,00428.4551,W,0.00,272.38,090621,,,A*7E
$MC,064132.000,A,4825.1424,N,00428.4551,W,0.00,272.38,090621,,,A*7D
$GPGGA,064133.000,4825.1424,N,00428.4551,W,1,07,1.1,91.5,M,52.0,M,,0000*73
$GPGSA,A,3,25,12,32,29,02,31,06,,,,,,1.9,1.1,1.6*35
$GPR,272.38,090621,,,A*7C
$GPGGA,064134.000,4825.1424,N,00428.4551,W,1,07,1.1,91.5,M,52.0,M,,0000*74
$GPGSA,A,3,25,12,32,29,02,31,06,,,,,,1.9,1.1,1.6*35
$GPGGA,064135.000,4825.1424,N,00428.4551,W,1,07,1.1,91.5,M,52.0,M,,0000*75
$GPGSA,A,3,25,12,32,29,02,31,06,,,,,,1.9,1.1,1.6*35
$GPRMC,064135.000,A,4825.1424,N,00428.4551,W,0.00,272.38,090621,,,A*7A
$GPGGA,064136.000,4825.1424,N,00428.4551,W,1,07,1.1,91.5,M,52.0,M,,0000*76
$GPGSA,A,3,25,12,32,29,02,31,06,,,,,,1.9,1.1,1.6*35
$GPGSV,3,1,12,25,78,288,43,12,57,060,44,32,47,257,46,29,33,186,37*72
$GPGSV,3,1,12,25,78,288,43,12,57,060,44,32,47,257,46,29,33,186,37*72
$GPGSV,3,2,12,02,23,083,38,31,17,301,37,06,17,050,38,57,68,131,*7B
$GPGSV,3,2,12,02,23,083,38,31,17,301,37,06,17,050,38,57,68,131,*7B
$GPGSV,3,3,12,58,68,131,,59,68,131,,07,46,116,,17,04,339,*73
$GPGSV,3,3,12,58,68,131,,59,68,131,,07,46,116,,17,04,339,*73
$GPRMC,064136.000,A,4825.1424,N,00428.4551,W,0.00,272.38,090621,,,A*79
$GPGGA,064137.000,4825.1424,N,00428.4551,W,1,07,1.1,91.5,M,52.0,M,,0000*77
$GPGSA,A,3,25,12,32,29,02,31,06,,,,,,1.9,1.1,1.6*35
$GPRMC,064137.000,A,4825.1424,N,00428.4551,W,0.00,272.38,090621,,,A*78
$GPGGA,064138.000,4825.1424,N,00428.4551,W,1,07,1.1,91.5,M,52.0,M,,0000*78
$GPGSA,A,3,25,12,32,29,02,31,06,,,,,,1.9,1.1,1.6*35
