$GPRMC,092456.000,A,4825.1435,N,00428.4537,W,0.00,217.61,090621,,,A*7C
$GPGGA,092457.000,4825.1435,N,00428.4537,W,1,05,1.7,87.1,M,52.0,M,,0000*7A
$GPGSA,A,3,31,29,26,18,25,,,,,,,,4.4,1.7,4.0*33
$GPRMC,092457.000,A,4825.1435,N,00428.4537,W,0.00,217.61,090621,,,A*7D
$GPGGA,092458.000,4825.1435,N,00428.4538,W,1,05,1.7,87.1,M,52.0,M,,0000*7A
$GPGSA,A,3,31,29,26,18,25,,,,,,,,4.4,1.7,4.0*33
$GPRMC,092458.000,A,4825.1435,N,00428.4538,W,0.00,217.61,090621,,,A*7D
$GPGGA,092459.000,4825.1435,N,00428.4538,W,1,05,1.7,87.1,M,52.0,M,,0000*7B
$GPGSA,A,3,31,29,26,18,25,,,,,,,,4.4,1.7,4.0*33
$GPRMC,092459.000,A,4825.1435,N,00428.4538,W,0.00,217.61,090621,,,A*7C
$GPGGA,092500.000,4825.1435,N,00428.4538,W,1,06,1.6,87.1,M,52.0,M,,0000*74
$GPGSA,A,3,31,29,26,18,25,05,,,,,,,2.8,1.6,2.4*3F
$GPRMC,092500.000,A,4825.1435,N,00428.4538,W,0.00,217.61,090621,,,A*71
$GPGGA,092501.000,4825.1435,N,00428.4538,W,1,06,1.6,87.1,M,52.0,M,,0000*75
$GPGSA,A,3,31,29,26,18,25,05,,,,,,,2.8,1.6,2.4*3F
$GPGSV,3,1,12,31,63,228,39,29,60,056,42,26,49,294,44,18,38,155,35*76
$GPGSV,3,1,12,31,63,228,39,29,60,056,42,26,49,294,44,18,38,155,35*76
$GPGSV,3,2,12,25,29,104,34,05,08,073,28,57,68,131,,58,68,131,*79
$GPGSV,3,2,12,25,29,104,34,05,08,073,28,57,68,131,,58,68,131,*79
$GPGSV,3,3,12,59,68,131,,14,31,267,,15,18,261,,07,14,048,*79
$GPGSV,3,3,12,59,68,131,,14,31,267,,15,18,261,,07,14,048,*79
$GPRMC,092501.000,A,4825.1435,N,00428.4538,W,0.00,217.61,090621,,,A*70
$GPGGA,092502.000,4825.1435,N,00428.4538,W,1,06,1.6,87.1,M,52.0,M,,0000*76
$GPGSA,A,3,31,29,26,18,25,05,,,,,,,2.8,1.6,2.4*3F
$GPRMC,092502.000,A,4825.1435,N,00428.4538,W,0.00,217.61,090621,,,A*73
$GPGGA,092503.000,4825.1435,N,00428.4538,W,1,06,1.6,87.1,M,52.0,M,,0000*77
$GPGSA,A,3,31,29,26,18,25,05,,,,,,,2.8,1.6,2.4*3F
$GPRMC,092503.000,A,4825.1435,N,00428.4538,W,0.00,217.61,090621,,,A*72
$GPGGA,092504.000,4825.1435,N,00428.4538,W,1,06,1.6,87.1,M,52.0,M,,0000*70
$GPGSA,A,3,31,29,26,18,25,05,,,,,,,2.8,1.6,2.4*3F
$GPRMC,092504.000,A,4825.1435,N,00428.4538,W,0.00,217.61,090621,,,A*75
$GPGGA,092505.000,4825.1435,N,00428.4538,W,1,06,1.6,87.1,M,52.0,M,,0000*71
$GPGSA,A,3,31,29,26,18,25,05,,,,,,,2.8,1.6,2.4*3F
$GPRMC,092505.000,A,4825.1435,N,00428.4538,W,0.00,217.61,090621,,,A*74
$GPGGA,092506.000,4825.1435,N,00428.4538,W,1,06,1.6,87.1,M,52.0,M,,0000*72
$GPGSA,A,3,31,29,26,18,25,05,,,,,,,2.8,1.6,2.4*3F
$GPGSV,3,1,12,31,63,228,39,29,60,056,42,26,49,294,44,18,38,155,35*76
$GPGSV,3,1,12,31,63,228,39,29,60,056,42,26,49,294,44,18,38,155,35*76
$GPGSV,3,2,12,25,29,104,34,05,08,073,28,57,68,131,,58,68,131,*79
$GPGSV,3,2,12,25,29,104,34,05,08,073,28,57,68,131,,58,68,131,*79
$GPGSV,3,3,12,59,68,131,,14,31,267,,15,18,261,,07,14,048,*79
$GPGSV,3,3,12,59,68,131,,14,31,267,,15,18,261,,07,14,048,*79
$GPRMC,092506.000,A,4825.1435,N,00428.4538,W,0.00,217.61,090621,,,A*77
$GPGGA,092507.000,4825.1435,N,00428.4538,W,1,06,1.6,87.1,M,52.0,M,,0000*73
$GPGSA,A,3,31,29,26,18,25,05,,,,,,,2.8,1.6,2.4*3F
$GPRMC,092507.000,A,4825.1435,N,00428.4538,W,0.00,217.61,090621,,,A*76
$GPGGA,092508.000,4825.1434,N,00428.4538,W,1,06,1.6,87.1,M,52.0,M,,0000*7D
$GPGSA,A,3,31,29,26,18,25,05,,,,,,,2.8,1.6,2.4*3F
$GPRMC,092508.000,A,4825.1434,N,00428.4538,W,0.00,217.61,090621,,,A*78
$GPGGA,092509.000,4825.1434,N,00428.4538,W,1,06,1.6,87.1,M,52.0,M,,0000*7C
$GPGSA,A,3,31,29,26,18,25,05,,,,,,,2.8,1.6,2.4*3F
$GPRMC,092509.000,A,4825.1434,N,00428.4538,W,0.00,217.61,090621,,,A*79
$GPGGA,092510.000,4825.1434,N,00428.4538,W,1,06,1.6,87.1,M,52.0,M,,0000*74
$GPGSA,A,3,31,29,26,18,25,05,,,,,,,2.8,1.6,2.4*3F
$GPRMC,092510.000,A,4825.1434,N,00428.4538,W,0.00,217.61,090621,,,A*71
$GPGGA,092511.000,4825.1434,N,00428.4538,W,1,06,1.6,87.1,M,52.0,M,,0000*75
$GPGSA,A,3,31,29,26,18,25,05,,,,,,,2.8,1.6,2.4*3F
$GPGSV,3,1,12,31,63,228,38,29,60,056,42,26,49,294,44,18,38,155,35*77
$GPGSV,3,1,12,31,63,228,38,29,60,056,42,26,49,294,44,18,38,155,35*77
$GPGSV,3,2,12,25,29,104,36,05,08,073,27,57,68,131,,58,68,131,*74
$GPGSV,3,2,12,25,29,104,36,05,08,073,27,57,68,131,,58,68,131,*74
$GPGSV,3,3,12,59,68,131,,14,31,267,,15,18,261,,07,14,048,*79
$GPGSV,3,3,12,59,68,131,,14,31,267,,15,18,261,,07,14,048,*79
$GPRMC,092511.000,A,4825.1434,N,00428.4538,W,0.00,217.61,090621,,,A*70
$GPGGA,092512.000,4825.1434,N,00428.4538,W,1,06,1.6,87.1,M,52.0,M,,0000*76
$GPGSA,A,3,31,29,26,18,25,05,,,,,,,2.8,1.6,2.4*3F
$GPRMC,092512.000,A,4825.1434,N,00428.4538,W,0.00,217.61,090621,,,A*73
$GPGGA,092513.000,4825.1434,N,00428.4538,W,1,06,1.6,87.1,M,52.0,M,,0000*77
$GPGSA,A,3,31,29,26,18,25,05,,,,,,,2.8,1.6,2.4*3F
$GPRMC,092513.000,A,4825.1434,N,00428.4538,W,0.00,217.61,090621,,,A*72
$GPGGA,092514.000,4825.1434,N,00428.4538,W,1,06,1.6,87.1,M,52.0,M,,0000*70
$GPGSA,A,3,31,29,26,18,25,05,,,,,,,2.8,1.6,2.4*3F
$GPRMC,092514.000,A,4825.1434,N,00428.4538,W,0.00,217.61,090621,,,A*75
$GPGGA,092515.000,4825.1434,N,00428.4538,W,1,06,1.6,87.1,M,52.0,M,,0000*71
$GPGSA,A,3,31,29,26,18,25,05,,,,,,,2.8,1.6,2.4*3F
$GPRMC,092515.000,A,4825.1434,N,00428.4538,W,0.00,217.61,090621,,,A*74
$GPGGA,092516.000,4825.1434,N,00428.4538,W,1,06,1.6,87.1,M,52.0,M,,0000*72
$GPGSA,A,3,31,29,26,18,25,05,,,,,,,2.8,1.6,2.4*3F
$GPGSV,3,1,12,31,63,228,39,29,60,056,43,26,49,294,44,18,38,155,34*76
$GPGSV,3,1,12,31,63,228,39,29,60,056,43,26,49,294,44,18,38,155,34*76
$GPGSV,3,2,12,25,29,104,39,05,08,073,26,57,68,131,,58,68,131,*7A
$GPGSV,3,2,12,25,29,104,39,05,08,073,26,57,68,131,,58,68,131,*7A
$GPGSV,3,3,12,59,68,131,,14,31,267,,15,18,261,,07,14,048,*79
$GPGSV,3,3,12,59,68,131,,14,31,267,,15,18,261,,07,14,048,*79
$GPRMC,092516.000,A,4825.1434,N,00428.4538,W,0.00,217.61,090621,,,A*77
$GPGGA,092517.000,4825.1434,N,00428.4538,W,1,06,1.6,87.1,M,52.0,M,,0000*73
$GPGSA,A,3,31,29,26,18,25,05,,,,,,,2.8,1.6,2.4*3F
$GPRMC,092517.000,A,4825.1434,N,00428.4538,W,0.00,217.61,090621,,,A*76
$GPGGA,092518.000,4825.1434,N,00428.4538,W,1,06,1.6,87.1,M,52.0,M,,0000*7C
$GPGSA,A,3,31,29,26,18,25,05,,,,,,,2.8,1.6,2.4*3F
$GPRMC,092518.000,A,4825.1434,N,00428.4538,W,0.00,217.61,090621,,,A*79
$GPGGA,092519.000,4825.1434,N,00428.4538,W,1,06,1.6,87.1,M,52.0,M,,0000*7D
$GPGSA,A,3,31,29,26,18,25,05,,,,,,,2.8,1.6,2.4*3F
$GPRMC,092519.000,A,4825.1434,N,00428.4538,W,0.00,217.61,090621,,,A*78
$GPGGA,092520.000,4825.1434,N,00428.4538,W,1,06,1.6,87.1,M,52.0,M,,0000*77
$GPGSA,A,3,31,29,26,18,25,05,,,,,,,2.8,1.6,2.4*3F
$GPRMC,092520.000,A,4825.1434,N,00428.4538,W,0.00,217.61,090621,,,A*72
$GPGGA,092521.000,4825.1434,N,00428.4538,W,1,06,1.6,87.1,M,52.0,M,,0000*76
$GPGSA,A,3,31,29,26,18,25,05,,,,,,,2.8,1.6,2.4*3F
$GPGSV,3,1,12,31,63,228,38,29,60,056,44,26,49,294,44,18,38,155,34*70
$GPGSV,3,1,12,31,63,228,38,29,60,056,44,26,49,294,44,18,38,155,34*70
$GPGSV,3,2,12,25,29,104,39,05,08,073,27,57,68,131,,58,68,131,*7B
$GPGSV,3,2,12,25,29,104,39,05,08,073,27,57,68,131,,58,68,131,*7B
$GPGSV,3,3,12,59,68,131,,14,31,267,,15,18,261,,07,14,048,*79
$GPGSV,3,3,12,59,68,131,,14,31,267,,15,18,261,,07,14,048,*79
$GPRMC,092521.000,A,4825.1434,N,00428.4538,W,0.00,217.61,090621,,,A*73
$GPGGA,092522.000,4825.1434,N,00428.4538,W,1,06,1.6,87.1,M,52.0,M,,0000*75
$GPGSA,A,3,31,29,26,18,25,05,,,,,,,2.8,1.6,2.4*3F
$GPRMC,092522.000,A,4825.1434,N,00428.4538,W,0.00,217.61,090621,,,A*70
$GPGGA,092523.000,4825.1434,N,00428.4538,W,1,06,1.6,87.1,M,52.0,M,,0000*74
$GPGSA,A,3,31,29,26,18,25,05,,,,,,,2.8,1.6,2.4*3F
$GPRMC,092523.000,A,4825.1434,N,00428.4538,W,0.00,217.61,090621,,,A*71
$GPGGA,092524.000,4825.1434,N,00428.4538,W,1,06,1.6,87.1,M,52.0,M,,0000*73
$GPGSA,A,3,31,29,26,18,25,05,,,,,,,2.8,1.6,2.4*3F
$GPRMC,092524.000,A,4825.1434,N,00428.4538,W,0.00,217.61,090621,,,A*76
$GPGGA,092525.000,4825.1434,N,00428.4538,W,1,06,1.6,87.1,M,52.0,M,,0000*72
$GPGSA,A,3,31,29,26,18,25,05,,,,,,,2.8,1.6,2.4*3F
$GPRMC,092525.000,A,4825.1434,N,00428.4538,W,0.00,217.61,090621,,,A*77
$GPGGA,092526.000,4825.1434,N,00428.4538,W,1,06,1.6,87.1,M,52.0,M,,0000*71
$GPGSA,A,3,31,29,26,18,25,05,,,,,,,2.8,1.6,2.4*3F
$GPGSV,3,1,12,31,63,228,39,29,60,056,43,26,49,294,44,18,38,155,42*77
$GPGSV,3,1,12,31,63,228,39,29,60,056,43,26,49,294,44,18,38,155,42*77
$GPGSV,3,2,12,25,29,104,32,05,08,073,27,57,68,131,,58,68,131,*70
$GPGSV,3,2,12,25,29,104,32,05,08,073,27,57,68,131,,58,68,131,*70
$GPGSV,3,3,12,59,68,131,,14,31,267,,15,18,261,,07,14,048,*79
$GPGSV,3,3,12,59,68,131,,14,31,267,,15,18,261,,07,14,048,*79
$GPRMC,092526.000,A,4825.1434,N,00428.4538,W,0.00,217.61,090621,,,A*74
$GPGGA,092527.000,4825.1434,N,00428.4538,W,1,06,1.6,87.1,M,52.0,M,,0000*70
$GPGSA,A,3,31,29,26,18,25,05,,,,,,,2.8,1.6,2.4*3F
$GPRMC,092527.000,A,4825.1434,N,00428.4538,W,0.00,217.61,090621,,,A*75
$GPGGA,092528.000,4825.1434,N,00428.4538,W,1,06,1.6,87.1,M,52.0,M,,0000*7F
$GPGSA,A,3,31,29,26,18,25,05,,,,,,,2.9,1.6,2.4*3E
$GPRMC,092528.000,A,4825.1434,N,00428.4538,W,0.00,217.61,090621,,,A*7A
$GPGGA,092529.000,4825.1434,N,00428.4538,W,1,06,1.6,87.1,M,52.0,M,,0000*7E
$GPGSA,A,3,31,29,26,18,25,05,,,,,,,2.9,1.6,2.4*3E
$GPRMC,092529.000,A,4825.1434,N,00428.4538,W,0.00,217.61,090621,,,A*7B
$GPGGA,092530.000,4825.1434,N,00428.4538,W,1,06,1.6,87.1,M,52.0,M,,0000*76
$GPGSA,A,3,31,29,26,18,25,05,,,,,,,2.9,1.6,2.4*3E
$GPRMC,092530.000,A,4825.1434,N,00428.4538,W,0.00,217.61,090621,,,A*73
$GPGGA,092531.000,4825.1434,N,00428.4538,W,1,06,1.6,87.1,M,52.0,M,,0000*77
$GPGSA,A,3,31,29,26,18,25,05,,,,,,,2.9,1.6,2.4*3E
$GPGSV,3,1,12,31,63,228,39,29,60,056,43,26,49,294,44,18,38,155,42*77
$GPGSV,3,1,12,31,63,228,39,29,60,056,43,26,49,294,44,18,38,155,42*77
$GPGSV,3,2,12,25,29,104,32,05,08,073,22,57,68,131,,58,68,131,*75
$GPGSV,3,2,12,25,29,104,32,05,08,073,22,57,68,131,,58,68,131,*75
$GPGSV,3,3,12,59,68,131,,14,31,267,,15,18,261,,07,14,048,*79
$GPGSV,3,3,12,59,68,131,,14,31,267,,15,18,261,,07,14,048,*79
$GPRMC,092531.000,A,4825.1434,N,00428.4538,W,0.00,217.61,090621,,,A*72
$GPGGA,092532.000,4825.1434,N,00428.4538,W,1,06,1.6,87.1,M,52.0,M,,0000*74
$GPGSA,A,3,31,29,26,18,25,05,,,,,,,2.9,1.6,2.4*3E
$GPRMC,092532.000,A,4825.1434,N,00428.4538,W,0.00,217.61,090621,,,A*71
$GPGGA,092533.000,4825.1434,N,00428.4538,W,1,06,1.6,87.1,M,52.0,M,,0000*75
$GPGSA,A,3,31,29,26,18,25,05,,,,,,,2.9,1.6,2.4*3E
$GPRMC,092533.000,A,4825.1434,N,00428.4538,W,0.00,217.61,090621,,,A*70
$GPGGA,092534.000,4825.1434,N,00428.4538,W,1,06,1.6,87.1,M,52.0,M,,0000*72
$GPGSA,A,3,31,29,26,18,25,05,,,,,,,2.9,1.6,2.4*3E
$GPRMC,092534.000,A,4825.1434,N,00428.4538,W,0.00,217.61,090621,,,A*77
$GPGGA,092535.000,4825.1434,N,00428.4538,W,1,06,1.6,87.0,M,52.0,M,,0000*72
$GPGSA,A,3,31,29,26,18,25,05,,,,,,,2.9,1.6,2.4*3E
$GPRMC,092535.000,A,4825.1434,N,00428.4538,W,0.00,217.61,090621,,,A*76
$GPGGA,092536.000,4825.1434,N,00428.4538,W,1,06,1.6,87.0,M,52.0,M,,0000*71
$GPGSA,A,3,31,29,26,18,25,05,,,,,,,2.9,1.6,2.4*3E
$GPGSV,3,1,12,31,63,228,39,29,60,056,43,26,49,294,44,18,38,155,41*74
$GPGSV,3,1,12,31,63,228,39,29,60,056,43,26,49,294,44,18,38,155,41*74
$GPGSV,3,2,12,25,29,104,36,05,08,073,25,57,68,131,,58,68,131,*76
$GPGSV,3,2,12,25,29,104,36,05,08,073,25,57,68,131,,58,68,131,*76
$GPGSV,3,3,12,59,68,131,,14,31,267,,15,18,261,,07,14,048,*79
$GPGSV,3,3,12,59,68,131,,14,31,267,,15,18,261,,07,14,048,*79
$GPRMC,092536.000,A,4825.1434,N,00428.4538,W,0.00,217.61,090621,,,A*75
$GPGGA,092537.000,4825.1434,N,00428.4538,W,1,06,1.6,87.0,M,52.0,M,,0000*70
$GPGSA,A,3,31,29,26,18,25,05,,,,,,,2.9,1.6,2.4*3E
$GPRMC,092537.000,A,4825.1434,N,00428.4538,W,0.00,217.61,090621,,,A*74
$GPGGA,092538.000,4825.1434,N,00428.4538,W,1,06,1.6,87.0,M,52.0,M,,0000*7F
$GPGSA,A,3,31,29,26,18,25,05,,,,,,,2.9,1.6,2.4*3E
$GPRMC,092538.000,A,4825.1434,N,00428.4538,W,0.00,217.61,090621,,,A*7B
$GPGGA,092539.000,4825.1434,N,00428.4538,W,1,06,1.6,87.0,M,52.0,M,,0000*7E
$GPGSA,A,3,31,29,26,18,25,05,,,,,,,2.9,1.6,2.4*3E
$GPRMC,092539.000,A,4825.1434,N,00428.4538,W,0.00,217.61,090621,,,A*7A
$GPGGA,092540.000,4825.1434,N,00428.4538,W,1,06,1.6,87.0,M,52.0,M,,0000*70
$GPGSA,A,3,31,29,26,18,25,05,,,,,,,2.9,1.6,2.4*3E
$GPRMC,092540.000,A,4825.1434,N,00428.4538,W,0.00,217.61,090621,,,A*74
$GPGGA,092541.000,4825.1434,N,00428.4538,W,1,06,1.6,87.0,M,52.0,M,,0000*71
$GPGSA,A,3,31,29,26,18,25,05,,,,,,,2.9,1.6,2.4*3E
$GPGSV,3,1,12,31,63,228,39,29,60,056,43,26,49,294,44,18,38,155,41*74
$GPGSV,3,1,12,31,63,228,39,29,60,056,43,26,49,294,44,18,38,155,41*74
$GPGSV,3,2,12,25,29,104,37,05,08,073,29,57,68,131,,58,68,131,*7B
$GPGSV,3,2,12,25,29,104,37,05,08,073,29,57,68,131,,58,68,131,*7B
$GPGSV,3,3,12,59,68,131,,14,31,267,,15,18,261,,07,14,048,*79
$GPGSV,3,3,12,59,68,131,,14,31,267,,15,18,261,,07,14,048,*79
$GPRMC,092541.000,A,4825.1434,N,00428.4538,W,0.00,217.61,090621,,,A*75
$GPGGA,092542.000,4825.1434,N,00428.4538,W,1,06,1.6,87.0,M,52.0,M,,0000*72
$GPGSA,A,3,31,29,26,18,25,05,,,,,,,2.9,1.6,2.4*3E
$GPRMC,092542.000,A,4825.1434,N,00428.4538,W,0.00,217.61,090621,,,A*76
$GPGGA,092543.000,4825.1434,N,00428.4538,W,1,06,1.6,87.0,M,52.0,M,,0000*73
$GPGSA,A,3,31,29,26,18,25,05,,,,,,,2.9,1.6,2.4*3E
$GPRMC,092543.000,A,4825.1434,N,00428.4538,W,0.00,217.61,090621,,,A*77
$GPGGA,092544.000,4825.1434,N,00428.4538,W,1,06,1.6,87.0,M,52.0,M,,0000*74
$GPGSA,A,3,31,29,26,18,25,05,,,,,,,2.9,1.6,2.4*3E
$GPRMC,092544.000,A,4825.1434,N,00428.4538,W,0.00,217.61,090621,,,A*70
$GPGGA,092545.000,4825.1434,N,00428.4538,W,1,06,1.6,87.0,M,52.0,M,,0000*75
$GPGSA,A,3,31,29,26,18,25,05,,,,,,,2.9,1.6,2.4*3E
$GPRMC,092545.000,A,4825.1434,N,00428.4538,W,0.00,217.61,090621,,,A*71
$GPGGA,092546.000,4825.1434,N,00428.4538,W,1,06,1.6,87.0,M,52.0,M,,0000*76
$GPGSA,A,3,31,29,26,18,25,05,,,,,,,2.9,1.6,2.4*3E
$GPGSV,3,1,12,31,63,228,39,29,60,056,42,26,49,294,44,18,38,155,41*75
$GPGSV,3,1,12,31,63,228,39,29,60,056,42,26,49,294,44,18,38,155,41*75
$GPGSV,3,2,12,25,29,104,36,05,08,073,30,57,68,131,,58,68,131,*72
$GPGSV,3,2,12,25,29,104,36,05,08,073,30,57,68,131,,58,68,131,*72
$GPGSV,3,3,12,59,68,131,,14,31,267,,15,18,261,,07,14,048,*79
$GPGSV,3,3,12,59,68,131,,14,31,267,,15,18,261,,07,14,048,*79
$GPRMC,092546.000,A,4825.1434,N,00428.4538,W,0.00,217.61,090621,,,A*72
$GPGGA,092547.000,4825.1434,N,00428.4538,W,1,06,1.6,87.0,M,52.0,M,,0000*77
$GPGSA,A,3,31,29,26,18,25,05,,,,,,,2.9,1.6,2.4*3E
$GPRMC,092547.000,A,4825.1434,N,00428.4538,W,0.00,217.61,090621,,,A*73
$GPGGA,092548.000,4825.1434,N,00428.4538,W,1,06,1.6,87.0,M,52.0,M,,0000*78
$GPGSA,A,3,31,29,26,18,25,05,,,,,,,2.9,1.6,2.4*3E
$GPRMC,092548.000,A,4825.1434,N,00428.4538,W,0.00,217.61,090621,,,A*7C
$GPGGA,092549.000,4825.1434,N,00428.4538,W,1,06,1.6,87.0,M,52.0,M,,0000*79
$GPGSA,A,3,31,29,26,18,25,05,,,,,,,2.9,1.6,2.4*3E
$GPRMC,092549.000,A,4825.1434,N,00428.4538,W,0.00,217.61,090621,,,A*7D
$GPGGA,092550.000,4825.1434,N,00428.4538,W,1,06,1.6,87.0,M,52.0,M,,0000*71
$GPGSA,A,3,31,29,26,18,25,05,,,,,,,2.9,1.6,2.4*3E
$GPRMC,092550.000,A,4825.1434,N,00428.4538,W,0.00,217.61,090621,,,A*75
$GPGGA,092551.000,4825.1433,N,00428.4538,W,1,06,1.6,87.0,M,52.0,M,,0000*77
$GPGSA,A,3,31,29,26,18,25,05,,,,,,,2.9,1.6,2.4*3E
$GPGSV,3,1,12,31,63,228,39,29,60,056,43,26,49,294,44,18,38,155,42*77
$GPGSV,3,1,12,31,63,228,39,29,60,056,43,26,49,294,44,18,38,155,42*77
$GPGSV,3,2,12,25,29,104,37,05,08,073,32,57,68,131,,58,68,131,*71
$GPGSV,3,2,12,25,29,104,37,05,08,073,32,57,68,131,,58,68,131,*71
$GPGSV,3,3,12,59,68,131,,14,31,267,,15,18,261,,07,14,048,*79
$GPGSV,3,3,12,59,68,131,,14,31,267,,15,18,261,,07,14,048,*79
$GPRMC,092551.000,A,4825.1433,N,00428.4538,W,0.00,217.61,090621,,,A*73
$GPGGA,092552.000,4825.1433,N,00428.4538,W,1,06,1.6,87.0,M,52.0,M,,0000*74
$GPGSA,A,3,31,29,26,18,25,05,,,,,,,2.9,1.6,2.4*3E
$GPRMC,092552.000,A,4825.1433,N,00428.4538,W,0.00,217.61,090621,,,A*70
$GPGGA,092553.000,4825.1433,N,00428.4538,W,1,06,1.6,87.0,M,52.0,M,,0000*75
$GPGSA,A,3,31,29,26,18,25,05,,,,,,,2.9,1.6,2.4*3E
$GPRMC,092553.000,A,4825.1433,N,00428.4538,W,0.00,217.61,090621,,,A*71
$GPGGA,092554.000,4825.1433,N,00428.4538,W,1,06,1.6,87.0,M,52.0,M,,0000*72
$GPGSA,A,3,31,29,26,18,25,05,,,,,,,2.9,1.6,2.4*3E
$GPRMC,092554.000,A,4825.1433,N,00428.4538,W,0.00,217.61,090621,,,A*76
$GPGGA,092555.000,4825.1433,N,00428.4538,W,1,06,1.6,87.0,M,52.0,M,,0000*73
$GPGSA,A,3,31,29,26,18,25,05,,,,,,,2.9,1.6,2.4*3E
$GPRMC,092555.000,A,4825.1433,N,00428.4538,W,0.00,217.61,090621,,,A*77
$GPGGA,092556.000,4825.1433,N,00428.4538,W,1,06,1.6,87.0,M,52.0,M,,0000*70
$GPGSA,A,3,31,29,26,18,25,05,,,,,,,2.9,1.6,2.4*3E
$GPGSV,3,1,12,31,63,228,39,29,60,056,42,26,49,294,44,18,38,155,42*76
$GPGSV,3,1,12,31,63,228,39,29,60,056,42,26,49,294,44,18,38,155,42*76
$GPGSV,3,2,12,25,29,104,37,05,08,073,33,57,68,131,,58,68,131,*70
$GPGSV,3,2,12,25,29,104,37,05,08,073,33,57,68,131,,58,68,131,*70
$GPGSV,3,3,12,59,68,131,,14,31,267,,15,18,261,,07,14,048,*79
$GPGSV,3,3,12,59,68,131,,14,31,267,,15,18,261,,07,14,048,*79
$GPRMC,092556.000,A,4825.1433,N,00428.4538,W,0.00,217.61,090621,,,A*74
$GPGGA,092557.000,4825.1433,N,00428.4538,W,1,06,1.6,87.0,M,52.0,M,,0000*71
$GPGSA,A,3,31,29,26,18,25,05,,,,,,,2.9,1.6,2.4*3E
$GPRMC,092557.000,A,4825.1433,N,00428.4538,W,0.00,217.61,090621,,,A*75
$GPGGA,092558.000,4825.1433,N,00428.4538,W,1,06,1.6,87.0,M,52.0,M,,0000*7E
$GPGSA,A,3,31,29,26,18,25,05,,,,,,,2.9,1.6,2.4*3E
$GPRMC,092558.000,A,4825.1433,N,00428.4538,W,0.00,217.61,090621,,,A*7A
$GPGGA,092559.000,4825.1433,N,00428.4538,W,1,06,1.6,87.0,M,52.0,M,,0000*7F
$GPGSA,A,3,31,29,26,18,25,05,,,,,,,2.9,1.6,2.4*3E
$GPRMC,092559.000,A,4825.1433,N,00428.4538,W,0.00,217.61,090621,,,A*7B
$GPGGA,092600.000,4825.1433,N,00428.4538,W,1,06,1.6,87.0,M,52.0,M,,0000*70
$GPGSA,A,3,31,29,26,18,25,05,,,,,,,2.9,1.6,2.4*3E
$GPRMC,092600.000,A,4825.1433,N,00428.4538,W,0.00,217.61,090621,,,A*74
$GPGGA,092601.000,4825.1433,N,00428.4538,W,1,06,1.6,87.0,M,52.0,M,,0000*71
$GPGSA,A,3,31,29,26,18,25,05,,,,,,,2.9,1.6,2.4*3E
$GPGSV,3,1,12,31,63,228,39,29,60,056,43,26,49,294,44,18,38,155,42*77
$GPGSV,3,1,12,31,63,228,39,29,60,056,43,26,49,294,44,18,38,155,42*77
$GPGSV,3,2,12,25,29,104,37,05,08,073,33,57,68,131,,58,68,131,*70
$GPGSV,3,2,12,25,29,104,37,05,08,073,33,57,68,131,,58,68,131,*70
$GPGSV,3,3,12,59,68,131,,14,31,267,,15,18,261,,07,14,048,*79
$GPGSV,3,3,12,59,68,131,,14,31,267,,15,18,261,,07,14,048,*79
$GPRMC,092601.000,A,4825.1433,N,00428.4538,W,0.00,217.61,090621,,,A*75
$GPGGA,092602.000,4825.1433,N,00428.4538,W,1,06,1.6,87.0,M,52.0,M,,0000*72
$GPGSA,A,3,31,29,26,18,25,05,,,,,,,2.9,1.6,2.4*3E
$GPRMC,092602.000,A,4825.1433,N,00428.4538,W,0.00,217.61,090621,,,A*76
$GPGGA,092603.000,4825.1433,N,00428.4538,W,1,06,1.6,87.0,M,52.0,M,,0000*73
$GPGSA,A,3,31,29,26,18,25,05,,,,,,,2.9,1.6,2.4*3E
$GPRMC,092603.000,A,4825.1433,N,00428.4538,W,0.00,217.61,090621,,,A*77
$GPGGA,092604.000,4825.1433,N,00428.4538,W,1,06,1.6,87.0,M,52.0,M,,0000*74
$GPGSA,A,3,31,29,26,18,25,05,,,,,,,2.9,1.6,2.4*3E
$GPRMC,092604.000,A,4825.1433,N,00428.4538,W,0.00,217.61,090621,,,A*70
$GPGGA,092605.000,4825.1433,N,00428.4538,W,1,06,1.6,87.0,M,52.0,M,,0000*75
$GPGSA,A,3,31,29,26,18,25,05,,,,,,,2.9,1.6,2.4*3E
$GPRMC,092605.000,A,4825.1433,N,00428.4538,W,0.00,217.61,090621,,,A*71
$GPGGA,092606.000,4825.1433,N,00428.4538,W,1,06,1.6,87.0,M,52.0,M,,0000*76
$GPGSA,A,3,31,29,26,18,25,05,,,,,,,2.9,1.6,2.4*3E
$GPGSV,3,1,12,31,63,228,39,29,60,056,43,26,49,294,44,18,38,155,42*77
$GPGSV,3,1,12,31,63,228,39,29,60,056,43,26,49,294,44,18,38,155,42*77
$GPGSV,3,2,12,25,29,104,37,05,08,073,31,57,68,131,,58,68,131,*72
$GPGSV,3,2,12,25,29,104,37,05,08,073,31,57,68,131,,58,68,131,*72
$GPGSV,3,3,12,59,68,131,,14,31,267,,15,18,261,,07,14,048,*79
$GPGSV,3,3,12,59,68,131,,14,31,267,,15,18,261,,07,14,048,*79
$GPRMC,092606.000,A,4825.1433,N,00428.4538,W,0.00,217.61,090621,,,A*72
$GPGGA,092607.000,4825.1433,N,00428.4538,W,1,06,1.6,87.0,M,52.0,M,,0000*77
$GPGSA,A,3,31,29,26,18,25,05,,,,,,,2.9,1.6,2.4*3E
$GPRMC,092607.000,A,4825.1433,N,00428.4538,W,0.00,217.61,090621,,,A*73
$GPGGA,092608.000,4825.1433,N,00428.4538,W,1,06,1.6,87.0,M,52.0,M,,0000*78
$GPGSA,A,3,31,29,26,18,25,05,,,,,,,2.9,1.6,2.4*3E
$GPRMC,092608.000,A,4825.1433,N,00428.4538,W,0.00,217.61,090621,,,A*7C
$GPGGA,092609.000,4825.1433,N,00428.4538,W,1,06,1.6,86.9,M,52.0,M,,0000*71
$GPGSA,A,3,31,29,26,18,25,05,,,,,,,2.9,1.6,2.4*3E
$GPRMC,092609.000,A,4825.1433,N,00428.4538,W,0.00,217.61,090621,,,A*7D
$GPGGA,092610.000,4825.1433,N,00428.4538,W,1,06,1.6,86.9,M,52.0,M,,0000*79
$GPGSA,A,3,31,29,26,18,25,05,,,,,,,2.9,1.6,2.4*3E
$GPRMC,092610.000,A,4825.1433,N,00428.4538,W,0.00,217.61,090621,,,A*75
$GPGGA,092611.000,4825.1433,N,00428.4538,W,1,06,1.6,86.9,M,52.0,M,,0000*78
$GPGSA,A,3,31,29,26,18,25,05,,,,,,,2.9,1.6,2.4*3E
$GPGSV,3,1,12,31,63,228,39,29,60,056,43,26,49,294,44,18,38,155,42*77
$GPGSV,3,1,12,31,63,228,39,29,60,056,43,26,49,294,44,18,38,155,42*77
$GPGSV,3,2,12,25,29,104,32,05,08,073,31,57,68,131,,58,68,131,*77
$GPGSV,3,2,12,25,29,104,32,05,08,073,31,57,68,131,,58,68,131,*77
$GPGSV,3,3,12,59,68,131,,14,31,267,,15,18,261,,07,14,048,*79
$GPGSV,3,3,12,59,68,131,,14,31,267,,15,18,261,,07,14,048,*79
$GPRMC,092611.000,A,4825.1433,N,00428.4538,W,0.00,217.61,090621,,,A*74
$GPGGA,092612.000,4825.1433,N,00428.4538,W,1,06,1.6,86.9,M,52.0,M,,0000*7B
$GPGSA,A,3,31,29,26,18,25,05,,,,,,,2.9,1.6,2.4*3E
$GPRMC,092612.000,A,4825.1433,N,00428.4538,W,0.00,217.61,090621,,,A*77
$GPGGA,092613.000,4825.1433,N,00428.4538,W,1,06,1.6,86.9,M,52.0,M,,0000*7A
$GPGSA,A,3,31,29,26,18,25,05,,,,,,,2.9,1.6,2.4*3E
$GPRMC,092613.000,A,4825.1433,N,00428.4538,W,0.00,217.61,090621,,,A*76
$GPGGA,092614.000,4825.1433,N,00428.4538,W,1,06,1.6,86.9,M,52.0,M,,0000*7D
$GPGSA,A,3,31,29,26,18,25,05,,,,,,,2.9,1.6,2.4*3E
$GPRMC,092614.000,A,4825.1433,N,00428.4538,W,0.00,217.61,090621,,,A*71
$GPGGA,092615.000,4825.1433,N,00428.4538,W,1,06,1.6,86.9,M,52.0,M,,0000*7C
$GPGSA,A,3,31,29,26,18,25,05,,,,,,,2.9,1.6,2.4*3E
$GPRMC,092615.000,A,4825.1433,N,00428.4538,W,0.00,217.61,090621,,,A*70
$GPGGA,092616.000,4825.1433,N,00428.4538,W,1,06,1.6,86.9,M,52.0,M,,0000*7F
$GPGSA,A,3,31,29,26,18,25,05,,,,,,,2.9,1.6,2.4*3E
$GPGSV,3,1,12,31,63,228,39,29,60,056,43,26,49,294,44,18,38,155,42*77
$GPGSV,3,1,12,31,63,228,39,29,60,056,43,26,49,294,44,18,38,155,42*77
$GPGSV,3,2,12,25,29,104,33,05,08,073,32,57,68,131,,58,68,131,*75
$GPGSV,3,2,12,25,29,104,33,05,08,073,32,57,68,131,,58,68,131,*75
$GPGSV,3,3,12,59,68,131,,14,31,267,,15,18,261,,07,14,048,*79
$GPGSV,3,3,12,59,68,131,,14,31,267,,15,18,261,,07,14,048,*79
$GPRMC,092616.000,A,4825.1433,N,00428.4538,W,0.00,217.61,090621,,,A*73
$GPGGA,092617.000,4825.1433,N,00428.4538,W,1,06,1.6,86.9,M,52.0,M,,0000*7E
$GPGSA,A,3,31,29,26,18,25,05,,,,,,,2.9,1.6,2.4*3E
$GPRMC,092617.000,A,4825.1433,N,00428.4538,W,0.00,217.61,090621,,,A*72
$GPGGA,092618.000,4825.1433,N,00428.4538,W,1,06,1.6,86.9,M,52.0,M,,0000*71
$GPGSA,A,3,31,29,26,18,25,05,,,,,,,2.9,1.6,2.4*3E
$GPRMC,092618.000,A,4825.1433,N,00428.4538,W,0.00,217.61,090621,,,A*7D
$GPGGA,092619.000,4825.1433,N,00428.4538,W,1,06,1.6,86.9,M,52.0,M,,0000*70
$GPGSA,A,3,31,29,26,18,25,05,,,,,,,2.9,1.6,2.4*3E
$GPRMC,092619.000,A,4825.1433,N,00428.4538,W,0.00,217.61,090621,,,A*7C
$GPGGA,092620.000,4825.1433,N,00428.4538,W,1,06,1.6,86.9,M,52.0,M,,0000*7A
$GPGSA,A,3,31,29,26,18,25,05,,,,,,,2.9,1.6,2.4*3E
$GPRMC,092620.000,A,4825.1433,N,00428.4538,W,0.00,217.61,090621,,,A*76
$GPGGA,092621.000,4825.1433,N,00428.4538,W,1,06,1.6,86.9,M,52.0,M,,0000*7B
$GPGSA,A,3,31,29,26,18,25,05,,,,,,,2.9,1.6,2.4*3E
$GPGSV,3,1,12,31,63,228,39,29,60,056,43,26,49,294,44,18,38,155,42*77
$GPGSV,3,1,12,31,63,228,39,29,60,056,43,26,49,294,44,18,38,155,42*77
$GPGSV,3,2,12,25,29,104,27,05,08,073,32,57,68,131,,58,68,131,*70
$GPGSV,3,2,12,25,29,104,27,05,08,073,32,57,68,131,,58,68,131,*70
$GPGSV,3,3,12,59,68,131,,14,31,267,,15,18,261,,07,14,048,*79
$GPGSV,3,3,12,59,68,131,,14,31,267,,15,18,261,,07,14,048,*79
$GPRMC,092621.000,A,4825.1433,N,00428.4538,W,0.00,217.61,090621,,,A*77
$GPGGA,092622.000,4825.1433,N,00428.4538,W,1,06,1.6,86.9,M,52.0,M,,0000*78
$GPGSA,A,3,31,29,26,18,25,05,,,,,,,2.9,1.6,2.4*3E
$GPRMC,092622.000,A,4825.1433,N,00428.4538,W,0.00,217.61,090621,,,A*74
$GPGGA,092623.000,4825.1433,N,00428.4538,W,1,06,1.6,86.9,M,52.0,M,,0000*79
$GPGSA,A,3,31,29,26,18,25,05,,,,,,,2.9,1.6,2.4*3E
$GPRMC,092623.000,A,4825.1433,N,00428.4538,W,0.00,217.61,090621,,,A*75
$GPGGA,092624.000,4825.1433,N,00428.4538,W,1,06,1.6,86.9,M,52.0,M,,0000*7E
$GPGSA,A,3,31,29,26,18,25,05,,,,,,,2.9,1.6,2.4*3E
$GPRMC,092624.000,A,4825.1433,N,00428.4538,W,0.00,217.61,090621,,,A*72
$GPGGA,092625.000,4825.1433,N,00428.4538,W,1,06,1.6,86.9,M,52.0,M,,0000*7F
$GPGSA,A,3,31,29,26,18,25,05,,,,,,,2.9,1.6,2.4*3E
$GPRMC,092625.000,A,4825.1433,N,00428.4538,W,0.00,217.61,090621,,,A*73
$GPGGA,092626.000,4825.1433,N,00428.4538,W,1,06,1.6,86.9,M,52.0,M,,0000*7C
$GPGSA,A,3,31,29,26,18,25,05,,,,,,,2.9,1.6,2.4*3E
$GPGSV,3,1,12,31,63,228,39,29,60,056,42,26,49,294,44,18,38,155,42*76
$GPGSV,3,1,12,31,63,228,39,29,60,056,42,26,49,294,44,18,38,155,42*76
$GPGSV,3,2,12,25,29,104,38,05,08,073,22,57,68,131,,58,68,131,*7F
$GPGSV,3,2,12,25,29,104,38,05,08,073,22,57,68,131,,58,68,131,*7F
$GPGSV,3,3,12,59,68,131,,14,31,267,,15,18,261,,07,14,048,*79
$GPGSV,3,3,12,59,68,131,,14,31,267,,15,18,261,,07,14,048,*79
$GPRMC,092626.000,A,4825.1433,N,00428.4538,W,0.00,217.61,090621,,,A*70
$GPGGA,092627.000,4825.1433,N,00428.4538,W,1,06,1.6,86.9,M,52.0,M,,0000*7D
$GPGSA,A,3,31,29,26,18,25,05,,,,,,,2.9,1.6,2.4*3E
$GPRMC,092627.000,A,4825.1433,N,00428.4538,W,0.00,217.61,090621,,,A*71
$GPGGA,092628.000,4825.1433,N,00428.4538,W,1,06,1.6,86.9,M,52.0,M,,0000*72
$GPGSA,A,3,31,29,26,18,25,05,,,,,,,2.9,1.6,2.4*3E
$GPRMC,092628.000,A,4825.1433,N,00428.4538,W,0.00,217.61,090621,,,A*7E
$GPGGA,092629.000,4825.1433,N,00428.4538,W,1,06,1.6,86.9,M,52.0,M,,0000*73
$GPGSA,A,3,31,29,26,18,25,05,,,,,,,2.9,1.6,2.4*3E
$GPRMC,092629.000,A,4825.1433,N,00428.4538,W,0.00,217.61,090621,,,A*7F
$GPGGA,092630.000,4825.1433,N,00428.4538,W,1,06,1.6,86.9,M,52.0,M,,0000*7B
$GPGSA,A,3,31,29,26,18,25,05,,,,,,,2.9,1.6,2.4*3E
$GPRMC,092630.000,A,4825.1433,N,00428.4538,W,0.00,217.61,090621,,,A*77
$GPGGA,092631.000,4825.1433,N,00428.4539,W,1,06,1.6,86.9,M,52.0,M,,0000*7B
$GPGSA,A,3,31,29,26,18,25,05,,,,,,,2.9,1.6,2.4*3E
$GPGSV,3,1,12,31,63,228,39,29,60,056,42,26,49,294,44,18,38,155,42*76
$GPGSV,3,1,12,31,63,228,39,29,60,056,42,26,49,294,44,18,38,155,42*76
$GPGSV,3,2,12,25,29,104,38,05,08,073,25,57,68,131,,58,68,131,*78
$GPGSV,3,2,12,25,29,104,38,05,08,073,25,57,68,131,,58,68,131,*78
$GPGSV,3,3,12,59,68,131,,14,31,267,,15,18,261,,07,14,048,*79
$GPGSV,3,3,12,59,68,131,,14,31,267,,15,18,261,,07,14,048,*79
$GPRMC,092631.000,A,4825.1433,N,00428.4539,W,0.00,217.61,090621,,,A*77
$GPGGA,092632.000,4825.1433,N,00428.4539,W,1,06,1.6,86.9,M,52.0,M,,0000*78
$GPGSA,A,3,31,29,26,18,25,05,,,,,,,2.9,1.6,2.4*3E
$GPRMC,092632.000,A,4825.1433,N,00428.4539,W,0.00,217.61,090621,,,A*74
$GPGGA,092633.000,4825.1432,N,00428.4539,W,1,06,1.6,86.9,M,52.0,M,,0000*78
$GPGSA,A,3,31,29,26,18,25,05,,,,,,,2.9,1.6,2.4*3E
$GPRMC,092633.000,A,4825.1432,N,00428.4539,W,0.00,217.61,090621,,,A*74
$GPGGA,092634.000,4825.1432,N,00428.4539,W,1,06,1.6,86.9,M,52.0,M,,0000*7F
$GPGSA,A,3,31,29,26,18,25,05,,,,,,,2.9,1.6,2.4*3E
$GPRMC,092634.000,A,4825.1432,N,00428.4539,W,0.00,217.61,090621,,,A*73
$GPGGA,092635.000,4825.1432,N,00428.4539,W,1,06,1.6,86.9,M,52.0,M,,0000*7E
$GPGSA,A,3,31,29,26,18,25,05,,,,,,,2.9,1.6,2.4*3E
$GPRMC,092635.000,A,4825.1432,N,00428.4539,W,0.00,217.61,090621,,,A*72
$GPGGA,092636.000,4825.1432,N,00428.4539,W,1,06,1.6,86.9,M,52.0,M,,0000*7D
$GPGSA,A,3,31,29,26,18,25,05,,,,,,,2.9,1.6,2.4*3E
$GPGSV,3,1,12,31,63,228,39,29,60,056,43,26,49,294,44,18,38,155,42*77
$GPGSV,3,1,12,31,63,228,39,29,60,056,43,26,49,294,44,18,38,155,42*77
$GPGSV,3,2,12,25,29,104,37,05,08,073,29,57,68,131,,58,68,131,*7B
$GPGSV,3,2,12,25,29,104,37,05,08,073,29,57,68,131,,58,68,131,*7B
$GPGSV,3,3,12,59,68,131,,14,31,267,,15,18,261,,07,14,048,*79
$GPGSV,3,3,12,59,68,131,,14,31,267,,15,18,261,,07,14,048,*79
$GPRMC,092636.000,A,4825.1432,N,00428.4539,W,0.00,217.61,090621,,,A*71
$GPGGA,092637.000,4825.1432,N,00428.4539,W,1,06,1.6,86.9,M,52.0,M,,0000*7C
$GPGSA,A,3,31,29,26,18,25,05,,,,,,,2.9,1.6,2.4*3E
$GPRMC,092637.000,A,4825.1432,N,00428.4539,W,0.00,217.61,090621,,,A*70
$GPGGA,092638.000,4825.1432,N,00428.4539,W,1,06,1.6,86.9,M,52.0,M,,0000*73
$GPGSA,A,3,31,29,26,18,25,05,,,,,,,2.9,1.6,2.4*3E
$GPRMC,092638.000,A,4825.1432,N,00428.4539,W,0.00,217.61,090621,,,A*7F
$GPGGA,092639.000,4825.1432,N,00428.4539,W,1,06,1.6,86.9,M,52.0,M,,0000*72
$GPGSA,A,3,31,29,26,18,25,05,,,,,,,2.9,1.6,2.4*3E
$GPRMC,092639.000,A,4825.1432,N,00428.4539,W,0.00,217.61,090621,,,A*7E
$GPGGA,092640.000,4825.1432,N,00428.4539,W,1,06,1.6,86.9,M,52.0,M,,0000*7C
$GPGSA,A,3,31,29,26,18,25,05,,,,,,,2.9,1.6,2.4*3E
$GPRMC,092640.000,A,4825.1432,N,00428.4539,W,0.00,217.61,090621,,,A*70
$GPGGA,092641.000,4825.1432,N,00428.4539,W,1,06,1.6,87.0,M,52.0,M,,0000*75
$GPGSA,A,3,31,29,26,18,25,05,,,,,,,2.9,1.6,2.4*3E
$GPGSV,3,1,12,31,63,228,39,29,60,056,43,26,49,294,44,18,38,155,41*74
$GPGSV,3,1,12,31,63,228,39,29,60,056,43,26,49,294,44,18,38,155,41*74
$GPGSV,3,2,12,25,29,104,37,05,08,073,29,57,68,131,,58,68,131,*7B
$GPGSV,3,2,12,25,29,104,37,05,08,073,29,57,68,131,,58,68,131,*7B
$GPGSV,3,3,12,59,68,131,,14,31,267,,15,18,261,,07,14,048,*79
$GPGSV,3,3,12,59,68,131,,14,31,267,,15,18,261,,07,14,048,*79
$GPRMC,092641.000,A,4825.1432,N,00428.4539,W,0.00,217.61,090621,,,A*71
$GPGGA,092642.000,4825.1432,N,00428.4539,W,1,06,1.6,87.0,M,52.0,M,,0000*76
$GPGSA,A,3,31,29,26,18,25,05,,,,,,,2.9,1.6,2.4*3E
$GPRMC,092642.000,A,4825.1432,N,00428.4539,W,0.00,217.61,090621,,,A*72
$GPGGA,092643.000,4825.1432,N,00428.4539,W,1,06,1.6,87.0,M,52.0,M,,0000*77
$GPGSA,A,3,31,29,26,18,25,05,,,,,,,2.9,1.6,2.4*3E
$GPRMC,092643.000,A,4825.1432,N,00428.4539,W,0.00,217.61,090621,,,A*73
$GPGGA,092644.000,4825.1432,N,00428.4539,W,1,06,1.6,87.0,M,52.0,M,,0000*70
$GPGSA,A,3,31,29,26,18,25,05,,,,,,,2.9,1.6,2.4*3E
$GPRMC,092644.000,A,4825.1432,N,00428.4539,W,0.00,217.61,090621,,,A*74
$GPGGA,092645.000,4825.1432,N,00428.4539,W,1,06,1.6,87.0,M,52.0,M,,0000*71
$GPGSA,A,3,31,29,26,18,25,05,,,,,,,2.9,1.6,2.4*3E
$GPRMC,092645.000,A,4825.1432,N,00428.4539,W,0.00,217.61,090621,,,A*75
$GPGGA,092646.000,4825.1432,N,00428.4539,W,1,06,1.6,87.0,M,52.0,M,,0000*72
$GPGSA,A,3,31,29,26,18,25,05,,,,,,,2.9,1.6,2.4*3E
$GPGSV,3,1,12,31,63,228,39,29,60,056,43,26,49,294,44,18,38,155,41*74
$GPGSV,3,1,12,31,63,228,39,29,60,056,43,26,49,294,44,18,38,155,41*74
$GPGSV,3,2,12,25,29,104,37,05,08,073,31,57,68,131,,58,68,131,*72
$GPGSV,3,2,12,25,29,104,37,05,08,073,31,57,68,131,,58,68,131,*72
$GPGSV,3,3,12,59,68,131,,14,31,267,,15,18,261,,07,14,048,*79
$GPGSV,3,3,12,59,68,131,,14,31,267,,15,18,261,,07,14,048,*79
$GPRMC,092646.000,A,4825.1432,N,00428.4539,W,0.00,217.61,090621,,,A*76
$GPGGA,092647.000,4825.1432,N,00428.4539,W,1,06,1.6,87.0,M,52.0,M,,0000*73
$GPGSA,A,3,31,29,26,18,25,05,,,,,,,2.9,1.6,2.4*3E
$GPRMC,092647.000,A,4825.1432,N,00428.4539,W,0.00,217.61,090621,,,A*77
$GPGGA,092648.000,4825.1432,N,00428.4539,W,1,06,1.6,87.0,M,52.0,M,,0000*7C
$GPGSA,A,3,31,29,26,18,25,05,,,,,,,2.9,1.6,2.4*3E
$GPRMC,092648.000,A,4825.1432,N,00428.4539,W,0.00,217.61,090621,,,A*78
$GPGGA,092649.000,4825.1432,N,00428.4539,W,1,06,1.6,87.0,M,52.0,M,,0000*7D
$GPGSA,A,3,31,29,26,18,25,05,,,,,,,2.9,1.6,2.4*3E
$GPRMC,092649.000,A,4825.1432,N,00428.4539,W,0.00,217.61,090621,,,A*79
$GPGGA,092650.000,4825.1432,N,00428.4539,W,1,06,1.6,87.0,M,52.0,M,,0000*75
$GPGSA,A,3,31,29,26,18,25,05,,,,,,,2.9,1.6,2.4*3E
$GPRMC,092650.000,A,4825.1432,N,00428.4539,W,0.00,217.61,090621,,,A*71
$GPGGA,092651.000,4825.1432,N,00428.4539,W,1,06,1.6,87.0,M,52.0,M,,0000*74
$GPGSA,A,3,31,29,26,18,25,05,,,,,,,2.9,1.6,2.4*3E
$GPGSV,3,1,12,31,63,228,39,29,60,056,43,26,49,294,44,18,38,155,41*74
$GPGSV,3,1,12,31,63,228,39,29,60,056,43,26,49,294,44,18,38,155,41*74
$GPGSV,3,2,12,25,29,104,37,05,08,073,32,57,68,131,,58,68,131,*71
$GPGSV,3,2,12,25,29,104,37,05,08,073,32,57,68,131,,58,68,131,*71
$GPGSV,3,3,12,59,68,131,,14,31,267,,15,18,261,,07,14,048,*79
$GPGSV,3,3,12,59,68,131,,14,31,267,,15,18,261,,07,14,048,*79
$GPRMC,092651.000,A,4825.1432,N,00428.4539,W,0.00,217.61,090621,,,A*70
$GPGGA,092652.000,4825.1432,N,00428.4539,W,1,06,1.6,87.0,M,52.0,M,,0000*77
$GPGSA,A,3,31,29,26,18,25,05,,,,,,,2.9,1.6,2.4*3E
$GPRMC,092652.000,A,4825.1432,N,00428.4539,W,0.00,217.61,090621,,,A*73
$GPGGA,092653.000,4825.1432,N,00428.4539,W,1,06,1.6,87.0,M,52.0,M,,0000*76
$GPGSA,A,3,31,29,26,18,25,05,,,,,,,2.9,1.6,2.4*3E
$GPRMC,092653.000,A,4825.1432,N,00428.4539,W,0.00,217.61,090621,,,A*72
$GPGGA,092654.000,4825.1432,N,00428.4539,W,1,06,1.6,87.0,M,52.0,M,,0000*71
$GPGSA,A,3,31,29,26,18,25,05,,,,,,,2.9,1.6,2.4*3E
$GPRMC,092654.000,A,4825.1432,N,00428.4539,W,0.00,217.61,090621,,,A*75
$GPGGA,092655.000,4825.1432,N,00428.4539,W,1,06,1.6,87.0,M,52.0,M,,0000*70
$GPGSA,A,3,31,29,26,18,25,05,,,,,,,2.9,1.6,2.4*3E
$GPRMC,092655.000,A,4825.1432,N,00428.4539,W,0.00,217.61,090621,,,A*74
$GPGGA,092656.000,4825.1432,N,00428.4539,W,1,06,1.6,87.0,M,52.0,M,,0000*73
$GPGSA,A,3,31,29,26,18,25,05,,,,,,,2.9,1.6,2.4*3E
$GPGSV,3,1,12,31,63,228,39,29,60,056,43,26,49,294,44,18,38,155,42*77
$GPGSV,3,1,12,31,63,228,39,29,60,056,43,26,49,294,44,18,38,155,42*77
$GPGSV,3,2,12,25,29,104,37,05,08,073,33,57,68,131,,58,68,131,*70
$GPGSV,3,2,12,25,29,104,37,05,08,073,33,57,68,131,,58,68,131,*70
$GPGSV,3,3,12,59,68,131,,14,31,267,,15,18,261,,07,14,048,*79
$GPGSV,3,3,12,59,68,131,,14,31,267,,15,18,261,,07,14,048,*79
$GPRMC,092656.000,A,4825.1432,N,00428.4539,W,0.00,217.61,090621,,,A*77
$GPGGA,092657.000,4825.1432,N,00428.4539,W,1,06,1.6,87.0,M,52.0,M,,0000*72
$GPGSA,A,3,31,29,26,18,25,05,,,,,,,2.9,1.6,2.4*3E
$GPRMC,092657.000,A,4825.1432,N,00428.4539,W,0.00,217.61,090621,,,A*76
$GPGGA,092658.000,4825.1432,N,00428.4539,W,1,06,1.6,87.0,M,52.0,M,,0000*7D
$GPGSA,A,3,31,29,26,18,25,05,,,,,,,2.9,1.6,2.4*3E
$GPRMC,092658.000,A,4825.1432,N,00428.4539,W,0.00,217.61,090621,,,A*79
$GPGGA,092659.000,4825.1432,N,00428.4539,W,1,06,1.6,87.0,M,52.0,M,,0000*7C
$GPGSA,A,3,31,29,26,18,25,05,,,,,,,2.9,1.6,2.4*3E
$GPRMC,092659.000,A,4825.1432,N,00428.4539,W,0.00,217.61,090621,,,A*78
$GPGGA,092700.000,4825.1432,N,00428.4539,W,1,06,1.6,87.0,M,52.0,M,,0000*71
$GPGSA,A,3,31,29,26,18,25,05,,,,,,,2.9,1.6,2.4*3E
$GPRMC,092700.000,A,4825.1432,N,00428.4539,W,0.00,217.61,090621,,,A*75
$GPGGA,092701.000,4825.1432,N,00428.4539,W,1,06,1.6,87.0,M,52.0,M,,0000*70
$GPGSA,A,3,31,29,26,18,25,05,,,,,,,2.9,1.6,2.4*3E
$GPGSV,3,1,12,31,63,228,39,29,60,056,43,26,49,294,44,18,38,155,42*77
$GPGSV,3,1,12,31,63,228,39,29,60,056,43,26,49,294,44,18,38,155,42*77
$GPGSV,3,2,12,25,29,104,37,05,08,073,33,57,68,131,,58,68,131,*70
$GPGSV,3,2,12,25,29,104,37,05,08,073,33,57,68,131,,58,68,131,*70
$GPGSV,3,3,12,59,68,131,,14,31,267,,15,18,261,,07,14,048,*79
$GPGSV,3,3,12,59,68,131,,14,31,267,,15,18,261,,07,14,048,*79
$GPRMC,092701.000,A,4825.1432,N,00428.4539,W,0.00,217.61,090621,,,A*74
$GPGGA,092702.000,4825.1432,N,00428.4539,W,1,06,1.6,87.0,M,52.0,M,,0000*73
$GPGSA,A,3,31,29,26,18,25,05,,,,,,,2.9,1.6,2.4*3E
$GPRMC,092702.000,A,4825.1432,N,00428.4539,W,0.00,217.61,090621,,,A*77
$GPGGA,092703.000,4825.1432,N,00428.4539,W,1,06,1.6,87.0,M,52.0,M,,0000*72
$GPGSA,A,3,31,29,26,18,25,05,,,,,,,2.9,1.6,2.4*3E
$GPRMC,092703.000,A,4825.1432,N,00428.4539,W,0.00,217.61,090621,,,A*76
$GPGGA,092704.000,4825.1432,N,00428.4539,W,1,06,1.6,87.0,M,52.0,M,,0000*75
$GPGSA,A,3,31,29,26,18,25,05,,,,,,,2.9,1.6,2.4*3E
$GPRMC,092704.000,A,4825.1432,N,00428.4539,W,0.00,217.61,090621,,,A*71
$GPGGA,092705.000,4825.1432,N,00428.4539,W,1,06,1.6,87.0,M,52.0,M,,0000*74
$GPGSA,A,3,31,29,26,18,25,05,,,,,,,2.9,1.6,2.4*3E
$GPRMC,092705.000,A,4825.1432,N,00428.4539,W,0.00,217.61,090621,,,A*70
$GPGGA,092706.000,4825.1432,N,00428.4539,W,1,06,1.6,87.0,M,52.0,M,,0000*77
$GPGSA,A,3,31,29,26,18,25,05,,,,,,,2.9,1.6,2.5*3F
$GPGSV,3,1,12,31,63,228,39,29,60,056,43,26,49,294,44,18,38,155,42*77
$GPGSV,3,1,12,31,63,228,39,29,60,056,43,26,49,294,44,18,38,155,42*77
$GPGSV,3,2,12,25,29,104,37,05,08,073,33,57,68,131,,58,68,131,*70
$GPGSV,3,2,12,25,29,104,37,05,08,073,33,57,68,131,,58,68,131,*70
$GPGSV,3,3,12,59,68,131,,14,31,267,,15,18,261,,07,14,048,*79
$GPGSV,3,3,12,59,68,131,,14,31,267,,15,18,261,,07,14,048,*79
$GPRMC,092706.000,A,4825.1432,N,00428.4539,W,0.00,217.61,090621,,,A*73
$GPGGA,092707.000,4825.1431,N,00428.4539,W,1,06,1.6,87.0,M,52.0,M,,0000*75
$GPGSA,A,3,31,29,26,18,25,05,,,,,,,2.9,1.6,2.5*3F
$GPRMC,092707.000,A,4825.1431,N,00428.4539,W,0.00,217.61,090621,,,A*71
$GPGGA,092708.000,4825.1431,N,00428.4539,W,1,06,1.6,87.0,M,52.0,M,,0000*7A
$GPGSA,A,3,31,29,26,18,25,05,,,,,,,2.9,1.6,2.5*3F
$GPRMC,092708.000,A,4825.1431,N,00428.4539,W,0.00,217.61,090621,,,A*7E
$GPGGA,092709.000,4825.1431,N,00428.4539,W,1,06,1.6,87.0,M,52.0,M,,0000*7B
$GPGSA,A,3,31,29,26,18,25,05,,,,,,,2.9,1.6,2.5*3F
$GPRMC,092709.000,A,4825.1431,N,00428.4539,W,0.00,217.61,090621,,,A*7F
$GPGGA,092710.000,4825.1431,N,00428.4539,W,1,06,1.6,87.0,M,52.0,M,,0000*73
$GPGSA,A,3,31,29,26,18,25,05,,,,,,,2.9,1.6,2.5*3F
$GPRMC,092710.000,A,4825.1431,N,00428.4539,W,0.00,217.61,090621,,,A*77
$GPGGA,092711.000,4825.1431,N,00428.4539,W,1,06,1.6,87.0,M,52.0,M,,0000*72
$GPGSA,A,3,31,29,26,18,25,05,,,,,,,2.9,1.6,2.5*3F
$GPGSV,3,1,12,31,63,228,38,29,60,056,43,26,49,294,44,18,38,155,42*76
$GPGSV,3,1,12,31,63,228,38,29,60,056,43,26,49,294,44,18,38,155,42*76
$GPGSV,3,2,12,25,29,104,37,05,08,073,33,57,68,131,,58,68,131,*70
$GPGSV,3,2,12,25,29,104,37,05,08,073,33,57,68,131,,58,68,131,*70
$GPGSV,3,3,12,59,68,131,,14,31,267,,15,18,261,,07,14,048,*79
$GPGSV,3,3,12,59,68,131,,14,31,267,,15,18,261,,07,14,048,*79
$GPRMC,092711.000,A,4825.1431,N,00428.4539,W,0.00,217.61,090621,,,A*76
$GPGGA,092712.000,4825.1431,N,00428.4539,W,1,06,1.6,87.0,M,52.0,M,,0000*71
$GPGSA,A,3,31,29,26,18,25,05,,,,,,,2.9,1.6,2.5*3F
$GPRMC,092712.000,A,4825.1431,N,00428.4539,W,0.00,217.61,090621,,,A*75
$GPGGA,092713.000,4825.1431,N,00428.4539,W,1,06,1.6,87.0,M,52.0,M,,0000*70
$GPGSA,A,3,31,29,26,18,25,05,,,,,,,2.9,1.6,2.5*3F
$GPRMC,092713.000,A,4825.1431,N,00428.4539,W,0.00,217.61,090621,,,A*74
$GPGGA,092714.000,4825.1431,N,00428.4539,W,1,06,1.6,87.0,M,52.0,M,,0000*77
$GPGSA,A,3,31,29,26,18,25,05,,,,,,,2.9,1.6,2.5*3F
$GPRMC,092714.000,A,4825.1431,N,00428.4539,W,0.00,217.61,090621,,,A*73
$GPGGA,092715.000,4825.1431,N,00428.4539,W,1,06,1.6,87.0,M,52.0,M,,0000*76
$GPGSA,A,3,31,29,26,18,25,05,,,,,,,2.9,1.6,2.5*3F
$GPRMC,092715.000,A,4825.1431,N,00428.4539,W,0.00,217.61,090621,,,A*72
$GPGGA,092716.000,4825.1431,N,00428.4539,W,1,06,1.6,87.0,M,52.0,M,,0000*75
$GPGSA,A,3,31,29,26,18,25,05,,,,,,,2.9,1.6,2.5*3F
$GPGSV,3,1,12,31,63,228,38,29,60,056,43,26,49,294,44,18,38,155,42*76
$GPGSV,3,1,12,31,63,228,38,29,60,056,43,26,49,294,44,18,38,155,42*76
$GPGSV,3,2,12,25,29,104,37,05,08,073,33,57,68,131,,58,68,131,*70
$GPGSV,3,2,12,25,29,104,37,05,08,073,33,57,68,131,,58,68,131,*70
$GPGSV,3,3,12,59,68,131,,14,31,267,,15,18,261,,07,14,048,*79
$GPGSV,3,3,12,59,68,131,,14,31,267,,15,18,261,,07,14,048,*79
$GPRMC,092716.000,A,4825.1431,N,00428.4539,W,0.00,217.61,090621,,,A*71
$GPGGA,092717.000,4825.1431,N,00428.4539,W,1,06,1.6,87.0,M,52.0,M,,0000*74
$GPGSA,A,3,31,29,26,18,25,05,,,,,,,2.9,1.6,2.5*3F
$GPRMC,092717.000,A,4825.1431,N,00428.4539,W,0.00,217.61,090621,,,A*70
$GPGGA,092718.000,4825.1431,N,00428.4539,W,1,06,1.6,87.0,M,52.0,M,,0000*7B
$GPGSA,A,3,31,29,26,18,25,05,,,,,,,2.9,1.6,2.5*3F
$GPRMC,092718.000,A,4825.1431,N,00428.4539,W,0.00,217.61,090621,,,A*7F
$GPGGA,092719.000,4825.1431,N,00428.4539,W,1,06,1.6,87.0,M,52.0,M,,0000*7A
$GPGSA,A,3,31,29,26,18,25,05,,,,,,,2.9,1.6,2.5*3F
$GPRMC,092719.000,A,4825.1431,N,00428.4539,W,0.00,217.61,090621,,,A*7E
$GPGGA,092720.000,4825.1431,N,00428.4539,W,1,06,1.6,87.0,M,52.0,M,,0000*70
$GPGSA,A,3,31,29,26,18,25,05,,,,,,,2.9,1.6,2.5*3F
$GPRMC,092720.000,A,4825.1431,N,00428.4539,W,0.00,217.61,090621,,,A*74
$GPGGA,092721.000,4825.1431,N,00428.4539,W,1,06,1.6,87.0,M,52.0,M,,0000*71
$GPGSA,A,3,31,29,26,18,25,05,,,,,,,2.9,1.6,2.5*3F
$GPGSV,3,1,12,31,63,228,38,29,60,056,43,26,49,294,44,18,38,155,42*76
$GPGSV,3,1,12,31,63,228,38,29,60,056,43,26,49,294,44,18,38,155,42*76
$GPGSV,3,2,12,25,29,104,37,05,08,073,33,57,68,131,,58,68,131,*70
$GPGSV,3,2,12,25,29,104,37,05,08,073,33,57,68,131,,58,68,131,*70
$GPGSV,3,3,12,59,68,131,,14,31,267,,15,18,261,,07,14,048,*79
$GPGSV,3,3,12,59,68,131,,14,31,267,,15,18,261,,07,14,048,*79
$GPRMC,092721.000,A,4825.1431,N,00428.4539,W,0.00,217.61,090621,,,A*75
$GPGGA,092722.000,4825.1431,N,00428.4539,W,1,06,1.6,87.0,M,52.0,M,,0000*72
$GPGSA,A,3,31,29,26,18,25,05,,,,,,,2.9,1.6,2.5*3F
$GPRMC,092722.000,A,4825.1431,N,00428.4539,W,0.00,217.61,090621,,,A*76
$GPGGA,092723.000,4825.1431,N,00428.4539,W,1,06,1.6,87.0,M,52.0,M,,0000*73
$GPGSA,A,3,31,29,26,18,25,05,,,,,,,2.9,1.6,2.5*3F
$GPRMC,092723.000,A,4825.1431,N,00428.4539,W,0.00,217.61,090621,,,A*77
$GPGGA,092724.000,4825.1431,N,00428.4539,W,1,06,1.6,87.0,M,52.0,M,,0000*74
$GPGSA,A,3,31,29,26,18,25,05,,,,,,,2.9,1.6,2.5*3F
$GPRMC,092724.000,A,4825.1431,N,00428.4539,W,0.00,217.61,090621,,,A*70
$GPGGA,092725.000,4825.1431,N,00428.4539,W,1,06,1.6,87.0,M,52.0,M,,0000*75
$GPGSA,A,3,31,29,26,18,25,05,,,,,,,2.9,1.6,2.5*3F
$GPRMC,092725.000,A,4825.1431,N,00428.4539,W,0.00,217.61,090621,,,A*71
$GPGGA,092726.000,4825.1431,N,00428.4539,W,1,06,1.6,87.0,M,52.0,M,,0000*76
$GPGSA,A,3,31,29,26,18,25,05,,,,,,,2.9,1.6,2.5*3F
$GPGSV,3,1,12,31,63,228,39,29,60,056,43,26,49,294,44,18,38,155,42*77
$GPGSV,3,1,12,31,63,228,39,29,60,056,43,26,49,294,44,18,38,155,42*77
$GPGSV,3,2,12,25,29,104,37,05,08,073,33,57,68,131,,58,68,131,*70
$GPGSV,3,2,12,25,29,104,37,05,08,073,33,57,68,131,,58,68,131,*70
$GPGSV,3,3,12,59,68,131,,14,31,267,,15,18,261,,07,14,048,*79
$GPGSV,3,3,12,59,68,131,,14,31,267,,15,18,261,,07,14,048,*79
$GPRMC,092726.000,A,4825.1431,N,00428.4539,W,0.00,217.61,090621,,,A*72
$GPGGA,092727.000,4825.1431,N,00428.4539,W,1,06,1.6,87.0,M,52.0,M,,0000*77
$GPGSA,A,3,31,29,26,18,25,05,,,,,,,2.9,1.6,2.5*3F
$GPRMC,092727.000,A,4825.1431,N,00428.4539,W,0.00,217.61,090621,,,A*73
$GPGGA,092728.000,4825.1431,N,00428.4539,W,1,06,1.6,87.0,M,52.0,M,,0000*78
$GPGSA,A,3,31,29,26,18,25,05,,,,,,,2.9,1.6,2.5*3F
$GPRMC,092728.000,A,4825.1431,N,00428.4539,W,0.00,217.61,090621,,,A*7C
$GPGGA,092729.000,4825.1431,N,00428.4539,W,1,06,1.6,87.0,M,52.0,M,,0000*79
$GPGSA,A,3,31,29,26,18,25,05,,,,,,,2.9,1.6,2.5*3F
$GPRMC,092729.000,A,4825.1431,N,00428.4539,W,0.00,217.61,090621,,,A*7D
$GPGGA,092730.000,4825.1431,N,00428.4539,W,1,06,1.6,87.0,M,52.0,M,,0000*71
$GPGSA,A,3,31,29,26,18,25,05,,,,,,,2.9,1.6,2.5*3F
$GPRMC,092730.000,A,4825.1431,N,00428.4539,W,0.00,217.61,090621,,,A*75
$GPGGA,092731.000,4825.1431,N,00428.4539,W,1,06,1.6,87.0,M,52.0,M,,0000*70
$GPGSA,A,3,31,29,26,18,25,05,,,,,,,2.9,1.6,2.5*3F
$GPGSV,3,1,12,31,63,228,39,29,60,056,43,26,49,294,44,18,38,155,42*77
$GPGSV,3,1,12,31,63,228,39,29,60,056,43,26,49,294,44,18,38,155,42*77
$GPGSV,3,2,12,25,29,104,37,05,08,073,33,57,68,131,,58,68,131,*70
$GPGSV,3,2,12,25,29,104,37,05,08,073,33,57,68,131,,58,68,131,*70
$GPGSV,3,3,12,59,68,131,,14,31,267,,15,18,261,,07,14,048,*79
$GPGSV,3,3,12,59,68,131,,14,31,267,,15,18,261,,07,14,048,*79
$GPRMC,092731.000,A,4825.1431,N,00428.4539,W,0.00,217.61,090621,,,A*74
$GPGGA,092732.000,4825.1431,N,00428.4539,W,1,06,1.6,87.0,M,52.0,M,,0000*73
$GPGSA,A,3,31,29,26,18,25,05,,,,,,,2.9,1.6,2.5*3F
$GPRMC,092732.000,A,4825.1431,N,00428.4539,W,0.00,217.61,090621,,,A*7$GPGGA,092733.000,4825.1431,N,00428.4539,W,1,06,1.6,87.0,M,52.0,M,,0000*72
$GPGSA,A,3,31,29,26,18,25,05,,,,,,,2.9,1.6,2.5*3F
$GPRMC,092733.000,A,4825.1431,N,00428.4539,W,0.00,217.61,090621,,,A*76
$GPGGA,092734.000,4825.1431,N,00428.4539,W,1,06,1.6,87.0,M,52.0,M,,0000*75
$GPGSA,A,3,31,29,26,18,25,05,,,,,,,2.9,1.6,2.5*3F
$GPRMC,092734.000,A,4825.1431,N,00428.4539,W,0.00,217.61,090621,,,A*71
$GPGGA,092735.000,4825.1431,N,00428.4539,W,1,06,1.6,87.1,M,52.0,M,,0000*75
$GPGSA,A,3,31,29,26,18,25,05,,,,,,,2.9,1.6,2.5*3F
$GPRMC,092735.000,A,4825.1431,N,00428.4539,W,0.00,217.61,090621,,,A*70
$GPGGA,092736.000,4825.1431,N,00428.4539,W,1,06,1.6,87.1,M,52.0,M,,0000*76
$GPGSA,A,3,31,29,26,18,25,05,,,,,,,2.9,1.6,2.5*3F
$GPGSV,3,1,12,31,63,228,39,29,60,056,43,26,49,294,44,18,38,155,42*77
$GPGSV,3,1,12,31,63,228,39,29,60,056,43,26,49,294,44,18,38,155,42*77
$GPGSV,3,2,12,25,29,104,37,05,08,073,33,57,68,131,,58,68,131,*70
$GPGSV,3,2,12,25,29,104,37,05,08,073,33,57,68,131,,58,68,131,*70
$GPGSV,3,3,12,59,68,131,,14,31,267,,15,18,261,,07,14,048,*79
$GPGSV,3,3,12,59,68,131,,14,31,267,,15,18,261,,07,14,048,*79
$GPRMC,092736.000,A,4825.1431,N,00428.4539,W,0.00,217.61,090621,,,A*73
,W,1,06,1.6,87.1,M,52.0,M,,0000*77
$GPGSA,A,3,31,29,26,18,25,05,,,,,,,2.9,1.6,2.5*3F
$GPRMC,092737.000,A,4825.1431,N,00428.4539,W,0.00,217.61,090621,,,A*72
$GPGGA,092738.000,4825.1431,N,00428.45390*78
$GPGSA,A,3,31,29,26,18,25,05,,,,,,,2.9,1.6,2.5*3F
$GPRMC,092738.000,A,4825.1431,N,00428.4539,W,0.00,217.61,090621,,,A*7D
$GPGGA,092739.000,4825.1431,N,00428.4539,W,1,06,1.6,87.1,M,52.0,M,,0000*79
$GPGSA,A,3,31,29,26,18,25,05,,,,,,,2.9,1.6,2.5*3F
$GPRMC,092739.000,A,4825.1431,N,00428.4539,W,0.00,217.61,090621,,,A*7C
$GPGGA,092740.000,4825.1431,N,00428.4539,W,1,06,1.6,87.1,M,52.0,M,,0000*77
$GPGSA,A,3,31,29,26,18,25,05,,,,,,,2.9,1.6,2.5*3F
$GPRMC,092740.000,A,4825.1431,N,00428.4539,W,0.00,217.61,090621,,,A*72
$GPGGA,092741.000,4825.1431,N,00428.4539,W,1,06,1.6,87.1,M,52.0,M,,0000*76
$GPGSA,A,3,31,29,26,18,25,05,,,,,,,2.9,1.6,2.5*3F
$GPGSV,3,1,12,31,63,228,39,29,60,056,43,26,49,294,44,18,38,155,42*77
$GPGSV,3,1,12,31,63,228,39,29,60,056,43,26,49,294,44,18,38,155,42*77
$GPGSV,3,2,12,25,29,104,37,05,08,073,33,57,68,131,,58,68,131,*70
$GPGSV,3,2,12,25,29,104,37,05,08,073,33,57,68,131,,58,68,131,*70
$GPGSV,3,3,12,59,68,131,,14,31,267,,15,18,261,,07,14,048,*79
$GPGSV,3,3,12,59,68,131,,14,31,267,,15,18,261,,07,14,048,*79
$GPRMC,092741.000,A,4825.1431,N,00428.4539,W,0.00,217.61,090621,,,A*73
$GPGGA,092742.000,4825.1431,N,00428.4539,W,1,06,1.6,87.1,M,52.0,M,,000$GPGGA,092743.000,4825.1431,N,00428.4539,W,1,06,1.6,87.1,M,52.0,M,,0000*74
$GPGSA,A,3,31,29,26,18,25,05,,,,,,,2.9,1.6,2.5*3F
$GPRMC,092743.000,A,4825.1431,N,00428.4539,W,0.00,217.61,090621,,,A*71
$GPGGA,092744.000,4825.1431,N,00428.4539,W,1,06,1.6,87.1,M,52.0,M,,0000*73
$GPGSA,A,3,31,29,26,18,25,05,,,,,,,2.9,1.6,2.5*3F
$GPRMC,092744.000,A,4825.1431,N,00428.4539,W,0.00,217.61,090621,,,A*76
$GPGGA,092745.000,4825.1431,N,00428.4539,W,1,06,1.6,87.1,M,52.0,M,,0000*72
$GPGSA,A,3,31,29,26,18,25,05,,,,,,,2.9,1.6,2.5*3F
$GPRMC,092745.000,A,4825.1431,N,00428.4539,W,0.00,217.61,090621,,,A*77
$GPGGA,092746.000,4825.1431,N,00428.4539,W,1,06,1.6,87.1,M,52.0,M,,0000*71
$GPGSA,A,3,31,29,26,18,25,05,,,,,,,2.9,1.6,2.5*3F
$GPGSV,3,1,12,31,63,228,39,29,60,056,43,26,49,294,44,18,38,155,35*77
$GPGSV,3,1,12,31,63,228,39,29,60,056,43,26,49,294,44,18,38,155,35*77
$GPGSV,3,2,12,25,29,104,37,05,08,073,33,57,68,131,,58,68,131,*70
$GPGSV,3,2,12,25,29,104,37,05,08,073,33,57,68,131,,58,68,131,*70
$GPGSV,3,3,12,59,68,131,,14,31,267,,15,18,261,,07,14,048,*79
$GPGSV,3,3,12,59,68,131,,14,31,267,,15,18,261,,07,14,048,*79
$GPRMC,092746.000,A,4825.1431,N,00428.4539,W,0.00,217.61,090621,,,A*74
06,1.6,87.1,M,52.0,M,,0000*70
$GPGSA,A,3,31,29,26,18,25,05,,,,,,,2.9,1.6,2.5*3F
$GPRMC,092747.000,A,4825.1431,N,00428.4539,W,0.00,217.61,090621,,,A*75
$GPGGA,092748.000,4825.1431,N,00428.4539,W,1,,25,05,,,,,,,2.9,1.6,2.5*3F
$GPRMC,092748.000,A,4825.1431,N,00428.4539,W,0.00,217.61,090621,,,A*7A
$GPGGA,092749.000,4825.1431,N,00428.4539,W,1,06,1.6,87.1,M,52.0,M,,0000*7E
$GPGSA,A,3,31,29,26,183F
$GPRMC,092749.000,A,4825.1431,N,00428.4539,W,0.00,217.61,090621,,,A*7B
$GPGGA,092750.000,4825.1430,N,00428.4539,W,1,06,1.6,87.1,M,52.0,M,,0000*77
$GPGSA,A,3,31,29,26,18,25,05,,,,,,,2.9,1.6,2.5*3F
$GPRMC,092750.000,A,4825.1430,N,00428.4539,W,0.00,217.61,090621,,,A*72
$GPGGA,092751.000,4825.1430,N,00428.4539,W,1,06,1.6,87.1,M,52.0,M,,0000*76
$GPGSA,A,3,31,29,26,18,25,05,,,,,,,2.9,1.6,2.5*3F
$GPGSV,3,1,12,31,63,228,39,29,60,056,43,26,49,294,44,18,38,155,41*74
$GPGSV,3,1,12,31,63,228,39,29,60,056,43,26,49,294,44,18,38,155,41*74
$GPGSV,3,2,12,25,29,104,35,05,08,073,34,57,68,131,,58,68,131,*75
$GPGSV,3,2,12,25,29,104,35,05,08,073,34,57,68,131,,58,68,131,*75
$GPGSV,3,3,12,59,68,131,,14,31,267,,15,18,261,,07,14,048,*79
$GPGSV,3,3,12,59,68,131,,14,31,267,,15,18,261,,07,14,048,*79
$GPRMC,092751.000,A,4825.1430,N,00428.4539,W,0.00,217.61,090621,,,A*73
$GPGGA,092752.000,4825.1430,N,00428.4539,W,1,06,1.6,87.1,M,52.0,M,,0000*75
$GPGSA,A,3,31,29,26,18,25,05,,,,,,,2.9,1.6,2.5*3F
$GPRMC,092752.000,A,4825.1430,N,00428.4539,W,0.00,217.61,090621,,,A*70
$GPGGA,092753.000,4825.1430,N,00428.4539,W,1,06,1.6,87.1,M,52.0,M,,0000*74
$GPGSA,A,3,31,29,26,18,25,05,,,,,,,2.9,1.6,2.5*3F
$GPRMC,092753.000,A,4825.1430,N,00428.4539,W,0.00,217.61,090621,,,A*71
$GPGGA,092754.000,4825.1430,N,00428.4539,W,1,06,1.6,87.1,M,52.0,M,,0000*73
$GPGSA,A,3,31,29,26,18,25,05,,,,,,,2.9,1.6,2.5*3F
$GPRMC,092754.000,A,4825.1430,N,00428.4539,W,0.00,217.61,090621,,,A*76
$GPGGA,092755.000,4825.1430,N,00428.4539,W,1,06,1.6,87.1,M,52.0,M,,0000*72
$GPGSA,A,3,31,29,26,18,25,05,,,,,,,2.9,1.6,2.5*3F
$GPRMC,092755.000,A,4825.1430,N,00428.4539,W,0.00,217.61,090621,,,A*77
$GPGGA,092756.000,4825.1430,N,00428.4539,W,1,06,1.6,87.1,M,52.0,M,,0000*71
$GPGSA,A,3,31,29,26,18,25,05,,,,,,,2.9,1.6,2.5*3F
$GPGSV,3,1,12,31,63,228,39,29,60,056,43,26,49,294,45,18,38,155,42*76
$GPGSV,3,1,12,31,63,228,39,29,60,056,43,26,49,294,45,18,38,155,42*76
$GPGSV,3,2,12,25,29,104,32,05,08,073,33,57,68,131,,58,68,131,*75
$GPGSV,3,2,12,25,29,104,32,05,08,073,33,57,68,131,,58,68,131,*75
$GPGSV,3,3,12,59,68,131,,14,31,267,,15,18,261,,07,14,048,*79
$GPGSV,3,3,12,59,68,131,,14,31,267,,15,18,261,,07,14,048,*79
$GPRMC,092756.000,A,4825.1430,N,00428.4539,W,0.00,217.61,090621,,,A*74
$GPGGA,092757.000,4825.1430,N,00428.4539,W,1,06,1.6,87.1,M,52.0,M,,0000*70
$GPGSA,A,3,31,29,26,18,25,05,,,,,,,2.9,1.6,2.5*3F
$GPRMC,092757.000,A,4825.1430,N,00428.4539,W,0.00,217.61,090621,,,A*75
$GPGGA,092758.000,4825.1430,N,00428.4539,W,1,06,1.6,87.1,M,52.0,M,,0000*7F
$GPGSA,A,3,31,29,26,18,25,05,,,,,,,2.9,1.6,2.5*3F
$GPRMC,092758.000,A,4825.1430,N,00428.4539,W,0.00,217.61,090621,,,A*7A
$GPGGA,092759.000,4825.1430,N,00428.4539,W,1,06,1.6,87.1,M,52.0,M,,0000*7E
$GPGSA,A,3,31,29,26,18,25,05,,,,,,,2.9,1.6,2.5*3F
$GPRMC,092759.000,A,4825.1430,N,00428.4539,W,0.00,217.61,090621,,,A*7B
$GPGGA,092800.000,4825.1430,N,00428.4539,W,1,06,1.6,87.1,M,52.0,M,,0000*7D
$GPGSA,A,3,31,29,26,18,25,05,,,,,,,2.9,1.6,2.5*3F
$GPRMC,092800.000,A,4825.1430,N,00428.4539,W,0.00,217.61,090621,,,A*78
$GPGGA,092801.000,4825.1430,N,00428.4539,W,1,06,1.6,87.1,M,52.0,M,,0000*7C
$GPGSA,A,3,31,29,26,18,25,05,,,,,,,2.9,1.6,2.5*3F
$GPGSV,3,1,12,31,62,225,39,29,58,056,43,26,51,294,45,18,40,154,41*75
$GPGSV,3,1,12,31,62,225,39,29,58,056,43,26,51,294,45,18,40,154,41*75
$GPGSV,3,2,12,25,28,105,32,05,08,072,34,57,68,131,,58,68,131,*73
$GPGSV,3,2,12,25,28,105,32,05,08,072,34,57,68,131,,58,68,131,*73
$GPGSV,3,3,12,59,68,131,,14,32,268,,15,19,262,,07,13,048,*70
$GPGSV,3,3,12,59,68,131,,14,32,268,,15,19,262,,07,13,048,*70
$GPRMC,092801.000,A,4825.1430,N,00428.4539,W,0.00,217.61,090621,,,A*79
$GPGGA,092802.000,4825.1430,N,00428.4539,W,1,06,1.6,87.1,M,52.0,M,,0000*7F
$GPGSA,A,3,31,29,26,18,25,05,,,,,,,2.9,1.6,2.5*3F
$GPRMC,092802.000,A,4825.1430,N,00428.4539,W,0.00,217.61,090621,,,A*7A
$GPGGA,092803.000,4825.1430,N,00428.4539,W,1,06,1.6,87.1,M,52.0,M,,0000*7E
$GPGSA,A,3,31,29,26,18,25,05,,,,,,,2.9,1.6,2.5*3F
$GPRMC,092803.000,A,4825.1430,N,00428.4539,W,0.00,217.61,090621,,,A*7B
$GPGGA,092804.000,4825.1430,N,00428.4539,W,1,06,1.6,87.1,M,52.0,M,,0000*79
$GPGSA,A,3,31,29,26,18,25,05,,,,,,,2.9,1.6,2.5*3F
$GPRMC,092804.000,A,4825.1430,N,00428.4539,W,0.00,217.61,090621,,,A*7C
$GPGGA,092805.000,4825.1430,N,00428.4539,W,1,06,1.6,87.1,M,52.0,M,,0000*78
$GPGSA,A,3,31,29,26,18,25,05,,,,,,,2.9,1.6,2.5*3F
$GPRMC,092805.000,A,4825.1430,N,00428.4539,W,0.00,217.61,090621,,,A*7D
$GPGGA,092806.000,4825.1430,N,00428.4539,W,1,06,1.6,87.1,M,52.0,M,,0000*7B
$GPGSA,A,3,31,29,26,18,25,05,,,,,,,2.9,1.6,2.5*3F
$GPGSV,3,1,12,31,62,225,39,29,58,056,43,26,51,294,45,18,40,154,42*76
$GPGSV,3,1,12,31,62,225,39,29,58,056,43,26,51,294,45,18,40,154,42*76
$GPGSV,3,2,12,25,28,105,38,05,08,072,34,57,68,131,,58,68,131,*79
$GPGSV,3,2,12,25,28,105,38,05,08,072,34,57,68,131,,58,68,131,*79
$GPGSV,3,3,12,59,68,131,,14,32,268,,15,19,262,,07,13,048,*70
$GPGSV,3,3,12,59,68,131,,14,32,268,,15,19,262,,07,13,048,*70
$GPRMC,092806.000,A,4825.1430,N,00428.4539,W,0.00,217.61,090621,,,A*7E
$GPGGA,092807.000,4825.1430,N,00428.4539,W,1,06,1.6,87.1,M,52.0,M,,0000*7A
$GPGSA,A,3,31,29,26,18,25,05,,,,,,,2.9,1.6,2.5*3F
$GPRMC,092807.000,A,4825.1430,N,00428.4539,W,0.00,217.61,090621,,,A*7F
$GPGGA,092808.000,4825.1430,N,00428.4539,W,1,06,1.6,87.1,M,52.0,M,,0000*75
$GPGSA,A,3,31,29,26,18,25,05,,,,,,,2.9,1.6,2.5*3F
$GPRMC,092808.000,A,4825.1430,N,00428.4539,W,0.00,217.61,090621,,,A*70
$GPGGA,092809.000,4825.1430,N,00428.4539,W,1,06,1.6,87.1,M,52.0,M,,0000*74
$GPGSA,A,3,31,29,26,18,25,05,,,,,,,2.9,1.6,2.5*3F
$GPRMC,092809.000,A,4825.1430,N,00428.4539,W,0.00,217.61,090621,,,A*71
$GPGGA,092810.000,4825.1430,N,00428.4539,W,1,06,1.6,87.1,M,52.0,M,,0000*7C
$GPGSA,A,3,31,29,26,18,25,05,,,,,,,3.0,1.6,2.5*37
$GPRMC,092810.000,A,4825.1430,N,00428.4539,W,0.00,217.61,090621,,,A*79
$GPGGA,092811.000,4825.1430,N,00428.4539,W,1,06,1.6,87.1,M,52.0,M,,0000*7D
$GPGSA,A,3,31,29,26,18,25,05,,,,,,,3.0,1.6,2.5*37
$GPGSV,3,1,12,31,62,225,39,29,58,056,43,26,51,294,44,18,40,154,42*77
$GPGSV,3,1,12,31,62,225,39,29,58,056,43,26,51,294,44,18,40,154,42*77
$GPGSV,3,2,12,25,28,105,38,05,08,072,33,57,68,131,,58,68,131,*7E
$GPGSV,3,2,12,25,28,105,38,05,08,072,33,57,68,131,,58,68,131,*7E
$GPGSV,3,3,12,59,68,131,,14,32,268,,15,19,262,,07,13,048,*70
$GPGSV,3,3,12,59,68,131,,14,32,268,,15,19,262,,07,13,048,*70
$GPRMC,092811.000,A,4825.1430,N,00428.4539,W,0.00,217.61,090621,,,A*78
$GPGGA,092812.000,4825.1430,N,00428.4539,W,1,06,1.6,87.1,M,52.0,M,,0000*7E
$GPGSA,A,3,31,29,26,18,25,05,,,,,,,3.0,1.6,2.5*37
$GPRMC,092812.000,A,4825.1430,N,00428.4539,W,0.00,217.61,090621,,,A*7B
$GPGGA,092813.000,4825.1430,N,00428.4539,W,1,06,1.6,87.1,M,52.0,M,,0000*7F
$GPGSA,A,3,31,29,26,18,25,05,,,,,,,3.0,1.6,2.5*37
$GPRMC,092813.000,A,4825.1430,N,00428.4539,W,0.00,217.61,090621,,,A*7A
$GPGGA,092814.000,4825.1430,N,00428.4539,W,1,06,1.6,87.1,M,52.0,M,,0000*78
$GPGSA,A,3,31,29,26,18,25,05,,,,,,,3.0,1.6,2.5*37
$GPRMC,092814.000,A,4825.1430,N,00428.4539,W,0.00,217.61,090621,,,A*7D
$GPGGA,092815.000,4825.1430,N,00428.4539,W,1,06,1.6,87.1,M,52.0,M,,0000*79
$GPGSA,A,3,31,29,26,18,25,05,,,,,,,3.0,1.6,2.5*37
$GPRMC,092815.000,A,4825.1430,N,00428.4539,W,0.00,217.61,090621,,,A*7C
$GPGGA,092816.000,4825.1430,N,00428.4539,W,1,06,1.6,87.1,M,52.0,M,,0000*7A
$GPGSA,A,3,31,29,26,18,25,05,,,,,,,3.0,1.6,2.5*37
$GPGSV,3,1,12,31,62,225,39,29,58,056,43,26,51,294,44,18,40,154,42*77
$GPGSV,3,1,12,31,62,225,39,29,58,056,43,26,51,294,44,18,40,154,42*77
$GPGSV,3,2,12,25,28,105,38,05,08,072,33,57,68,131,,58,68,131,*7E
$GPGSV,3,2,12,25,28,105,38,05,08,072,33,57,68,131,,58,68,131,*7E
$GPGSV,3,3,12,59,68,131,,14,32,268,,15,19,262,,07,13,048,*70
$GPGSV,3,3,12,59,68,131,,14,32,268,,15,19,262,,07,13,048,*70
$GPRMC,092816.000,A,4825.1430,N,00428.4539,W,0.00,217.61,090621,,,A*7F
$GPGGA,092817.000,4825.1430,N,00428.4539,W,1,06,1.6,87.1,M,52.0,M,,0000*7B
$GPGSA,A,3,31,29,26,18,25,05,,,,,,,3.0,1.6,2.5*37
$GPRMC,092817.000,A,4825.1430,N,00428.4539,W,0.00,217.61,090621,,,A*7E
$GPGGA,092818.000,4825.1430,N,00428.4539,W,1,06,1.6,87.1,M,52.0,M,,0000*74
$GPGSA,A,3,31,29,26,18,25,05,,,,,,,3.0,1.6,2.5*37
$GPRMC,092818.000,A,4825.1430,N,00428.4539,W,0.00,217.61,090621,,,A*71
$GPGGA,092819.000,4825.1430,N,00428.4539,W,1,06,1.6,87.1,M,52.0,M,,0000*75
$GPGSA,A,3,31,29,26,18,25,05,,,,,,,3.0,1.6,2.5*37
$GPRMC,092819.000,A,4825.1430,N,00428.4539,W,0.00,217.61,090621,,,A*70
$GPGGA,092820.000,4825.1430,N,00428.4539,W,1,06,1.6,87.1,M,52.0,M,,0000*7F
$GPGSA,A,3,31,29,26,18,25,05,,,,,,,3.0,1.6,2.5*37
$GPRMC,092820.000,A,4825.1430,N,00428.4539,W,0.00,217.61,090621,,,A*7A
$GPGGA,092821.000,4825.1430,N,00428.4539,W,1,06,1.6,87.1,M,52.0,M,,0000*7E
$GPGSA,A,3,31,29,26,18,25,05,,,,,,,3.0,1.6,2.5*37
$GPGSV,3,1,12,31,62,225,39,29,58,056,43,26,51,294,44,18,40,154,42*77
$GPGSV,3,1,12,31,62,225,39,29,58,056,43,26,51,294,44,18,40,154,42*77
$GPGSV,3,2,12,25,28,105,38,05,08,072,33,57,68,131,,58,68,131,*7E
$GPGSV,3,2,12,25,28,105,38,05,08,072,33,57,68,131,,58,68,131,*7E
$GPGSV,3,3,12,59,68,131,,14,32,268,,15,19,262,,07,13,048,*70
$GPGSV,3,3,12,59,68,131,,14,32,268,,15,19,262,,07,13,048,*70
$GPRMC,092821.000,A,4825.1430,N,00428.4539,W,0.00,217.61,090621,,,A*7B
$GPGGA,092822.000,4825.1430,N,00428.4539,W,1,06,1.6,87.1,M,52.0,M,,0000*7D
$GPGSA,A,3,31,29,26,18,25,05,,,,,,,3.0,1.6,2.5*37
$GPRMC,092822.000,A,4825.1430,N,00428.4539,W,0.00,217.61,090621,,,A*78
$GPGGA,092823.000,4825.1430,N,00428.4539,W,1,06,1.6,87.1,M,52.0,M,,0000*7C
$GPGSA,A,3,31,29,26,18,25,05,,,,,,,3.0,1.6,2.5*37
$GPRMC,092823.000,A,4825.1430,N,00428.4539,W,0.00,217.61,090621,,,A*79
$GPGGA,092824.000,4825.1430,N,00428.4539,W,1,06,1.6,87.1,M,52.0,M,,0000*7B
$GPGSA,A,3,31,29,26,18,25,05,,,,,,,3.0,1.6,2.5*37
$GPRMC,092824.000,A,4825.1430,N,00428.4539,W,0.00,217.61,090621,,,A*7E
$GPGGA,092825.000,4825.1430,N,00428.4539,W,1,06,1.6,87.1,M,52.0,M,,0000*7A
$GPGSA,A,3,31,29,26,18,25,05,,,,,,,3.0,1.6,2.5*37
$GPRMC,092825.000,A,4825.1430,N,00428.4539,W,0.00,217.61,090621,,,A*7F
$GPGGA,092826.000,4825.1430,N,00428.4539,W,1,06,1.6,87.1,M,52.0,M,,0000*79
$GPGSA,A,3,31,29,26,18,25,05,,,,,,,3.0,1.6,2.5*37
$GPGSV,3,1,12,31,62,225,39,29,58,056,43,26,51,294,44,18,40,154,42*77
$GPGSV,3,1,12,31,62,225,39,29,58,056,43,26,51,294,44,18,40,154,42*77
$GPGSV,3,2,12,25,28,105,37,05,08,072,34,57,68,131,,58,68,131,*76
$GPGSV,3,2,12,25,28,105,37,05,08,072,34,57,68,131,,58,68,131,*76
$GPGSV,3,3,12,59,68,131,,14,32,268,,15,19,262,,07,13,048,*70
$GPGSV,3,3,12,59,68,131,,14,32,268,,15,19,262,,07,13,048,*70
$GPRMC,092826.000,A,4825.1430,N,00428.4539,W,0.00,217.61,090621,,,A*7C
$GPGGA,092827.000,4825.1430,N,00428.4540,W,1,06,1.6,87.1,M,52.0,M,,0000*76
$GPGSA,A,3,31,29,26,18,25,05,,,,,,,3.0,1.6,2.5*37
$GPRMC,092827.000,A,4825.1430,N,00428.4540,W,0.00,217.61,090621,,,A*7$GPGGA,092828.000,4825.1430,N,00428.4540,W,1,06,1.6,87.1,M,52.0,M,,0000*79
$GPGSA,A,3,31,29,26,18,25,05,,,,,,,3.0,1.6,2.5*37
$GPRMC,092828.000,A,4825.1430,N,00428.4540,W,0.00,217.61,090621,,,A*7C
$GPGGA,092829.000,4825.1430,N,00428.4540,W,1,06,1.6,87.1,M,52.0,M,,0000*78
$GPGSA,A,3,31,29,26,18,25,05,,,,,,,3.0,1.6,2.5*37
$GPRMC,092829.000,A,4825.1430,N,00428.4540,W,0.00,217.61,090621,,,A*7D
$GPGGA,092830.000,4825.1430,N,00428.4540,W,1,06,1.6,87.1,M,52.0,M,,0000*70
$GPGSA,A,3,31,29,26,18,25,05,,,,,,,3.0,1.6,2.5*37
$GPRMC,092830.000,A,4825.1430,N,00428.4540,W,0.00,217.61,090621,,,A*75
$GPGGA,092831.000,4825.1430,N,00428.4540,W,1,06,1.6,87.1,M,52.0,M,,0000*71
$GPGSA,A,3,31,29,26,18,25,05,,,,,,,3.0,1.6,2.5*37
$GPGSV,3,1,12,31,62,225,39,29,58,056,43,26,51,294,44,18,40,154,42*77
$GPGSV,3,1,12,31,62,225,39,29,58,056,43,26,51,294,44,18,40,154,42*77
$GPGSV,3,2,12,25,28,105,37,05,08,072,34,57,68,131,,58,68,131,*76
$GPGSV,3,2,12,25,28,105,37,05,08,072,34,57,68,131,,58,68,131,*76
$GPGSV,3,3,12,59,68,131,,14,32,268,,15,19,262,,07,13,048,*70
$GPGSV,3,3,12,59,68,131,,14,32,268,,15,19,262,,07,13,048,*70
$GPRMC,092831.000,A,4825.1430,N,00428.4540,W,0.00,217.61,090621,,,A*74
1,090621,,,A*77
$GPGGA,092833.000,4825.1430,N,00428.4540,W,1,06,1.6,87.1,M,52.0,M,,0000*73
$GPGSA,A,3,31,29,26,18,25,05,,,,,,,3.0,1.6,2.5*37
$GPRMC,092833.000,A,4825.1430,N,00428.4540,W,0.00,217.6$GPGGA,092834.000,4825.1430,N,00428.4540,W,1,06,1.6,87.1,M,52.0,M,,0000*74
$GPGSA,A,3,31,29,26,18,25,05,,,,,,,3.0,1.6,2.5*37
$GPRMC,092834.000,A,4825.1430,N,00428.4540,W,0.00,217.61,090621,,,A*71
$GPGGA,092835.000,4825.1430,N,00428.4540,W,1,06,1.6,87.1,M,52.0,M,,0000*75
$GPGSA,A,3,31,29,26,18,25,05,,,,,,,3.0,1.6,2.5*37
$GPRMC,092835.000,A,4825.1430,N,00428.4540,W,0.00,217.61,090621,,,A*70
$GPGGA,092836.000,4825.1430,N,00428.4540,W,1,06,1.6,87.1,M,52.0,M,,0000*76
$GPGSA,A,3,31,29,26,18,25,05,,,,,,,3.0,1.6,2.5*37
$GPGSV,3,1,12,31,62,225,39,29,58,056,43,26,51,294,44,18,40,154,42*77
$GPGSV,3,1,12,31,62,225,39,29,58,056,43,26,51,294,44,18,40,154,42*77
$GPGSV,3,2,12,25,28,105,37,05,08,072,35,57,68,131,,58,68,131,*77
$GPGSV,3,2,12,25,28,105,37,05,08,072,35,57,68,131,,58,68,131,*77
$GPGSV,3,3,12,59,68,131,,14,32,268,,15,19,262,,07,13,048,*70
$GPGSV,3,3,12,59,68,131,,14,32,268,,15,19,262,,07,13,048,*70
$GPRMC,092836.000,A,4825.1430,N,00428.4540,W,0.00,217.61,090621,,,A*73
$GPGGA,092837.000,4825.1430,N,00428.4540,W,1,06,1.6,87.1,M,52.0,M,,0000*77
$GPGSA,A,3,31,29,26,18,25,05,,,,,,,3.0,1.6,2.5*37
