$GPRMC,093149.000,A,4825.1403,N,00428.4606,W,0.00,227.81,090621,,,A*7F
$GPGGA,093150.000,4825.1403,N,00428.4606,W,1,06,1.6,87.4,M,52.0,M,,0000*7A
$GPGSA,A,3,31,29,26,18,25,05,,,,,,,3.1,1.6,2.6*35
$GPRMC,093150.000,A,4825.1403,N,00428.4606,W,0.00,227.81,090621,,,A*77
$GPGGA,093151.000,4825.1403,N,00428.4606,W,1,06,1.6,87.4,M,52.0,M,,0000*7B
$GPGSA,A,3,31,29,26,18,25,05,,,,,,,3.1,1.6,2.6*35
$GPGSV,3,1,12,31,61,223,42,29,57,056,46,26,52,295,44,18,41,153,41*73
$GPGSV,3,1,12,31,61,223,42,29,57,056,46,26,52,295,44,18,41,153,41*73
$GPGSV,3,2,12,25,26,106,39,05,09,070,30,09,02,341,25,57,68,131,*78
$GPGSV,3,2,12,25,26,106,39,05,09,070,30,09,02,341,25,57,68,131,*78
$GPGSV,3,3,12,58,68,131,,59,68,131,,14,33,269,,15,20,263,*72
$GPGSV,3,3,12,58,68,131,,59,68,131,,14,33,269,,15,20,263,*72
$GPRMC,093151.000,A,4825.1403,N,00428.4606,W,0.00,227.81,090621,,,A*76
$GPGGA,093152.000,4825.1403,N,00428.4606,W,1,06,1.6,87.4,M,52.0,M,,0000*78
$GPGSA,A,3,31,29,26,18,25,05,,,,,,,3.1,1.6,2.6*35
$GPRMC,093152.000,A,4825.1403,N,00428.4606,W,0.00,227.81,090621,,,A*75
$GPGGA,093153.000,4825.1403,N,00428.4606,W,1,06,1.6,87.4,M,52.0,M,,0000*79
$GPGSA,A,3,31,29,26,18,25,05,,,,,,,3.1,1.6,2.6*35
$GPRMC,093153.000,A,4825.1403,N,00428.4606,W,0.00,227.81,090621,,,A*74
$GPGGA,093154.000,4825.1403,N,00428.4606,W,1,06,1.6,87.4,M,52.0,M,,0000*7E
$GPGSA,A,3,31,29,26,18,25,05,,,,,,,3.1,1.6,2.6*35
$GPRMC,093154.000,A,4825.1403,N,00428.4606,W,0.00,227.81,090621,,,A*73
$GPGGA,093155.000,4825.1403,N,00428.4606,W,1,06,1.6,87.4,M,52.0,M,,0000*7F
$GPGSA,A,3,31,29,26,18,25,05,,,,,,,3.1,1.6,2.6*35
$GPRMC,093155.000,A,4825.1403,N,00428.4606,W,0.00,227.81,090621,,,A*72
$GPGGA,093156.000,4825.1403,N,00428.4606,W,1,06,1.6,87.4,M,52.0,M,,0000*7C
$GPGSA,A,3,31,29,26,18,25,05,,,,,,,3.1,1.6,2.6*35
$GPGSV,3,1,12,31,61,223,42,29,57,056,46,26,52,295,44,18,41,153,42*70
$GPGSV,3,1,12,31,61,223,42,29,57,056,46,26,52,295,44,18,41,153,42*70
$GPGSV,3,2,12,25,26,106,40,05,09,070,30,09,02,341,26,57,68,131,*75
$GPGSV,3,2,12,25,26,106,40,05,09,070,30,09,02,341,26,57,68,131,*75
$GPGSV,3,3,12,58,68,131,,59,68,131,,14,33,269,,15,20,263,*72
$GPGSV,3,3,12,58,68,131,,59,68,131,,14,33,269,,15,20,263,*72
$GPRMC,093156.000,A,4825.1403,N,00428.4606,W,0.00,227.81,090621,,,A*71
$GPGGA,093157.000,4825.1403,N,00428.4606,W,1,06,1.6,87.4,M,52.0,M,,0000*7D
$GPGSA,A,3,31,29,26,18,25,05,,,,,,,3.1,1.6,2.6*35
$GPRMC,093157.000,A,4825.1403,N,00428.4606,W,0.00,227.81,090621,,,A*70
$GPGGA,093158.000,4825.1403,N,00428.4606,W,1,06,1.6,87.4,M,52.0,M,,0000*72
$GPGSA,A,3,31,29,26,18,25,05,,,,,,,3.1,1.6,2.6*35
$GPRMC,093158.000,A,4825.1403,N,00428.4606,W,0.00,227.81,090621,,,A*7F
$GPGGA,093159.000,4825.1402,N,00428.4606,W,1,06,1.6,87.4,M,52.0,M,,0000*72
$GPGSA,A,3,31,29,26,18,25,05,,,,,,,3.1,1.6,2.6*35
$GPRMC,093159.000,A,4825.1402,N,00428.4606,W,0.00,227.81,090621,,,A*7F
$GPGGA,093200.000,4825.1402,N,00428.4606,W,1,06,1.6,87.4,M,52.0,M,,0000*7D
$GPGSA,A,3,31,29,26,18,25,05,,,,,,,3.1,1.6,2.6*35
$GPRMC,093200.000,A,4825.1402,N,00428.4606,W,0.00,227.81,090621,,,A*70
$GPGGA,093201.000,4825.1402,N,00428.4606,W,1,06,1.6,87.4,M,52.0,M,,0000*7C
$GPGSA,A,3,31,29,26,18,25,05,,,,,,,3.1,1.6,2.6*35
$GPGSV,3,1,12,31,61,223,42,29,57,056,46,26,52,295,43,18,41,153,42*77
$GPGSV,3,1,12,31,61,223,42,29,57,056,46,26,52,295,43,18,41,153,42*77
$GPGSV,3,2,12,25,26,106,39,05,09,070,28,09,02,341,19,57,68,131,*7E
$GPGSV,3,2,12,25,26,106,39,05,09,070,28,09,02,341,19,57,68,131,*7E
$GPGSV,3,3,12,58,68,131,,59,68,131,,14,33,269,,15,20,263,*72
$GPGSV,3,3,12,58,68,131,,59,68,131,,14,33,269,,15,20,263,*72
$GPRMC,093201.000,A,4825.1402,N,00428.4606,W,0.00,227.81,090621,,,A*71
$GPGGA,093202.000,4825.1402,N,00428.4606,W,1,06,1.6,87.4,M,52.0,M,,0000*7F
$GPGSA,A,3,31,29,26,18,25,05,,,,,,,3.1,1.6,2.6*35
$GPRMC,093202.000,A,4825.1402,N,00428.4606,W,0.00,227.81,090621,,,A*72
$GPGGA,093203.000,4825.1402,N,00428.4606,W,1,06,1.6,87.4,M,52.0,M,,0000*7E
$GPGSA,A,3,31,29,26,18,25,05,,,,,,,3.1,1.6,2.6*35
$GPRMC,093203.000,A,4825.1402,N,00428.4606,W,0.00,227.81,090621,,,A*73
$GPGGA,093204.000,4825.1402,N,00428.4606,W,1,06,1.6,87.4,M,52.0,M,,0000*79
$GPGSA,A,3,31,29,26,18,25,05,,,,,,,3.1,1.6,2.6*35
$GPRMC,093204.000,A,4825.1402,N,00428.4606,W,0.00,227.81,090621,,,A*74
$GPGGA,093205.000,4825.1402,N,00428.4606,W,1,06,1.6,87.4,M,52.0,M,,0000*78
$GPGSA,A,3,31,29,26,18,25,05,,,,,,,3.1,1.6,2.6*35
$GPRMC,093205.000,A,4825.1402,N,00428.4606,W,0.00,227.81,090621,,,A*75
$GPGGA,093206.000,4825.1402,N,00428.4606,W,1,06,1.6,87.4,M,52.0,M,,0000*7B
$GPGSA,A,3,31,29,26,18,25,05,,,,,,,3.1,1.6,2.6*35
$GPGSV,3,1,12,31,61,223,41,29,57,056,46,26,52,295,43,18,41,153,41*77
$GPGSV,3,1,12,31,61,223,41,29,57,056,46,26,52,295,43,18,41,153,41*77
$GPGSV,3,2,12,25,26,106,39,05,09,070,30,09,02,341,26,57,68,131,*7B
$GPGSV,3,2,12,25,26,106,39,05,09,070,30,09,02,341,26,57,68,131,*7B
$GPGSV,3,3,12,58,68,131,,59,68,131,,14,33,269,,15,20,263,*72
$GPGSV,3,3,12,58,68,131,,59,68,131,,14,33,269,,15,20,263,*72
$GPRMC,093206.000,A,4825.1402,N,00428.4606,W,0.00,227.81,090621,,,A*76
$GPGGA,093207.000,4825.1402,N,00428.4606,W,1,06,1.6,87.4,M,52.0,M,,0000*7A
$GPGSA,A,3,31,29,26,18,25,05,,,,,,,3.1,1.6,2.6*35
$GPRMC,093207.000,A,4825.1402,N,00428.4606,W,0.00,227.81,090621,,,A*77
$GPGGA,093208.000,4825.1402,N,00428.4606,W,1,06,1.6,87.4,M,52.0,M,,0000*75
$GPGSA,A,3,31,29,26,18,25,05,,,,,,,3.1,1.6,2.6*35
$GPRMC,093208.000,A,4825.1402,N,00428.4606,W,0.00,227.81,090621,,,A*78
$GPGGA,093209.000,4825.1402,N,00428.4606,W,1,06,1.6,87.3,M,52.0,M,,0000*73
$GPGSA,A,3,31,29,26,18,25,05,,,,,,,3.1,1.6,2.6*35
$GPRMC,093209.000,A,4825.1402,N,00428.4606,W,0.00,227.81,090621,,,A*79
$GPGGA,093210.000,4825.1402,N,00428.4606,W,1,06,1.6,87.3,M,52.0,M,,0000*7B
$GPGSA,A,3,31,29,26,18,25,05,,,,,,,3.1,1.6,2.6*35
$GPRMC,093210.000,A,4825.1402,N,00428.4606,W,0.00,227.81,090621,,,A*71
$GPGGA,093211.000,4825.1402,N,00428.4606,W,1,06,1.6,87.3,M,52.0,M,,0000*7A
$GPGSA,A,3,31,29,26,18,25,05,,,,,,,3.1,1.6,2.6*35
$GPGSV,3,1,12,31,61,223,41,29,57,056,46,26,52,295,43,18,41,153,41*77
$GPGSV,3,1,12,31,61,223,41,29,57,056,46,26,52,295,43,18,41,153,41*77
$GPGSV,3,2,12,25,26,106,39,05,09,070,30,09,02,341,26,57,68,131,*7B
$GPGSV,3,2,12,25,26,106,39,05,09,070,30,09,02,341,26,57,68,131,*7B
$GPGSV,3,3,12,58,68,131,,59,68,131,,14,33,269,,15,20,263,*72
$GPGSV,3,3,12,58,68,131,,59,68,131,,14,33,269,,15,20,263,*72
$GPRMC,093211.000,A,4825.1402,N,00428.4606,W,0.00,227.81,090621,,,A*70
$GPGGA,093212.000,4825.1402,N,00428.4606,W,1,06,1.6,87.3,M,52.0,M,,0000*79
$GPGSA,A,3,31,29,26,18,25,05,,,,,,,3.1,1.6,2.6*35
$GPRMC,093212.000,A,4825.1402,N,00428.4606,W,0.00,227.81,090621,,,A*73
$GPGGA,093213.000,4825.1402,N,00428.4606,W,1,06,1.6,87.3,M,52.0,M,,0000*78
$GPGSA,A,3,31,29,26,18,25,05,,,,,,,3.1,1.6,2.6*35
$GPRMC,093213.000,A,4825.1402,N,00428.4606,W,0.00,227.81,090621,,,A*72
$GPGGA,093214.000,4825.1402,N,00428.4606,W,1,06,1.6,87.3,M,52.0,M,,0000*7F
$GPGSA,A,3,31,29,26,18,25,05,,,,,,,3.1,1.6,2.6*35
$GPRMC,093214.000,A,4825.1402,N,00428.4606,W,0.00,227.81,090621,,,A*75
$GPGGA,093215.000,4825.1402,N,00428.4606,W,1,06,1.6,87.3,M,52.0,M,,0000*7E
$GPGSA,A,3,31,29,26,18,25,05,,,,,,,3.1,1.6,2.6*35
$GPRMC,093215.000,A,4825.1402,N,00428.4606,W,0.00,227.81,090621,,,A*74
$GPGGA,093216.000,4825.1402,N,00428.4606,W,1,06,1.6,87.3,M,52.0,M,,0000*7D
$GPGSA,A,3,31,29,26,18,25,05,,,,,,,3.1,1.6,2.6*35
$GPGSV,3,1,12,31,61,223,41,29,57,056,46,26,52,295,43,18,41,153,41*77
$GPGSV,3,1,12,31,61,223,41,29,57,056,46,26,52,295,43,18,41,153,41*77
$GPGSV,3,2,12,25,26,106,39,05,09,070,31,09,02,341,26,57,68,131,*7A
$GPGSV,3,2,12,25,26,106,39,05,09,070,31,09,02,341,26,57,68,131,*7A
$GPGSV,3,3,12,58,68,131,,59,68,131,,14,33,269,,15,20,263,*72
$GPGSV,3,3,12,58,68,131,,59,68,131,,14,33,269,,15,20,263,*72
$GPRMC,093216.000,A,4825.1402,N,00428.4606,W,0.00,227.81,090621,,,A*77
$GPGGA,093217.000,4825.1402,N,00428.4606,W,1,06,1.6,87.3,M,52.0,M,,0000*7C
$GPGSA,A,3,31,29,26,18,25,05,,,,,,,3.1,1.6,2.6*35
$GPRMC,093217.000,A,4825.1402,N,00428.4606,W,0.00,227.81,090621,,,A*76
$GPGGA,093218.000,4825.1402,N,00428.4606,W,1,06,1.6,87.3,M,52.0,M,,0000*73
$GPGSA,A,3,31,29,26,18,25,05,,,,,,,3.1,1.6,2.6*35
$GPRMC,093218.000,A,4825.1402,N,00428.4606,W,0.00,227.81,090621,,,A*79
$GPGGA,093219.000,4825.1402,N,00428.4606,W,1,06,1.6,87.3,M,52.0,M,,0000*72
$GPGSA,A,3,31,29,26,18,25,05,,,,,,,3.1,1.6,2.6*35
$GPRMC,093219.000,A,4825.1402,N,00428.4606,W,0.00,227.81,090621,,,A*78
$GPGGA,093220.000,4825.1402,N,00428.4606,W,1,06,1.6,87.3,M,52.0,M,,0000*78
$GPGSA,A,3,31,29,26,18,25,05,,,,,,,3.1,1.6,2.6*35
$GPRMC,093220.000,A,4825.1402,N,00428.4606,W,0.00,227.81,090621,,,A*72
$GPGGA,093221.000,4825.1402,N,00428.4606,W,1,06,1.6,87.3,M,52.0,M,,0000*79
$GPGSA,A,3,31,29,26,18,25,05,,,,,,,3.1,1.6,2.6*35
$GPGSV,3,1,12,31,61,223,41,29,57,056,46,26,52,295,43,18,41,153,41*77
$GPGSV,3,1,12,31,61,223,41,29,57,056,46,26,52,295,43,18,41,153,41*77
$GPGSV,3,2,12,25,26,106,39,05,09,070,32,09,02,341,27,57,68,131,*78
$GPGSV,3,2,12,25,26,106,39,05,09,070,32,09,02,341,27,57,68,131,*78
$GPGSV,3,3,12,58,68,131,,59,68,131,,14,33,269,,15,20,263,*72
$GPGSV,3,3,12,58,68,131,,59,68,131,,14,33,269,,15,20,263,*72
$GPRMC,093221.000,A,4825.1402,N,00428.4606,W,0.00,227.81,090621,,,A*73
$GPGGA,093222.000,4825.1402,N,00428.4606,W,1,06,1.6,87.3,M,52.0,M,,0000*7A
$GPGSA,A,3,31,29,26,18,25,05,,,,,,,3.1,1.6,2.6*35
$GPRMC,093222.000,A,4825.1402,N,00428.4606,W,0.00,227.81,090621,,,A*70
$GPGGA,093223.000,4825.1402,N,00428.4606,W,1,06,1.6,87.3,M,52.0,M,,0000*7B
$GPGSA,A,3,31,29,26,18,25,05,,,,,,,3.1,1.6,2.6*35
$GPRMC,093223.000,A,4825.1402,N,00428.4606,W,0.00,227.81,090621,,,A*71
$GPGGA,093224.000,4825.1402,N,00428.4606,W,1,06,1.6,87.3,M,52.0,M,,0000*7C
$GPGSA,A,3,31,29,26,18,25,05,,,,,,,3.1,1.6,2.6*35
$GPRMC,093224.000,A,4825.1402,N,00428.4606,W,0.00,227.81,090621,,,A*76
$GPGGA,093225.000,4825.1402,N,00428.4606,W,1,06,1.6,87.3,M,52.0,M,,0000*7D
$GPGSA,A,3,31,29,26,18,25,05,,,,,,,3.1,1.6,2.6*35
$GPRMC,093225.000,A,4825.1402,N,00428.4606,W,0.00,227.81,090621,,,A*77
$GPGGA,093226.000,4825.1402,N,00428.4606,W,1,06,1.6,87.3,M,52.0,M,,0000*7E
$GPGSA,A,3,31,29,26,18,25,05,,,,,,,3.1,1.6,2.6*35
$GPGSV,3,1,12,31,61,223,41,29,57,056,46,26,52,295,43,18,41,153,42*74
$GPGSV,3,1,12,31,61,223,41,29,57,056,46,26,52,295,43,18,41,153,42*74
$GPGSV,3,2,12,25,26,106,39,05,09,070,32,09,02,341,27,57,68,131,*78
$GPGSV,3,2,12,25,26,106,39,05,09,070,32,09,02,341,27,57,68,131,*78
$GPGSV,3,3,12,58,68,131,,59,68,131,,14,33,269,,15,20,263,*72
$GPGSV,3,3,12,58,68,131,,59,68,131,,14,33,269,,15,20,263,*72
$GPRMC,093226.000,A,4825.1402,N,00428.4606,W,0.00,227.81,090621,,,A*74
$GPGGA,093227.000,4825.1401,N,00428.4606,W,1,06,1.6,87.3,M,52.0,M,,0000*7C
$GPGSA,A,3,31,29,26,18,25,05,,,,,,,3.1,1.6,2.6*35
$GPRMC,093227.000,A,4825.1401,N,00428.4606,W,0.00,227.81,090621,,,A*76
$GPGGA,093228.000,4825.1401,N,00428.4606,W,1,06,1.6,87.3,M,52.0,M,,0000*73
$GPGSA,A,3,31,29,26,18,25,05,,,,,,,3.1,1.6,2.6*35
$GPRMC,093228.000,A,4825.1401,N,00428.4606,W,0.00,227.81,090621,,,A*79
$GPGGA,093229.000,4825.1401,N,00428.4606,W,1,06,1.6,87.3,M,52.0,M,,0000*72
$GPGSA,A,3,31,29,26,18,25,05,,,,,,,3.1,1.6,2.7*34
$GPRMC,093229.000,A,4825.1401,N,00428.4606,W,0.00,227.81,090621,,,A*78
$GPGGA,093230.000,4825.1401,N,00428.4606,W,1,06,1.6,87.3,M,52.0,M,,0000*7A
$GPGSA,A,3,31,29,26,18,25,05,,,,,,,3.1,1.6,2.7*34
$GPRMC,093230.000,A,4825.1401,N,00428.4606,W,0.00,227.81,090621,,,A*70
$GPGGA,093231.000,4825.1401,N,00428.4606,W,1,06,1.6,87.3,M,52.0,M,,0000*7B
$GPGSA,A,3,31,29,26,18,25,05,,,,,,,3.1,1.6,2.7*34
$GPGSV,3,1,12,31,61,223,41,29,57,056,46,26,52,295,43,18,41,153,42*74
$GPGSV,3,1,12,31,61,223,41,29,57,056,46,26,52,295,43,18,41,153,42*74
$GPGSV,3,2,12,25,26,106,39,05,09,070,32,09,02,341,27,57,68,131,*78
$GPGSV,3,2,12,25,26,106,39,05,09,070,32,09,02,341,27,57,68,131,*78
$GPGSV,3,3,12,58,68,131,,59,68,131,,14,33,269,,15,20,263,*72
$GPGSV,3,3,12,58,68,131,,59,68,131,,14,33,269,,15,20,263,*72
$GPRMC,093231.000,A,4825.1401,N,00428.4606,W,0.00,227.81,090621,,,A*71
$GPGGA,093232.000,4825.1401,N,00428.4606,W,1,06,1.6,87.3,M,52.0,M,,0000*78
$GPGSA,A,3,31,29,26,18,25,05,,,,,,,3.1,1.6,2.7*34
$GPRMC,093232.000,A,4825.1401,N,00428.4606,W,0.00,227.81,090621,,,A*72
$GPGGA,093233.000,4825.1401,N,00428.4606,W,1,06,1.6,87.3,M,52.0,M,,0000*79
$GPGSA,A,3,31,29,26,18,25,05,,,,,,,3.1,1.6,2.7*34
$GPRMC,093233.000,A,4825.1401,N,00428.4606,W,0.00,227.81,090621,,,A*73
$GPGGA,093234.000,4825.1401,N,00428.4606,W,1,06,1.6,87.3,M,52.0,M,,0000*7E
$GPGSA,A,3,31,29,26,18,25,05,,,,,,,3.1,1.6,2.7*34
$GPRMC,093234.000,A,4825.1401,N,00428.4606,W,0.00,227.81,090621,,,A*74
$GPGGA,093235.000,4825.1401,N,00428.4606,W,1,06,1.6,87.3,M,52.0,M,,0000*7F
$GPGSA,A,3,31,29,26,18,25,05,,,,,,,3.1,1.6,2.7*34
$GPRMC,093235.000,A,4825.1401,N,00428.4606,W,0.00,227.81,090621,,,A*75
$GPGGA,093236.000,4825.1401,N,00428.4606,W,1,06,1.6,87.3,M,52.0,M,,0000*7C
$GPGSA,A,3,31,29,26,18,25,05,,,,,,,3.1,1.6,2.7*34
$GPGSV,3,1,12,31,61,223,42,29,57,056,46,26,52,295,43,18,41,153,42*77
$GPGSV,3,1,12,31,61,223,42,29,57,056,46,26,52,295,43,18,41,153,42*77
$GPGSV,3,2,12,25,26,106,39,05,09,070,32,09,02,341,27,57,68,131,*78
$GPGSV,3,2,12,25,26,106,39,05,09,070,32,09,02,341,27,57,68,131,*78
$GPGSV,3,3,12,58,68,131,,59,68,131,,14,33,269,,15,20,263,*72
$GPGSV,3,3,12,58,68,131,,59,68,131,,14,33,269,,15,20,263,*72
$GPRMC,093236.000,A,4825.1401,N,00428.4606,W,0.00,227.81,090621,,,A*76
$GPGGA,093237.000,4825.1401,N,00428.4606,W,1,06,1.6,87.3,M,52.0,M,,0000*7D
$GPGSA,A,3,31,29,26,18,25,05,,,,,,,3.1,1.6,2.7*34
$GPRMC,093237.000,A,4825.1401,N,00428.4606,W,0.00,227.81,090621,,,A*77
$GPGGA,093238.000,4825.1401,N,00428.4606,W,1,06,1.6,87.3,M,52.0,M,,0000*72
$GPGSA,A,3,31,29,26,18,25,05,,,,,,,3.1,1.6,2.7*34
$GPRMC,093238.000,A,4825.1401,N,00428.4606,W,0.00,227.81,090621,,,A*78
$GPGGA,093239.000,4825.1401,N,00428.4606,W,1,06,1.6,87.3,M,52.0,M,,0000*73
$GPGSA,A,3,31,29,26,18,25,05,,,,,,,3.1,1.6,2.7*34
$GPRMC,093239.000,A,4825.1401,N,00428.4606,W,0.00,227.81,090621,,,A*79
$GPGGA,093240.000,4825.1401,N,00428.4606,W,1,06,1.6,87.3,M,52.0,M,,0000*7D
$GPGSA,A,3,31,29,26,18,25,05,,,,,,,3.1,1.6,2.7*34
$GPRMC,093240.000,A,4825.1401,N,00428.4606,W,0.00,227.81,090621,,,A*77
$GPGGA,093241.000,4825.1401,N,00428.4606,W,1,06,1.6,87.3,M,52.0,M,,0000*7C
$GPGSA,A,3,31,29,26,18,25,05,,,,,,,3.1,1.6,2.7*34
$GPGSV,3,1,12,31,61,223,41,29,57,056,46,26,52,295,43,18,41,153,42*74
$GPGSV,3,1,12,31,61,223,41,29,57,056,46,26,52,295,43,18,41,153,42*74
$GPGSV,3,2,12,25,26,106,40,05,09,070,33,09,02,341,26,57,68,131,*76
$GPGSV,3,2,12,25,26,106,40,05,09,070,33,09,02,341,26,57,68,131,*76
$GPGSV,3,3,12,58,68,131,,59,68,131,,14,33,269,,15,20,263,*72
$GPGSV,3,3,12,58,68,131,,59,68,131,,14,33,269,,15,20,263,*72
$GPRMC,093241.000,A,4825.1401,N,00428.4606,W,0.00,227.81,090621,,,A*76
$GPGGA,093242.000,4825.1401,N,00428.4606,W,1,06,1.6,87.3,M,52.0,M,,0000*7F
$GPGSA,A,3,31,29,26,18,25,05,,,,,,,3.1,1.6,2.7*34
$GPRMC,093242.000,A,4825.1401,N,00428.4606,W,0.00,227.81,090621,,,A*75
$GPGGA,093243.000,4825.1401,N,00428.4606,W,1,06,1.6,87.3,M,52.0,M,,0000*7E
$GPGSA,A,3,31,29,26,18,25,05,,,,,,,3.1,1.6,2.7*34
$GPRMC,093243.000,A,4825.1401,N,00428.4606,W,0.00,227.81,090621,,,A*74
$GPGGA,093244.000,4825.1401,N,00428.4606,W,1,06,1.6,87.3,M,52.0,M,,0000*79
$GPGSA,A,3,31,29,26,18,25,05,,,,,,,3.1,1.6,2.7*34
$GPRMC,093244.000,A,4825.1401,N,00428.4606,W,0.00,227.81,090621,,,A*73
$GPGGA,093245.000,4825.1401,N,00428.4606,W,1,06,1.6,87.3,M,52.0,M,,0000*78
$GPGSA,A,3,31,29,26,18,25,05,,,,,,,3.1,1.6,2.7*34
$GPRMC,093245.000,A,4825.1401,N,00428.4606,W,0.00,227.81,090621,,,A*72
$GPGGA,093246.000,4825.1401,N,00428.4606,W,1,06,1.6,87.3,M,52.0,M,,0000*7B
$GPGSA,A,3,31,29,26,18,25,05,,,,,,,3.1,1.6,2.7*34
$GPGSV,3,1,12,31,61,223,41,29,57,056,46,26,52,295,43,18,41,153,42*74
$GPGSV,3,1,12,31,61,223,41,29,57,056,46,26,52,295,43,18,41,153,42*74
$GPGSV,3,2,12,25,26,106,39,05,09,070,26,09,02,341,26,57,68,131,*7C
$GPGSV,3,2,12,25,26,106,39,05,09,070,26,09,02,341,26,57,68,131,*7C
$GPGSV,3,3,12,58,68,131,,59,68,131,,14,33,269,,15,20,263,*72
$GPGSV,3,3,12,58,68,131,,59,68,131,,14,33,269,,15,20,263,*72
$GPRMC,093246.000,A,4825.1401,N,00428.4606,W,0.00,227.81,090621,,,A*71
$GPGGA,093247.000,4825.1401,N,00428.4606,W,1,06,1.6,87.3,M,52.0,M,,0000*7A
$GPGSA,A,3,31,29,26,18,25,05,,,,,,,3.1,1.6,2.7*34
$GPRMC,093247.000,A,4825.1401,N,00428.4606,W,0.00,227.81,090621,,,A*70
$GPGGA,093248.000,4825.1401,N,00428.4606,W,1,06,1.6,87.3,M,52.0,M,,0000*75
$GPGSA,A,3,31,29,26,18,25,05,,,,,,,3.1,1.6,2.7*34
$GPRMC,093248.000,A,4825.1401,N,00428.4606,W,0.00,227.81,090621,,,A*7F
$GPGGA,093249.000,4825.1401,N,00428.4606,W,1,06,1.6,87.3,M,52.0,M,,0000*74
$GPGSA,A,3,31,29,26,18,25,05,,,,,,,3.1,1.6,2.7*34
$GPRMC,093249.000,A,4825.1401,N,00428.4606,W,0.00,227.81,090621,,,A*7E
$GPGGA,093250.000,4825.1401,N,00428.4606,W,1,06,1.6,87.3,M,52.0,M,,0000*7C
$GPGSA,A,3,31,29,26,18,25,05,,,,,,,3.1,1.6,2.7*34
$GPRMC,093250.000,A,4825.1401,N,00428.4606,W,0.00,227.81,090621,,,A*76
$GPGGA,093251.000,4825.1401,N,00428.4606,W,1,06,1.6,87.3,M,52.0,M,,0000*7D
$GPGSA,A,3,31,29,26,18,25,05,,,,,,,3.1,1.6,2.7*34
$GPGSV,3,1,12,31,61,223,41,29,57,056,46,26,52,295,43,18,41,153,42*74
$GPGSV,3,1,12,31,61,223,41,29,57,056,46,26,52,295,43,18,41,153,42*74
$GPGSV,3,2,12,25,26,106,39,05,09,070,29,09,02,341,23,57,68,131,*76
$GPGSV,3,2,12,25,26,106,39,05,09,070,29,09,02,341,23,57,68,131,*76
$GPGSV,3,3,12,58,68,131,,59,68,131,,14,33,269,,15,20,263,*72
$GPGSV,3,3,12,58,68,131,,59,68,131,,14,33,269,,15,20,263,*72
$GPRMC,093251.000,A,4825.1401,N,00428.4606,W,0.00,227.81,090621,,,A*77
$GPGGA,093252.000,4825.1401,N,00428.4606,W,1,06,1.6,87.3,M,52.0,M,,0000*7E
$GPGSA,A,3,31,29,26,18,25,05,,,,,,,3.1,1.6,2.7*34
$GPRMC,093252.000,A,4825.1401,N,00428.4606,W,0.00,227.81,090621,,,A*74
$GPGGA,093253.000,4825.1401,N,00428.4606,W,1,06,1.6,87.3,M,52.0,M,,0000*7F
$GPGSA,A,3,31,29,26,18,25,05,,,,,,,3.1,1.6,2.7*34
$GPRMC,093253.000,A,4825.1401,N,00428.4606,W,0.00,227.81,090621,,,A*75
$GPGGA,093254.000,4825.1401,N,00428.4606,W,1,06,1.6,87.3,M,52.0,M,,0000*78
$GPGSA,A,3,31,29,26,18,25,05,,,,,,,3.1,1.6,2.7*34
$GPRMC,093254.000,A,4825.1401,N,00428.4606,W,0.00,227.81,090621,,,A*72
$GPGGA,093255.000,4825.1401,N,00428.4606,W,1,06,1.6,87.3,M,52.0,M,,0000*79
$GPGSA,A,3,31,29,26,18,25,05,,,,,,,3.1,1.6,2.7*34
$GPRMC,093255.000,A,4825.1401,N,00428.4606,W,0.00,227.81,090621,,,A*73
$GPGGA,093256.000,4825.1401,N,00428.4605,W,1,06,1.6,87.3,M,52.0,M,,0000*79
$GPGSA,A,3,31,29,26,18,25,05,,,,,,,3.1,1.6,2.7*34
$GPGSV,3,1,12,31,61,223,41,29,57,056,45,26,52,295,43,18,41,153,42*77
$GPGSV,3,1,12,31,61,223,41,29,57,056,45,26,52,295,43,18,41,153,42*77
$GPGSV,3,2,12,25,26,106,39,05,09,070,33,09,02,341,22,57,68,131,*7C
$GPGSV,3,2,12,25,26,106,39,05,09,070,33,09,02,341,22,57,68,131,*7C
$GPGSV,3,3,12,58,68,131,,59,68,131,,14,33,269,,15,20,263,*72
$GPGSV,3,3,12,58,68,131,,59,68,131,,14,33,269,,15,20,263,*72
$GPRMC,093256.000,A,4825.1401,N,00428.4605,W,0.00,227.81,090621,,,A*73
$GPGGA,093257.000,4825.1401,N,00428.4605,W,1,06,1.6,87.3,M,52.0,M,,0000*78
$GPGSA,A,3,31,29,26,18,25,05,,,,,,,3.1,1.6,2.7*34
$GPRMC,093257.000,A,4825.1401,N,00428.4605,W,0.00,227.81,090621,,,A*72
$GPGGA,093258.000,4825.1401,N,00428.4605,W,1,06,1.6,87.3,M,52.0,M,,0000*77
$GPGSA,A,3,31,29,26,18,25,05,,,,,,,3.1,1.6,2.7*34
$GPRMC,093258.000,A,4825.1401,N,00428.4605,W,0.00,227.81,090621,,,A*7D
$GPGGA,093259.000,4825.1401,N,00428.4605,W,1,06,1.6,87.3,M,52.0,M,,0000*76
$GPGSA,A,3,31,29,26,18,25,05,,,,,,,3.1,1.6,2.7*34
$GPRMC,093259.000,A,4825.1401,N,00428.4605,W,0.00,227.81,090621,,,A*7C
$GPGGA,093300.000,4825.1401,N,00428.4605,W,1,06,1.6,87.3,M,52.0,M,,0000*7B
$GPGSA,A,3,31,29,26,18,25,05,,,,,,,3.1,1.6,2.7*34
$GPRMC,093300.000,A,4825.1401,N,00428.4605,W,0.00,227.81,090621,,,A*71
$GPGGA,093301.000,4825.1401,N,00428.4605,W,1,06,1.6,87.3,M,52.0,M,,0000*7A
$GPGSA,A,3,31,29,26,18,25,05,,,,,,,3.1,1.6,2.7*34
$GPGSV,3,1,12,31,61,223,41,29,57,056,43,26,52,295,44,18,41,153,42*76
$GPGSV,3,1,12,31,61,223,41,29,57,056,43,26,52,295,44,18,41,153,42*76
$GPGSV,3,2,12,25,26,106,40,05,09,070,32,09,02,341,23,57,68,131,*72
$GPGSV,3,2,12,25,26,106,40,05,09,070,32,09,02,341,23,57,68,131,*72
$GPGSV,3,3,12,58,68,131,,59,68,131,,14,33,269,,15,20,263,*72
$GPGSV,3,3,12,58,68,131,,59,68,131,,14,33,269,,15,20,263,*72
$GPRMC,093301.000,A,4825.1401,N,00428.4605,W,0.00,227.81,090621,,,A*70
$GPGGA,093302.000,4825.1401,N,00428.4605,W,1,06,1.6,87.3,M,52.0,M,,0000*79
$GPGSA,A,3,31,29,26,18,25,05,,,,,,,3.1,1.6,2.7*34
$GPRMC,093302.000,A,4825.1401,N,00428.4605,W,0.00,227.81,090621,,,A*73
$GPGGA,093303.000,4825.1401,N,00428.4605,W,1,06,1.6,87.3,M,52.0,M,,0000*78
$GPGSA,A,3,31,29,26,18,25,05,,,,,,,3.1,1.6,2.7*34
$GPRMC,093303.000,A,4825.1401,N,00428.4605,W,0.00,227.81,090621,,,A*72
$GPGGA,093304.000,4825.1401,N,00428.4605,W,1,06,1.6,87.2,M,52.0,M,,0000*7E
$GPGSA,A,3,31,29,26,18,25,05,,,,,,,3.1,1.6,2.7*34
$GPRMC,093304.000,A,4825.1401,N,00428.4605,W,0.00,227.81,090621,,,A*75
$GPGGA,093305.000,4825.1401,N,00428.4605,W,1,06,1.6,87.2,M,52.0,M,,0000*7F
$GPGSA,A,3,31,29,26,18,25,05,,,,,,,3.1,1.6,2.7*34
$GPRMC,093305.000,A,4825.1401,N,00428.4605,W,0.00,227.81,090621,,,A*74
$GPGGA,093306.000,4825.1401,N,00428.4605,W,1,06,1.6,87.2,M,52.0,M,,0000*7C
$GPGSA,A,3,31,29,26,18,25,05,,,,,,,3.1,1.6,2.7*34
$GPGSV,3,1,12,31,61,223,41,29,57,056,45,26,52,295,44,18,41,153,42*70
$GPGSV,3,1,12,31,61,223,41,29,57,056,45,26,52,295,44,18,41,153,42*70
$GPGSV,3,2,12,25,26,106,39,05,09,070,33,09,02,341,24,57,68,131,*7A
$GPGSV,3,2,12,25,26,106,39,05,09,070,33,09,02,341,24,57,68,131,*7A
$GPGSV,3,3,12,58,68,131,,59,68,131,,14,33,269,,15,20,263,*72
$GPGSV,3,3,12,58,68,131,,59,68,131,,14,33,269,,15,20,263,*72
$GPRMC,093306.000,A,4825.1401,N,00428.4605,W,0.00,227.81,090621,,,A*77
$GPGGA,093307.000,4825.1400,N,00428.4605,W,1,06,1.6,87.2,M,52.0,M,,0000*7C
$GPGSA,A,3,31,29,26,18,25,05,,,,,,,3.1,1.6,2.7*34
$GPRMC,093307.000,A,4825.1400,N,00428.4605,W,0.00,227.81,090621,,,A*77
$GPGGA,093308.000,4825.1400,N,00428.4605,W,1,06,1.6,87.2,M,52.0,M,,0000*73
$GPGSA,A,3,31,29,26,18,25,05,,,,,,,3.1,1.6,2.7*34
$GPRMC,093308.000,A,4825.1400,N,00428.4605,W,0.00,227.81,090621,,,A*78
$GPGGA,093309.000,4825.1400,N,00428.4605,W,1,06,1.6,87.2,M,52.0,M,,0000*72
$GPGSA,A,3,31,29,26,18,25,05,,,,,,,3.1,1.6,2.7*34
$GPRMC,093309.000,A,4825.1400,N,00428.4605,W,0.00,227.81,090621,,,A*79
$GPGGA,093310.000,4825.1400,N,00428.4605,W,1,06,1.6,87.2,M,52.0,M,,0000*7A
$GPGSA,A,3,31,29,26,18,25,05,,,,,,,3.1,1.6,2.7*34
$GPRMC,093310.000,A,4825.1400,N,00428.4605,W,0.00,227.81,090621,,,A*71
$GPGGA,093311.000,4825.1400,N,00428.4605,W,1,06,1.6,87.2,M,52.0,M,,0000*7B
$GPGSA,A,3,31,29,26,18,25,05,,,,,,,3.1,1.6,2.7*34
$GPGSV,3,1,12,31,61,223,41,29,57,056,45,26,52,295,43,18,41,153,42*77
$GPGSV,3,1,12,31,61,223,41,29,57,056,45,26,52,295,43,18,41,153,42*77
$GPGSV,3,2,12,25,26,106,39,05,09,070,32,09,02,341,21,57,68,131,*7E
$GPGSV,3,2,12,25,26,106,39,05,09,070,32,09,02,341,21,57,68,131,*7E
$GPGSV,3,3,12,58,68,131,,59,68,131,,14,33,269,,15,20,263,*72
$GPGSV,3,3,12,58,68,131,,59,68,131,,14,33,269,,15,20,263,*72
$GPRMC,093311.000,A,4825.1400,N,00428.4605,W,0.00,227.81,090621,,,A*70
$GPGGA,093312.000,4825.1400,N,00428.4605,W,1,06,1.6,87.2,M,52.0,M,,0000*78
$GPGSA,A,3,31,29,26,18,25,05,,,,,,,3.1,1.6,2.7*34
$GPRMC,093312.000,A,4825.1400,N,00428.4605,W,0.00,227.81,090621,,,A*73
$GPGGA,093313.000,4825.1400,N,00428.4605,W,1,06,1.6,87.2,M,52.0,M,,0000*79
$GPGSA,A,3,31,29,26,18,25,05,,,,,,,3.1,1.6,2.7*34
$GPRMC,093313.000,A,4825.1400,N,00428.4605,W,0.00,227.81,090621,,,A*72
$GPGGA,093314.000,4825.1400,N,00428.4605,W,1,06,1.6,87.2,M,52.0,M,,0000*7E
$GPGSA,A,3,31,29,26,18,25,05,,,,,,,3.1,1.6,2.7*34
$GPRMC,093314.000,A,4825.1400,N,00428.4605,W,0.00,227.81,090621,,,A*75
$GPGGA,093315.000,4825.1400,N,00428.4605,W,1,06,1.6,87.2,M,52.0,M,,0000*7F
$GPGSA,A,3,31,29,26,18,25,05,,,,,,,3.1,1.6,2.7*34
$GPRMC,093315.000,A,4825.1400,N,00428.4605,W,0.00,227.81,090621,,,A*74
$GPGGA,093316.000,4825.1400,N,00428.4605,W,1,06,1.6,87.2,M,52.0,M,,0000*7C
$GPGSA,A,3,31,29,26,18,25,05,,,,,,,3.1,1.6,2.7*34
$GPGSV,3,1,12,31,61,223,41,29,57,056,45,26,52,295,43,18,41,153,42*77
$GPGSV,3,1,12,31,61,223,41,29,57,056,45,26,52,295,43,18,41,153,42*77
$GPGSV,3,2,12,25,26,106,39,05,09,070,32,09,02,341,24,57,68,131,*7B
$GPGSV,3,2,12,25,26,106,39,05,09,070,32,09,02,341,24,57,68,131,*7B
$GPGSV,3,3,12,58,68,131,,59,68,131,,14,33,269,,15,20,263,*72
$GPGSV,3,3,12,58,68,131,,59,68,131,,14,33,269,,15,20,263,*72
$GPRMC,093316.000,A,4825.1400,N,00428.4605,W,0.00,227.81,090621,,,A*77
$GPGGA,093317.000,4825.1400,N,00428.4605,W,1,06,1.6,87.2,M,52.0,M,,0000*7D
$GPGSA,A,3,31,29,26,18,25,05,,,,,,,3.1,1.6,2.7*34
$GPRMC,093317.000,A,4825.1400,N,00428.4605,W,0.00,227.81,090621,,,A*76
$GPGGA,093318.000,4825.1400,N,00428.4605,W,1,06,1.6,87.2,M,52.0,M,,0000*72
$GPGSA,A,3,31,29,26,18,25,05,,,,,,,3.1,1.6,2.7*34
$GPRMC,093318.000,A,4825.1400,N,00428.4605,W,0.00,227.81,090621,,,A*79
$GPGGA,093319.000,4825.1400,N,00428.4605,W,1,06,1.6,87.2,M,52.0,M,,0000*73
$GPGSA,A,3,31,29,26,18,25,05,,,,,,,3.1,1.6,2.7*34
$GPRMC,093319.000,A,4825.1400,N,00428.4605,W,0.00,227.81,090621,,,A*78
$GPGGA,093320.000,4825.1400,N,00428.4605,W,1,06,1.6,87.2,M,52.0,M,,0000*79
$GPGSA,A,3,31,29,26,18,25,05,,,,,,,3.1,1.6,2.7*34
$GPRMC,093320.000,A,4825.1400,N,00428.4605,W,0.00,227.81,090621,,,A*72
$GPGGA,093321.000,4825.1400,N,00428.4605,W,1,06,1.6,87.2,M,52.0,M,,0000*78
$GPGSA,A,3,31,29,26,18,25,05,,,,,,,3.1,1.6,2.7*34
$GPGSV,3,1,12,31,61,223,41,29,57,056,45,26,52,295,43,18,41,153,42*77
$GPGSV,3,1,12,31,61,223,41,29,57,056,45,26,52,295,43,18,41,153,42*77
$GPGSV,3,2,12,25,26,106,39,05,09,070,32,09,02,341,22,57,68,131,*7D
$GPGSV,3,2,12,25,26,106,39,05,09,070,32,09,02,341,22,57,68,131,*7D
$GPGSV,3,3,12,58,68,131,,59,68,131,,14,33,269,,15,20,263,*72
$GPGSV,3,3,12,58,68,131,,59,68,131,,14,33,269,,15,20,263,*72
$GPRMC,093321.000,A,4825.1400,N,00428.4605,W,0.00,227.81,090621,,,A*73
$GPGGA,093322.000,4825.1400,N,00428.4605,W,1,06,1.6,87.2,M,52.0,M,,0000*7B
$GPGSA,A,3,31,29,26,18,25,05,,,,,,,3.1,1.6,2.7*34
$GPRMC,093322.000,A,4825.1400,N,00428.4605,W,0.00,227.81,090621,,,A*70
$GPGGA,093323.000,4825.1400,N,00428.4605,W,1,06,1.6,87.2,M,52.0,M,,0000*7A
$GPGSA,A,3,31,29,26,18,25,05,,,,,,,3.1,1.6,2.7*34
$GPRMC,093323.000,A,4825.1400,N,00428.4605,W,0.00,227.81,090621,,,A*71
$GPGGA,093324.000,4825.1400,N,00428.4605,W,1,06,1.6,87.2,M,52.0,M,,0000*7D
$GPGSA,A,3,31,29,26,18,25,05,,,,,,,3.1,1.6,2.7*34
$GPRMC,093324.000,A,4825.1400,N,00428.4605,W,0.00,227.81,090621,,,A*76
$GPGGA,093325.000,4825.1400,N,00428.4605,W,1,06,1.6,87.2,M,52.0,M,,0000*7C
$GPGSA,A,3,31,29,26,18,25,05,,,,,,,3.1,1.6,2.7*34
$GPRMC,093325.000,A,4825.1400,N,00428.4605,W,0.00,227.81,090621,,,A*77
$GPGGA,093326.000,4825.1400,N,00428.4605,W,1,06,1.6,87.2,M,52.0,M,,0000*7F
$GPGSA,A,3,31,29,26,18,25,05,,,,,,,3.1,1.6,2.7*34
$GPGSV,3,1,12,31,61,223,41,29,57,056,45,26,52,295,43,18,41,153,42*77
$GPGSV,3,1,12,31,61,223,41,29,57,056,45,26,52,295,43,18,41,153,42*77
$GPGSV,3,2,12,25,26,106,39,05,09,070,31,09,02,341,23,57,68,131,*7F
$GPGSV,3,2,12,25,26,106,39,05,09,070,31,09,02,341,23,57,68,131,*7F
$GPGSV,3,3,12,58,68,131,,59,68,131,,14,33,269,,15,20,263,*72
$GPGSV,3,3,12,58,68,131,,59,68,131,,14,33,269,,15,20,263,*72
$GPRMC,093326.000,A,4825.1400,N,00428.4605,W,0.00,227.81,090621,,,A*74
$GPGGA,093327.000,4825.1400,N,00428.4605,W,1,06,1.6,87.2,M,52.0,M,,0000*7E
$GPGSA,A,3,31,29,26,18,25,05,,,,,,,3.1,1.6,2.7*34
$GPRMC,093327.000,A,4825.1400,N,00428.4605,W,0.00,227.81,090621,,,A*75
$GPGGA,093328.000,4825.1400,N,00428.4605,W,1,06,1.6,87.2,M,52.0,M,,0000*71
$GPGSA,A,3,31,29,26,18,25,05,,,,,,,3.1,1.6,2.7*34
$GPRMC,093328.000,A,4825.1400,N,00428.4605,W,0.00,227.81,090621,,,A*7A
$GPGGA,093329.000,4825.1400,N,00428.4605,W,1,06,1.6,87.2,M,52.0,M,,0000*70
$GPGSA,A,3,31,29,26,18,25,05,,,,,,,3.1,1.6,2.7*34
$GPRMC,093329.000,A,4825.1400,N,00428.4605,W,0.00,227.81,090621,,,A*7B
$GPGGA,093330.000,4825.1400,N,00428.4605,W,1,06,1.6,87.2,M,52.0,M,,0000*78
$GPGSA,A,3,31,29,26,18,25,05,,,,,,,3.1,1.6,2.7*34
$GPRMC,093330.000,A,4825.1400,N,00428.4605,W,0.00,227.81,090621,,,A*73
$GPGGA,093331.000,4825.1400,N,00428.4605,W,1,06,1.6,87.2,M,52.0,M,,0000*79
$GPGSA,A,3,31,29,26,18,25,05,,,,,,,3.1,1.6,2.7*34
$GPGSV,3,1,12,31,61,223,41,29,57,056,44,26,52,295,43,18,41,153,42*76
$GPGSV,3,1,12,31,61,223,41,29,57,056,44,26,52,295,43,18,41,153,42*76
$GPGSV,3,2,12,25,26,106,39,05,09,070,30,09,02,341,22,57,68,131,*7F
$GPGSV,3,2,12,25,26,106,39,05,09,070,30,09,02,341,22,57,68,131,*7F
$GPGSV,3,3,12,58,68,131,,59,68,131,,14,33,269,,15,20,263,*72
$GPGSV,3,3,12,58,68,131,,59,68,131,,14,33,269,,15,20,263,*72
$GPRMC,093331.000,A,4825.1400,N,00428.4605,W,0.00,227.81,090621,,,A*72
$GPGGA,093332.000,4825.1400,N,00428.4605,W,1,06,1.6,87.2,M,52.0,M,,0000*7A
$GPGSA,A,3,31,29,26,18,25,05,,,,,,,3.1,1.6,2.7*34
$GPRMC,093332.000,A,4825.1400,N,00428.4605,W,0.00,227.81,090621,,,A*71
$GPGGA,093333.000,4825.1400,N,00428.4605,W,1,06,1.6,87.2,M,52.0,M,,0000*7B
$GPGSA,A,3,31,29,26,18,25,05,,,,,,,3.1,1.6,2.7*34
$GPRMC,093333.000,A,4825.1400,N,00428.4605,W,0.00,227.81,090621,,,A*70
$GPGGA,093334.000,4825.1400,N,00428.4605,W,1,06,1.6,87.2,M,52.0,M,,0000*7C
$GPGSA,A,3,31,29,26,18,25,05,,,,,,,3.1,1.6,2.7*34
$GPRMC,093334.000,A,4825.1400,N,00428.4605,W,0.00,227.81,090621,,,A*77
$GPGGA,093335.000,4825.1400,N,00428.4605,W,1,06,1.6,87.2,M,52.0,M,,0000*7D
$GPGSA,A,3,31,29,26,18,25,05,,,,,,,3.1,1.6,2.7*34
$GPRMC,093335.000,A,4825.1400,N,00428.4605,W,0.00,227.81,090621,,,A*76
$GPGGA,093336.000,4825.1400,N,00428.4605,W,1,06,1.6,87.2,M,52.0,M,,0000*7E
$GPGSA,A,3,31,29,26,18,25,05,,,,,,,3.1,1.6,2.7*34
$GPGSV,3,1,12,31,61,223,41,29,57,056,45,26,52,295,43,18,41,153,42*77
$GPGSV,3,1,12,31,61,223,41,29,57,056,45,26,52,295,43,18,41,153,42*77
$GPGSV,3,2,12,25,26,106,39,05,09,070,31,09,02,341,20,57,68,131,*7C
$GPGSV,3,2,12,25,26,106,39,05,09,070,31,09,02,341,20,57,68,131,*7C
$GPGSV,3,3,12,58,68,131,,59,68,131,,14,33,269,,15,20,263,*72
$GPGSV,3,3,12,58,68,131,,59,68,131,,14,33,269,,15,20,263,*72
$GPRMC,093336.000,A,4825.1400,N,00428.4605,W,0.00,227.81,090621,,,A*75
$GPGGA,093337.000,4825.1400,N,00428.4605,W,1,06,1.6,87.2,M,52.0,M,,0000*7F
$GPGSA,A,3,31,29,26,18,25,05,,,,,,,3.1,1.6,2.7*34
$GPRMC,093337.000,A,4825.1400,N,00428.4605,W,0.00,227.81,090621,,,A*74
$GPGGA,093338.000,4825.1400,N,00428.4605,W,1,06,1.6,87.2,M,52.0,M,,0000*70
$GPGSA,A,3,31,29,26,18,25,05,,,,,,,3.1,1.6,2.7*34
$GPRMC,093338.000,A,4825.1400,N,00428.4605,W,0.00,227.81,090621,,,A*7B
$GPGGA,093339.000,4825.1400,N,00428.4605,W,1,06,1.6,87.2,M,52.0,M,,0000*71
$GPGSA,A,3,31,29,26,18,25,05,,,,,,,3.1,1.6,2.7*34
$GPRMC,093339.000,A,4825.1400,N,00428.4605,W,0.00,227.81,090621,,,A*7A
$GPGGA,093340.000,4825.1400,N,00428.4605,W,1,06,1.6,87.2,M,52.0,M,,0000*7F
$GPGSA,A,3,31,29,26,18,25,05,,,,,,,3.1,1.6,2.7*34
$GPRMC,093340.000,A,4825.1400,N,00428.4605,W,0.00,227.81,090621,,,A*74
$GPGGA,093341.000,4825.1400,N,00428.4605,W,1,06,1.6,87.2,M,52.0,M,,0000*7E
$GPGSA,A,3,31,29,26,18,25,05,,,,,,,3.2,1.6,2.7*37
$GPGSV,3,1,12,31,61,223,41,29,57,056,45,26,52,295,45,18,41,153,42*71
$GPGSV,3,1,12,31,61,223,41,29,57,056,45,26,52,295,45,18,41,153,42*71
$GPGSV,3,2,12,25,26,106,38,05,09,070,31,09,02,341,20,57,68,131,*7D
$GPGSV,3,2,12,25,26,106,38,05,09,070,31,09,02,341,20,57,68,131,*7D
$GPGSV,3,3,12,58,68,131,,59,68,131,,14,33,269,,15,20,263,*72
$GPGSV,3,3,12,58,68,131,,59,68,131,,14,33,269,,15,20,263,*72
$GPRMC,093341.000,A,4825.1400,N,00428.4605,W,0.00,227.81,090621,,,A*75
$GPGGA,093342.000,4825.1400,N,00428.4605,W,1,06,1.6,87.2,M,52.0,M,,0000*7D
$GPGSA,A,3,31,29,26,18,25,05,,,,,,,3.2,1.6,2.7*37
$GPRMC,093342.000,A,4825.1400,N,00428.4605,W,0.00,227.81,090621,,,A*76
$GPGGA,093343.000,4825.1400,N,00428.4605,W,1,06,1.6,87.2,M,52.0,M,,0000*7C
$GPGSA,A,3,31,29,26,18,25,05,,,,,,,3.2,1.6,2.7*37
$GPRMC,093343.000,A,4825.1400,N,00428.4605,W,0.00,227.81,090621,,,A*77
$GPGGA,093344.000,4825.1400,N,00428.4605,W,1,06,1.6,87.1,M,52.0,M,,0000*78
$GPGSA,A,3,31,29,26,18,25,05,,,,,,,3.2,1.6,2.7*37
$GPRMC,093344.000,A,4825.1400,N,00428.4605,W,0.00,227.81,090621,,,A*70
$GPGGA,093345.000,4825.1400,N,00428.4605,W,1,06,1.6,87.2,M,52.0,M,,0000*7A
$GPGSA,A,3,31,29,26,18,25,05,,,,,,,3.2,1.6,2.7*37
$GPRMC,093345.000,A,4825.1400,N,00428.4605,W,0.00,227.81,090621,,,A*71
$GPGGA,093346.000,4825.1400,N,00428.4605,W,1,06,1.6,87.1,M,52.0,M,,0000*7A
$GPGSA,A,3,31,29,26,18,25,05,,,,,,,3.2,1.6,2.7*37
$GPGSV,3,1,12,31,61,223,41,29,57,056,45,26,52,295,45,18,41,153,42*71
$GPGSV,3,1,12,31,61,223,41,29,57,056,45,26,52,295,45,18,41,153,42*71
$GPGSV,3,2,12,25,26,106,39,05,09,070,27,09,02,341,21,57,68,131,*7A
$GPGSV,3,2,12,25,26,106,39,05,09,070,27,09,02,341,21,57,68,131,*7A
$GPGSV,3,3,12,58,68,131,,59,68,131,,14,33,269,,15,20,263,*72
$GPGSV,3,3,12,58,68,131,,59,68,131,,14,33,269,,15,20,263,*72
$GPRMC,093346.000,A,4825.1400,N,00428.4605,W,0.00,227.81,090621,,,A*72
$GPGGA,093347.000,4825.1400,N,00428.4605,W,1,06,1.6,87.1,M,52.0,M,,0000*7B
$GPGSA,A,3,31,29,26,18,25,05,,,,,,,3.2,1.6,2.7*37
$GPRMC,093347.000,A,4825.1400,N,00428.4605,W,0.00,227.81,090621,,,A*73
$GPGGA,093348.000,4825.1400,N,00428.4605,W,1,06,1.6,87.1,M,52.0,M,,0000*74
$GPGSA,A,3,31,29,26,18,25,05,,,,,,,3.2,1.6,2.7*37
$GPRMC,093348.000,A,4825.1400,N,00428.4605,W,0.00,227.81,090621,,,A*7C
$GPGGA,093349.000,4825.1400,N,00428.4605,W,1,06,1.6,87.1,M,52.0,M,,0000*75
$GPGSA,A,3,31,29,26,18,25,05,,,,,,,3.2,1.6,2.7*37
$GPRMC,093349.000,A,4825.1400,N,00428.4605,W,0.00,227.81,090621,,,A*7D
$GPGGA,093350.000,4825.1400,N,00428.4605,W,1,06,1.6,87.1,M,52.0,M,,0000*7D
$GPGSA,A,3,31,29,26,18,25,05,,,,,,,3.2,1.6,2.7*37
$GPRMC,093350.000,A,4825.1400,N,00428.4605,W,0.00,227.81,090621,,,A*75
$GPGGA,093351.000,4825.1400,N,00428.4605,W,1,06,1.6,87.1,M,52.0,M,,0000*7C
$GPGSA,A,3,31,29,26,18,25,05,,,,,,,3.2,1.6,2.7*37
$GPGSV,3,1,12,31,61,223,41,29,57,056,46,26,52,295,44,18,41,153,42*73
$GPGSV,3,1,12,31,61,223,41,29,57,056,46,26,52,295,44,18,41,153,42*73
$GPGSV,3,2,12,25,26,106,39,05,09,070,29,09,02,341,22,57,68,131,*77
$GPGSV,3,2,12,25,26,106,39,05,09,070,29,09,02,341,22,57,68,131,*77
$GPGSV,3,3,12,58,68,131,,59,68,131,,14,33,269,,15,20,263,*72
$GPGSV,3,3,12,58,68,131,,59,68,131,,14,33,269,,15,20,263,*72
$GPRMC,093351.000,A,4825.1400,N,00428.4605,W,0.00,227.81,090621,,,A*74
$GPGGA,093352.000,4825.1400,N,00428.4605,W,1,06,1.6,87.1,M,52.0,M,,0000*7F
$GPGSA,A,3,31,29,26,18,25,05,,,,,,,3.2,1.6,2.7*37
$GPRMC,093352.000,A,4825.1400,N,00428.4605,W,0.00,227.81,090621,,,A*77
$GPGGA,093353.000,4825.1400,N,00428.4605,W,1,06,1.6,87.1,M,52.0,M,,0000*7E
$GPGSA,A,3,31,29,26,18,25,05,,,,,,,3.2,1.6,2.7*37
$GPRMC,093353.000,A,4825.1400,N,00428.4605,W,0.00,227.81,090621,,,A*76
$GPGGA,093354.000,4825.1400,N,00428.4605,W,1,06,1.6,87.1,M,52.0,M,,0000*79
$GPGSA,A,3,31,29,26,18,25,05,,,,,,,3.2,1.6,2.7*37
$GPRMC,093354.000,A,4825.1400,N,00428.4605,W,0.00,227.81,090621,,,A*71
$GPGGA,093355.000,4825.1400,N,00428.4605,W,1,06,1.6,87.1,M,52.0,M,,0000*78
$GPGSA,A,3,31,29,26,18,25,05,,,,,,,3.2,1.6,2.7*37
$GPRMC,093355.000,A,4825.1400,N,00428.4605,W,0.00,227.81,090621,,,A*70
$GPGGA,093356.000,4825.1400,N,00428.4605,W,1,06,1.6,87.1,M,52.0,M,,0000*7B
$GPGSA,A,3,31,29,26,18,25,05,,,,,,,3.2,1.6,2.7*37
$GPGSV,3,1,12,31,61,223,41,29,57,056,46,26,52,295,43,18,41,153,42*74
$GPGSV,3,1,12,31,61,223,41,29,57,056,46,26,52,295,43,18,41,153,42*74
$GPGSV,3,2,12,25,26,106,39,05,09,070,29,09,02,341,22,57,68,131,*77
$GPGSV,3,2,12,25,26,106,39,05,09,070,29,09,02,341,22,57,68,131,*77
$GPGSV,3,3,12,58,68,131,,59,68,131,,14,33,269,,15,20,263,*72
$GPGSV,3,3,12,58,68,131,,59,68,131,,14,33,269,,15,20,263,*72
$GPRMC,093356.000,A,4825.1400,N,00428.4605,W,0.00,227.81,090621,,,A*73
$GPGGA,093357.000,4825.1400,N,00428.4605,W,1,06,1.6,87.1,M,52.0,M,,0000*7A
$GPGSA,A,3,31,29,26,18,25,05,,,,,,,3.2,1.6,2.7*37
$GPRMC,093357.000,A,4825.1400,N,00428.4605,W,0.00,227.81,090621,,,A*72
$GPGGA,093358.000,4825.1400,N,00428.4605,W,1,06,1.6,87.1,M,52.0,M,,0000*75
$GPGSA,A,3,31,29,26,18,25,05,,,,,,,3.2,1.6,2.7*37
$GPRMC,093358.000,A,4825.1400,N,00428.4605,W,0.00,227.81,090621,,,A*7D
$GPGGA,093359.000,4825.1400,N,00428.4605,W,1,06,1.6,87.1,M,52.0,M,,0000*74
$GPGSA,A,3,31,29,26,18,25,05,,,,,,,3.2,1.6,2.7*37
$GPRMC,093359.000,A,4825.1400,N,00428.4605,W,0.00,227.81,090621,,,A*7C
$GPGGA,093400.000,4825.1400,N,00428.4605,W,1,06,1.6,87.1,M,52.0,M,,0000*7F
$GPGSA,A,3,31,29,26,18,25,05,,,,,,,3.2,1.6,2.7*37
$GPRMC,093400.000,A,4825.1400,N,00428.4605,W,0.00,227.81,090621,,,A*77
$GPGGA,093401.000,4825.1400,N,00428.4605,W,1,06,1.6,87.1,M,52.0,M,,0000*7E
$GPGSA,A,3,31,29,26,18,25,05,,,,,,,3.2,1.6,2.7*37
$GPGSV,3,1,12,31,60,220,41,29,56,056,46,26,53,295,43,18,42,152,42*74
$GPGSV,3,1,12,31,60,220,41,29,56,056,46,26,53,295,43,18,42,152,42*74
$GPGSV,3,2,12,25,25,107,39,05,09,069,29,09,03,340,11,57,68,131,*7D
$GPGSV,3,2,12,25,25,107,39,05,09,069,29,09,03,340,11,57,68,131,*7D
$GPGSV,3,3,12,58,68,131,,59,68,131,,14,34,269,,15,21,264,*73
$GPGSV,3,3,12,58,68,131,,59,68,131,,14,34,269,,15,21,264,*73
$GPRMC,093401.000,A,4825.1400,N,00428.4605,W,0.00,227.81,090621,,,A*76
$GPGGA,093402.000,4825.1400,N,00428.4605,W,1,06,1.6,87.1,M,52.0,M,,0000*7D
$GPGSA,A,3,31,29,26,18,25,05,,,,,,,3.2,1.6,2.7*37
$GPRMC,093402.000,A,4825.1400,N,00428.4605,W,0.00,227.81,090621,,,A*75
$GPGGA,093403.000,4825.1400,N,00428.4605,W,1,06,1.6,87.1,M,52.0,M,,0000*7C
$GPGSA,A,3,31,29,26,18,25,05,,,,,,,3.2,1.6,2.7*37
$GPRMC,093403.000,A,4825.1400,N,00428.4605,W,0.00,227.81,090621,,,A*74
$GPGGA,093404.000,4825.1398,N,00428.4605,W,1,06,1.6,87.1,M,52.0,M,,0000*7D
$GPGSA,A,3,31,29,26,18,25,05,,,,,,,3.2,1.6,2.7*37
$GPRMC,093404.000,A,4825.1398,N,00428.4605,W,0.03,227.81,090621,,,A*76
$GPGGA,093405.000,4825.1398,N,00428.4605,W,1,06,1.6,87.1,M,52.0,M,,0000*7C
$GPGSA,A,3,31,29,26,18,25,05,,,,,,,3.2,1.6,2.7*37
$GPRMC,093405.000,A,4825.1398,N,00428.4605,W,0.00,227.81,090621,,,A*74
$GPGGA,093406.000,4825.1398,N,00428.4605,W,1,06,1.6,87.1,M,52.0,M,,0000*7F
$GPGSA,A,3,31,29,26,18,25,05,,,,,,,3.2,1.6,2.7*37
$GPGSV,3,1,12,31,60,220,41,29,56,056,46,26,53,295,43,18,42,152,42*74
$GPGSV,3,1,12,31,60,220,41,29,56,056,46,26,53,295,43,18,42,152,42*74
$GPGSV,3,2,12,25,25,107,39,05,09,069,25,09,03,340,10,57,68,131,*70
$GPGSV,3,2,12,25,25,107,39,05,09,069,25,09,03,340,10,57,68,131,*70
$GPGSV,3,3,12,58,68,131,,59,68,131,,14,34,269,,15,21,264,*73
$GPGSV,3,3,12,58,68,131,,59,68,131,,14,34,269,,15,21,264,*73
$GPRMC,093406.000,A,4825.1398,N,00428.4605,W,0.00,227.81,090621,,,A*77
$GPGGA,093407.000,4825.1398,N,00428.4605,W,1,06,1.6,87.1,M,52.0,M,,0000*7E
$GPGSA,A,3,31,29,26,18,25,05,,,,,,,3.2,1.6,2.7*37
$GPRMC,093407.000,A,4825.1398,N,00428.4605,W,0.00,227.81,090621,,,A*76
$GPGGA,093408.000,4825.1398,N,00428.4605,W,1,06,1.6,87.1,M,52.0,M,,0000*71
$GPGSA,A,3,31,29,26,18,25,05,,,,,,,3.2,1.6,2.7*37
$GPRMC,093408.000,A,4825.1398,N,00428.4605,W,0.00,227.81,090621,,,A*79
$GPGGA,093409.000,4825.1398,N,00428.4605,W,1,06,1.6,87.1,M,52.0,M,,0000*70
$GPGSA,A,3,31,29,26,18,25,05,,,,,,,3.2,1.6,2.7*37
$GPRMC,093409.000,A,4825.1398,N,00428.4605,W,0.00,227.81,090621,,,A*78
$GPGGA,093410.000,4825.1398,N,00428.4605,W,1,06,1.6,87.1,M,52.0,M,,0000*78
$GPGSA,A,3,31,29,26,18,25,05,,,,,,,3.2,1.6,2.7*37
$GPRMC,093410.000,A,4825.1398,N,00428.4605,W,0.00,227.81,090621,,,A*70
$GPGGA,093411.000,4825.1398,N,00428.4605,W,1,06,1.6,87.1,M,52.0,M,,0000*79
$GPGSA,A,3,31,29,26,18,25,05,,,,,,,3.2,1.6,2.7*37
$GPGSV,3,1,12,31,60,220,41,29,56,056,46,26,53,295,43,18,42,152,42*74
$GPGSV,3,1,12,31,60,220,41,29,56,056,46,26,53,295,43,18,42,152,42*74
$GPGSV,3,2,12,25,25,107,40,05,09,069,27,57,68,131,,58,68,131,*70
$GPGSV,3,2,12,25,25,107,40,05,09,069,27,57,68,131,,58,68,131,*70
$GPGSV,3,3,12,59,68,131,,14,34,269,,15,21,264,,07,11,048,*78
$GPGSV,3,3,12,59,68,131,,14,34,269,,15,21,264,,07,11,048,*78
$GPRMC,093411.000,A,4825.1398,N,00428.4605,W,0.00,227.81,090621,,,A*71
$GPGGA,093412.000,4825.1398,N,00428.4605,W,1,06,1.6,87.1,M,52.0,M,,0000*7A
$GPGSA,A,3,31,29,26,18,25,05,,,,,,,3.2,1.6,2.7*37
$GPRMC,093412.000,A,4825.1398,N,00428.4605,W,0.00,227.81,090621,,,A*72
$GPGGA,093413.000,4825.1398,N,00428.4605,W,1,06,1.6,87.1,M,52.0,M,,0000*7B
$GPGSA,A,3,31,29,26,18,25,05,,,,,,,3.2,1.6,2.7*37
$GPRMC,093413.000,A,4825.1398,N,00428.4605,W,0.00,227.81,090621,,,A*73
$GPGGA,093414.000,4825.1398,N,00428.4605,W,1,06,1.6,87.1,M,52.0,M,,0000*7C
$GPGSA,A,3,31,29,26,18,25,05,,,,,,,3.2,1.6,2.7*37
$GPRMC,093414.000,A,4825.1398,N,00428.4605,W,0.00,227.81,090621,,,A*74
$GPGGA,093415.000,4825.1398,N,00428.4605,W,1,06,1.6,87.1,M,52.0,M,,0000*7D
$GPGSA,A,3,31,29,26,18,25,05,,,,,,,3.2,1.6,2.7*37
$GPRMC,093415.000,A,4825.1398,N,00428.4605,W,0.00,227.81,090621,,,A*75
$GPGGA,093416.000,4825.1398,N,00428.4605,W,1,06,1.6,87.1,M,52.0,M,,0000*7E
$GPGSA,A,3,31,29,26,18,25,05,,,,,,,3.2,1.6,2.7*37
$GPGSV,3,1,12,31,60,220,41,29,56,056,46,26,53,295,42,18,42,152,42*75
$GPGSV,3,1,12,31,60,220,41,29,56,056,46,26,53,295,42,18,42,152,42*75
$GPGSV,3,2,12,25,25,107,40,05,09,069,27,57,68,131,,58,68,131,*70
$GPGSV,3,2,12,25,25,107,40,05,09,069,27,57,68,131,,58,68,131,*70
$GPGSV,3,3,12,59,68,131,,14,34,269,,15,21,264,,07,11,048,*78
$GPGSV,3,3,12,59,68,131,,14,34,269,,15,21,264,,07,11,048,*78
$GPRMC,093416.000,A,4825.1398,N,00428.4605,W,0.00,227.81,090621,,,A*76
$GPGGA,093417.000,4825.1398,N,00428.4605,W,1,06,1.6,87.1,M,52.0,M,,0000*7F
$GPGSA,A,3,31,29,26,18,25,05,,,,,,,3.2,1.6,2.7*37
$GPRMC,093417.000,A,4825.1398,N,00428.4605,W,0.00,227.81,090621,,,A*77
$GPGGA,093418.000,4825.1398,N,00428.4605,W,1,06,1.6,87.1,M,52.0,M,,0000*70
$GPGSA,A,3,31,29,26,18,25,05,,,,,,,3.2,1.6,2.7*37
$GPRMC,093418.000,A,4825.1398,N,00428.4605,W,0.00,227.81,090621,,,A*78
$GPGGA,093419.000,4825.1398,N,00428.4605,W,1,06,1.6,87.1,M,52.0,M,,0000*71
$GPGSA,A,3,31,29,26,18,25,05,,,,,,,3.2,1.6,2.7*37
$GPRMC,093419.000,A,4825.1398,N,00428.4605,W,0.00,227.81,090621,,,A*79
$GPGGA,093420.000,4825.1398,N,00428.4605,W,1,06,1.6,87.1,M,52.0,M,,0000*7B
$GPGSA,A,3,31,29,26,18,25,05,,,,,,,3.2,1.6,2.7*37
$GPRMC,093420.000,A,4825.1398,N,00428.4605,W,0.00,227.81,090621,,,A*73
$GPGGA,093421.000,4825.1398,N,00428.4605,W,1,06,1.6,87.1,M,52.0,M,,0000*7A
$GPGSA,A,3,31,29,26,18,25,05,,,,,,,3.2,1.6,2.7*37
$GPGSV,3,1,12,31,60,220,41,29,56,056,45,26,53,295,42,18,42,152,42*76
$GPGSV,3,1,12,31,60,220,41,29,56,056,45,26,53,295,42,18,42,152,42*76
$GPGSV,3,2,12,25,25,107,39,05,09,069,27,57,68,131,,58,68,131,*7E
$GPGSV,3,2,12,25,25,107,39,05,09,069,27,57,68,131,,58,68,131,*7E
$GPGSV,3,3,12,59,68,131,,14,34,269,,15,21,264,,07,11,048,*78
$GPGSV,3,3,12,59,68,131,,14,34,269,,15,21,264,,07,11,048,*78
$GPRMC,093421.000,A,4825.1398,N,00428.4605,W,0.00,227.81,090621,,,A*72
$GPGGA,093422.000,4825.1398,N,00428.4605,W,1,06,1.6,87.1,M,52.0,M,,0000*79
$GPGSA,A,3,31,29,26,18,25,05,,,,,,,3.2,1.6,2.7*37
$GPRMC,093422.000,A,4825.1398,N,00428.4605,W,0.00,227.81,090621,,,A$GPGGA,093423.000,4825.1398,N,00428.4605,W,1,06,1.6,87.1,M,52.0,M,,0000*78
$GPGSA,A,3,31,29,26,18,25,05,,,,,,,3.2,1.6,2.7*37
$GPRMC,093423.000,A,4825.1398,N,00428.4605,W,0.00,227.81,090621,,,A*70
$GPGGA,093424.000,4825.1398,N,00428.4605,W,1,06,1.6,87.1,M,52.0,M,,0000*7F
$GPGSA,A,3,31,29,26,18,25,05,,,,,,,3.2,1.6,2.7*37
$GPRMC,093424.000,A,4825.1398,N,00428.4605,W,0.00,227.81,090621,,,A*77
$GPGGA,093425.000,4825.1398,N,00428.4605,W,1,06,1.6,87.1,M,52.0,M,,0000*7E
$GPGSA,A,3,31,29,26,18,25,05,,,,,,,3.2,1.6,2.7*37
$GPRMC,093425.000,A,4825.1398,N,00428.4605,W,0.00,227.81,090621,,,A*76
$GPGGA,093426.000,4825.1398,N,00428.4605,W,1,06,1.6,87.1,M,52.0,M,,0000*7D
$GPGSA,A,3,31,29,26,18,25,05,,,,,,,3.2,1.6,2.7*37
$GPGSV,3,1,12,31,60,220,41,29,56,056,45,26,53,295,42,18,42,152,42*76
$GPGSV,3,1,12,31,60,220,41,29,56,056,45,26,53,295,42,18,42,152,42*76
$GPGSV,3,2,12,25,25,107,39,05,09,069,28,57,68,131,,58,68,131,*71
$GPGSV,3,2,12,25,25,107,39,05,09,069,28,57,68,131,,58,68,131,*71
$GPGSV,3,3,12,59,68,131,,14,34,269,,15,21,264,,07,11,048,*78
$GPGSV,3,3,12,59,68,131,,14,34,269,,15,21,264,,07,11,048,*78
$GPRMC,093426.000,A,4825.1398,N,00428.4605,W,0.00,227.81,090621,,,A*75
$G05,W,1,06,1.6,87.1,M,52.0,M,,0000*7C
$GPGSA,A,3,31,29,26,18,25,05,,,,,,,3.2,1.6,2.7*37
$GPRMC,093427.000,A,4825.1398,N,00428.4605,W,0.00,227.81,090621,,,A*74
$GPGGA,093428.000,4825.1398,N,00428.46000*73
$GPGSA,A,3,31,29,26,18,25,05,,,,,,,3.2,1.6,2.7*37
$GPRMC,093428.000,A,4825.1398,N,00428.4605,W,0.00,227.81,090621,,,A*7B
$GPGGA,093429.000,4825.1398,N,00428.4605,W,1,06,1.6,87.1,M,52.0,M,,0000*72
$GPGSA,A,3,31,29,26,18,25,05,,,,,,,3.2,1.6,2.7*37
$GPRMC,093429.000,A,4825.1398,N,00428.4605,W,0.00,227.81,090621,,,A*7A
$GPGGA,093430.000,4825.1398,N,00428.4605,W,1,06,1.6,87.1,M,52.0,M,,0000*7A
$GPGSA,A,3,31,29,26,18,25,05,,,,,,,3.2,1.6,2.7*37
$GPRMC,093430.000,A,4825.1398,N,00428.4605,W,0.00,227.81,090621,,,A*72
$GPGGA,093431.000,4825.1398,N,00428.4605,W,1,06,1.6,87.1,M,52.0,M,,0000*7B
$GPGSA,A,3,31,29,26,18,25,05,,,,,,,3.2,1.6,2.7*37
$GPGSV,3,1,12,31,60,220,41,29,56,056,45,26,53,295,42,18,42,152,42*76
$GPGSV,3,1,12,31,60,220,41,29,56,056,45,26,53,295,42,18,42,152,42*76
$GPGSV,3,2,12,25,25,107,40,05,09,069,29,57,68,131,,58,68,131,*7E
$GPGSV,3,2,12,25,25,107,40,05,09,069,29,57,68,131,,58,68,131,*7E
$GPGSV,3,3,12,59,68,131,,14,34,269,,15,21,264,,07,11,048,*78
$GPGSV,3,3,12,59,68,131,,14,34,269,,15,21,264,,07,11,048,*78
$GPRMC,093431.000,A,4825.1398,N,00428.4605,W,0.00,227.81,090621,,,A*73
$GPGGA,093432.000,4825.1398,N,00428.4605,W,1,06,1.6,87.1,M,52.0,M,,0$GPGGA,093433.000,4825.1398,N,00428.4605,W,1,06,1.6,87.1,M,52.0,M,,0000*79
$GPGSA,A,3,31,29,26,18,25,05,,,,,,,3.2,1.6,2.7*37
$GPRMC,093433.000,A,4825.1398,N,00428.4605,W,0.00,227.81,090621,,,A*71
$GPGGA,093434.000,4825.1398,N,00428.4605,W,1,06,1.6,87.1,M,52.0,M,,0000*7E
$GPGSA,A,3,31,29,26,18,25,05,,,,,,,3.2,1.6,2.7*37
$GPRMC,093434.000,A,4825.1398,N,00428.4605,W,0.00,227.81,090621,,,A*76
$GPGGA,093435.000,4825.1398,N,00428.4605,W,1,06,1.6,87.1,M,52.0,M,,0000*7F
$GPGSA,A,3,31,29,26,18,25,05,,,,,,,3.2,1.6,2.7*37
$GPRMC,093435.000,A,4825.1398,N,00428.4605,W,0.00,227.81,090621,,,A*77
$GPGGA,093436.000,4825.1398,N,00428.4605,W,1,06,1.6,87.1,M,52.0,M,,0000*7C
$GPGSA,A,3,31,29,26,18,25,05,,,,,,,3.2,1.6,2.7*37
$GPGSV,3,1,12,31,60,220,41,29,56,056,45,26,53,295,43,18,42,152,42*77
$GPGSV,3,1,12,31,60,220,41,29,56,056,45,26,53,295,43,18,42,152,42*77
$GPGSV,3,2,12,25,25,107,39,05,09,069,30,09,03,340,20,57,68,131,*77
$GPGSV,3,2,12,25,25,107,39,05,09,069,30,09,03,340,20,57,68,131,*77
$GPGSV,3,3,12,58,68,131,,59,68,131,,14,34,269,,15,21,264,*73
$GPGSV,3,3,12,58,68,131,,59,68,131,,14,34,269,,15,21,264,*73
$GPRMC,093436.000,A,4825.1398,N,00428.4605,W,0.00,227.81,090621,,,A*747.1,M,52.0,M,,0000*7D
$GPGSA,A,3,31,29,26,18,25,05,,,,,,,3.2,1.6,2.7*37
$GPRMC,093437.000,A,4825.1398,N,00428.4605,W,0.00,227.81,090621,,,A*75
$GPGGA,093438.000,4825.1398,N,00428.4605,W,1,06,1.6,8,3,31,29,26,18,25,05,,,,,,,3.2,1.6,2.7*37
$GPRMC,093438.000,A,4825.1398,N,00428.4605,W,0.00,227.81,090621,,,A*7A
$GPGGA,093439.000,4825.1398,N,00428.4605,W,1,06,1.6,87.1,M,52.0,M,,0000*73
$GPGSA,A93439.000,A,4825.1398,N,00428.4605,W,0.00,227.81,090621,,,A*7B
$GPGGA,093440.000,4825.1398,N,00428.4605,W,1,06,1.6,87.1,M,52.0,M,,0000*7D
$GPGSA,A,3,31,29,26,18,25,05,,,,,,,3.2,1.6,2.7*37
$GPRMC,093440.000,A,4825.1398,N,00428.4605,W,0.00,227.81,090621,,,A*75
$GPGGA,093441.000,4825.1398,N,00428.4605,W,1,06,1.6,87.1,M,52.0,M,,0000*7C
$GPGSA,A,3,31,29,26,18,25,05,,,,,,,3.2,1.6,2.7*37
$GPGSV,3,1,12,31,60,220,42,29,56,056,46,26,53,295,44,18,42,152,42*70
$GPGSV,3,1,12,31,60,220,42,29,56,056,46,26,53,295,44,18,42,152,42*70
$GPGSV,3,2,12,25,25,107,39,05,09,069,32,09,03,340,20,57,68,131,*75
$GPGSV,3,2,12,25,25,107,39,05,09,069,32,09,03,340,20,57,68,131,*75
$GPGSV,3,3,12,58,68,131,,59,68,131,,14,34,269,,15,21,264,*73
$GPGSV,3,3,12,58,68,131,,59,68,131,,14,34,269,,15,21,264,*73
$GPRMC,093441.000,A,4825.1398,N,00428.4605,W,0.00,227.81,090621,,,A*74
$GPGGA,093442.000,4825.1398,N,00428.4605,W,1,06,1.6,87.1,M,52.0,M,,0000*7F
$GPGSA,A,3,31,29,26,18,25,05,,,,,,,3.2,1.6,2.7*37
$GPRMC,093442.000,A,4825.1398,N,00428.4605,W,0.00,227.81,090621,,,A*77
$GPGGA,093443.000,4825.1398,N,00428.4605,W,1,06,1.6,87.1,M,52.0,M,,0000*7E
$GPGSA,A,3,31,29,26,18,25,05,,,,,,,3.2,1.6,2.7*37
$GPRMC,093443.000,A,4825.1398,N,00428.4605,W,0.00,227.81,090621,,,A*76
$GPGGA,093444.000,4825.1398,N,00428.4605,W,1,06,1.6,87.1,M,52.0,M,,0000*79
$GPGSA,A,3,31,29,26,18,25,05,,,,,,,3.2,1.6,2.7*37
$GPRMC,093444.000,A,4825.1398,N,00428.4605,W,0.00,227.81,090621,,,A*71
$GPGGA,093445.000,4825.1398,N,00428.4605,W,1,06,1.6,87.1,M,52.0,M,,0000*78
$GPGSA,A,3,31,29,26,18,25,05,,,,,,,3.2,1.6,2.7*37
$GPRMC,093445.000,A,4825.1398,N,00428.4605,W,0.00,227.81,090621,,,A*70
$GPGGA,093446.000,4825.1398,N,00428.4605,W,1,06,1.6,87.1,M,52.0,M,,0000*7B
$GPGSA,A,3,31,29,26,18,25,05,,,,,,,3.2,1.6,2.7*37
$GPGSV,3,1,12,31,60,220,41,29,56,056,46,26,53,295,44,18,42,152,42*73
$GPGSV,3,1,12,31,60,220,41,29,56,056,46,26,53,295,44,18,42,152,42*73
$GPGSV,3,2,12,25,25,107,39,05,09,069,32,09,03,340,17,57,68,131,*71
$GPGSV,3,2,12,25,25,107,39,05,09,069,32,09,03,340,17,57,68,131,*71
$GPGSV,3,3,12,58,68,131,,59,68,131,,14,34,269,,15,21,264,*73
$GPGSV,3,3,12,58,68,131,,59,68,131,,14,34,269,,15,21,264,*73
$GPRMC,093446.000,A,4825.1398,N,00428.4605,W,0.00,227.81,090621,,,A*73
$GPGGA,093447.000,4825.1398,N,00428.4605,W,1,06,1.6,87.1,M,52.0,M,,0000*7A
$GPGSA,A,3,31,29,26,18,25,05,,,,,,,3.2,1.6,2.7*37
$GPRMC,093447.000,A,4825.1398,N,00428.4605,W,0.00,227.81,090621,,,A*72
$GPGGA,093448.000,4825.1398,N,00428.4605,W,1,06,1.6,87.1,M,52.0,M,,0000*75
$GPGSA,A,3,31,29,26,18,25,05,,,,,,,3.2,1.6,2.7*37
$GPRMC,093448.000,A,4825.1398,N,00428.4605,W,0.00,227.81,090621,,,A*7D
$GPGGA,093449.000,4825.1398,N,00428.4605,W,1,06,1.6,87.1,M,52.0,M,,0000*74
$GPGSA,A,3,31,29,26,18,25,05,,,,,,,3.2,1.6,2.7*37
$GPRMC,093449.000,A,4825.1398,N,00428.4605,W,0.00,227.81,090621,,,A*7C
$GPGGA,093450.000,4825.1398,N,00428.4605,W,1,06,1.6,87.1,M,52.0,M,,0000*7C
$GPGSA,A,3,31,29,26,18,25,05,,,,,,,3.2,1.6,2.7*37
$GPRMC,093450.000,A,4825.1398,N,00428.4605,W,0.00,227.81,090621,,,A*74
$GPGGA,093451.000,4825.1398,N,00428.4605,W,1,06,1.6,87.1,M,52.0,M,,0000*7D
$GPGSA,A,3,31,29,26,18,25,05,,,,,,,3.2,1.6,2.7*37
$GPGSV,3,1,12,31,60,220,41,29,56,056,46,26,53,295,44,18,42,152,42*73
$GPGSV,3,1,12,31,60,220,41,29,56,056,46,26,53,295,44,18,42,152,42*73
$GPGSV,3,2,12,25,25,107,39,05,09,069,32,09,03,340,26,57,68,131,*73
$GPGSV,3,2,12,25,25,107,39,05,09,069,32,09,03,340,26,57,68,131,*73
$GPGSV,3,3,12,58,68,131,,59,68,131,,14,34,269,,15,21,264,*73
$GPGSV,3,3,12,58,68,131,,59,68,131,,14,34,269,,15,21,264,*73
$GPRMC,093451.000,A,4825.1398,N,00428.4605,W,0.00,227.81,090621,,,A*75
$GPGGA,093452.000,4825.1398,N,00428.4605,W,1,06,1.6,87.1,M,52.0,M,,0000*7E
$GPGSA,A,3,31,29,26,18,25,05,,,,,,,3.2,1.6,2.7*37
$GPRMC,093452.000,A,4825.1398,N,00428.4605,W,0.00,227.81,090621,,,A*76
$GPGGA,093453.000,4825.1398,N,00428.4605,W,1,06,1.6,87.1,M,52.0,M,,0000*7F
$GPGSA,A,3,31,29,26,18,25,05,,,,,,,3.2,1.6,2.7*37
$GPRMC,093453.000,A,4825.1398,N,00428.4605,W,0.00,227.81,090621,,,A*77
$GPGGA,093454.000,4825.1398,N,00428.4605,W,1,06,1.6,87.1,M,52.0,M,,0000*78
$GPGSA,A,3,31,29,26,18,25,05,,,,,,,3.2,1.6,2.7*37
$GPRMC,093454.000,A,4825.1398,N,00428.4605,W,0.00,227.81,090621,,,A*70
$GPGGA,093455.000,4825.1398,N,00428.4605,W,1,06,1.6,87.1,M,52.0,M,,0000*79
$GPGSA,A,3,31,29,26,18,25,05,,,,,,,3.2,1.6,2.7*37
$GPRMC,093455.000,A,4825.1398,N,00428.4605,W,0.00,227.81,090621,,,A*71
$GPGGA,093456.000,4825.1398,N,00428.4605,W,1,06,1.6,87.1,M,52.0,M,,0000*7A
$GPGSA,A,3,31,29,26,18,25,05,,,,,,,3.2,1.6,2.7*37
$GPGSV,3,1,12,31,60,220,42,29,55,056,45,26,54,295,44,18,43,152,42*76
$GPGSV,3,1,12,31,60,220,42,29,55,056,45,26,54,295,44,18,43,152,42*76
$GPGSV,3,2,12,25,25,107,39,05,10,069,32,09,03,339,20,57,68,131,*73
$GPGSV,3,2,12,25,25,107,39,05,10,069,32,09,03,339,20,57,68,131,*73
$GPGSV,3,3,12,58,68,131,,59,68,131,,14,35,270,,15,22,264,*79
$GPGSV,3,3,12,58,68,131,,59,68,131,,14,35,270,,15,22,264,*79
$GPRMC,093456.000,A,4825.1398,N,00428.4605,W,0.00,227.81,090621,,,A*72
$GPGGA,093457.000,4825.1398,N,00428.4605,W,1,06,1.6,87.1,M,52.0,M,,0000*7B
$GPGSA,A,3,31,29,26,18,25,05,,,,,,,3.2,1.6,2.7*37
$GPRMC,093457.000,A,4825.1398,N,00428.4605,W,0.00,227.81,090621,,,A*73
$GPGGA,093458.000,4825.1398,N,00428.4605,W,1,06,1.6,87.1,M,52.0,M,,0000*74
$GPGSA,A,3,31,29,26,18,25,05,,,,,,,3.2,1.6,2.7*37
$GPRMC,093458.000,A,4825.1398,N,00428.4605,W,0.00,227.81,090621,,,A*7C
$GPGGA,093459.000,4825.1398,N,00428.4605,W,1,06,1.6,87.1,M,52.0,M,,0000*75
$GPGSA,A,3,31,29,26,18,25,05,,,,,,,3.2,1.6,2.7*37
$GPRMC,093459.000,A,4825.1398,N,00428.4605,W,0.00,227.81,090621,,,A*7D
$GPGGA,093500.000,4825.1397,N,00428.4605,W,1,06,1.6,87.3,M,52.0,M,,0000*75
$GPGSA,A,3,31,29,26,18,25,05,,,,,,,3.2,1.6,2.7*37
$GPRMC,093500.000,A,4825.1397,N,00428.4605,W,0.05,227.81,090621,,,A*7A
$GPGGA,093501.000,4825.1397,N,00428.4605,W,1,06,1.6,87.3,M,52.0,M,,0000*74
$GPGSA,A,3,31,29,26,18,25,05,,,,,,,3.2,1.6,2.7*37
$GPGSV,3,1,12,31,60,220,42,29,55,056,46,26,54,295,43,18,43,152,42*72
$GPGSV,3,1,12,31,60,220,42,29,55,056,46,26,54,295,43,18,43,152,42*72
$GPGSV,3,2,12,25,25,107,39,05,10,069,31,09,03,339,21,57,68,131,*71
$GPGSV,3,2,12,25,25,107,39,05,10,069,31,09,03,339,21,57,68,131,*71
$GPGSV,3,3,12,58,68,131,,59,68,131,,14,35,270,,15,22,264,*79
$GPGSV,3,3,12,58,68,131,,59,68,131,,14,35,270,,15,22,264,*79
$GPRMC,093501.000,A,4825.1397,N,00428.4605,W,0.00,227.81,090621,,,A*7E
$GPGGA,093502.000,4825.1397,N,00428.4605,W,1,06,1.6,87.3,M,52.0,M,,0000*77
$GPGSA,A,3,31,29,26,18,25,05,,,,,,,3.2,1.6,2.7*37
$GPRMC,093502.000,A,4825.1397,N,00428.4605,W,0.00,227.81,090621,,,A*7D
$GPGGA,093503.000,4825.1397,N,00428.4605,W,1,06,1.6,87.3,M,52.0,M,,0000*76
$GPGSA,A,3,31,29,26,18,25,05,,,,,,,3.2,1.6,2.7*37
$GPRMC,093503.000,A,4825.1397,N,00428.4605,W,0.00,227.81,090621,,,A*7C
$GPGGA,093504.000,4825.1397,N,00428.4605,W,1,06,1.6,87.3,M,52.0,M,,0000*71
$GPGSA,A,3,31,29,26,18,25,05,,,,,,,3.2,1.6,2.7*37
$GPRMC,093504.000,A,4825.1397,N,00428.4605,W,0.00,227.81,090621,,,A*7B
$GPGGA,093505.000,4825.1397,N,00428.4605,W,1,06,1.6,87.3,M,52.0,M,,0000*70
$GPGSA,A,3,31,29,26,18,25,05,,,,,,,3.2,1.6,2.7*37
$GPRMC,093505.000,A,4825.1397,N,00428.4605,W,0.00,227.81,090621,,,A*7A
$GPGGA,093506.000,4825.1397,N,00428.4605,W,1,06,1.6,87.3,M,52.0,M,,0000*73
$GPGSA,A,3,31,29,26,18,25,05,,,,,,,3.2,1.6,2.7*37
$GPGSV,3,1,12,31,60,220,42,29,55,056,46,26,54,295,42,18,43,152,42*73
$GPGSV,3,1,12,31,60,220,42,29,55,056,46,26,54,295,42,18,43,152,42*73
$GPGSV,3,2,12,25,25,107,39,05,10,069,32,09,03,339,21,57,68,131,*72
$GPGSV,3,2,12,25,25,107,39,05,10,069,32,09,03,339,21,57,68,131,*72
$GPGSV,3,3,12,58,68,131,,59,68,131,,14,35,270,,15,22,264,*79
$GPGSV,3,3,12,58,68,131,,59,68,131,,14,35,270,,15,22,264,*79
$GPRMC,093506.000,A,4825.1397,N,00428.4605,W,0.00,227.81,090621,,,A*79
$GPGGA,093507.000,4825.1397,N,00428.4605,W,1,06,1.6,87.3,M,52.0,M,,0000*72
$GPGSA,A,3,31,29,26,18,25,05,,,,,,,3.2,1.6,2.7*37
$GPRMC,093507.000,A,4825.1397,N,00428.4605,W,0.00,227.81,090621,,,A*78
$GPGGA,093508.000,4825.1397,N,00428.4605,W,1,06,1.6,87.3,M,52.0,M,,0000*7D
$GPGSA,A,3,31,29,26,18,25,05,,,,,,,3.2,1.6,2.7*37
$GPRMC,093508.000,A,4825.1397,N,00428.4605,W,0.00,227.81,090621,,,A*77
$GPGGA,093509.000,4825.1397,N,00428.4605,W,1,06,1.6,87.3,M,52.0,M,,0000*7C
$GPGSA,A,3,31,29,26,18,25,05,,,,,,,3.2,1.6,2.7*37
$GPRMC,093509.000,A,4825.1397,N,00428.4605,W,0.00,227.81,090621,,,A*76
$GPGGA,093510.000,4825.1397,N,00428.4605,W,1,06,1.7,87.3,M,52.0,M,,0000*75
$GPGSA,A,3,31,29,26,18,25,05,,,,,,,3.2,1.7,2.7*36
$GPRMC,093510.000,A,4825.1397,N,00428.4605,W,0.00,227.81,090621,,,A*7E
$GPGGA,093511.000,4825.1397,N,00428.4605,W,1,06,1.7,87.3,M,52.0,M,,0000*74
$GPGSA,A,3,31,29,26,18,25,05,,,,,,,3.2,1.7,2.7*36
$GPGSV,3,1,12,31,60,220,41,29,55,056,46,26,54,295,42,18,43,152,43*71
$GPGSV,3,1,12,31,60,220,41,29,55,056,46,26,54,295,42,18,43,152,43*71
$GPGSV,3,2,12,25,25,107,40,05,10,069,32,09,03,339,23,57,68,131,*7E
$GPGSV,3,2,12,25,25,107,40,05,10,069,32,09,03,339,23,57,68,131,*7E
$GPGSV,3,3,12,58,68,131,,59,68,131,,14,35,270,,15,22,264,*79
$GPGSV,3,3,12,58,68,131,,59,68,131,,14,35,270,,15,22,264,*79
$GPRMC,093511.000,A,4825.1397,N,00428.4605,W,0.00,227.81,090621,,,A*7F
$GPGGA,093512.000,4825.1397,N,00428.4605,W,1,06,1.7,87.3,M,52.0,M,,0000*77
$GPGSA,A,3,31,29,26,18,25,05,,,,,,,3.2,1.7,2.7*36
$GPRMC,093512.000,A,4825.1397,N,00428.4605,W,0.00,227.81,0906$GPGGA,093513.000,4825.1397,N,00428.4605,W,1,06,1.7,87.3,M,52.0,M,,0000*76
$GPGSA,A,3,31,29,26,18,25,05,,,,,,,3.2,1.7,2.7*36
$GPRMC,093513.000,A,4825.1397,N,00428.4605,W,0.00,227.81,090621,,,A*7D
$GPGGA,093514.000,4825.1397,N,00428.4605,W,1,06,1.7,87.3,M,52.0,M,,0000*71
$GPGSA,A,3,31,29,26,18,25,05,,,,,,,3.2,1.7,2.7*36
$GPRMC,093514.000,A,4825.1397,N,00428.4605,W,0.00,227.81,090621,,,A*7A
$GPGGA,093515.000,4825.1397,N,00428.4605,W,1,06,1.7,87.3,M,52.0,M,,0000*70
$GPGSA,A,3,31,29,26,18,25,05,,,,,,,3.2,1.7,2.7*36
$GPRMC,093515.000,A,4825.1397,N,00428.4605,W,0.00,227.81,090621,,,A*7B
$GPGGA,093516.000,4825.1397,N,00428.4605,W,1,06,1.7,87.3,M,52.0,M,,0000*73
$GPGSA,A,3,31,29,26,18,25,05,,,,,,,3.2,1.7,2.7*36
$GPGSV,3,1,12,31,60,220,41,29,55,056,45,26,54,295,43,18,43,152,42*72
$GPGSV,3,1,12,31,60,220,41,29,55,056,45,26,54,295,43,18,43,152,42*72
$GPGSV,3,2,12,25,25,107,39,05,10,069,32,09,03,339,20,57,68,131,*73
$GPGSV,3,2,12,25,25,107,39,05,10,069,32,09,03,339,20,57,68,131,*73
$GPGSV,3,3,12,58,68,131,,59,68,131,,14,35,270,,15,22,264,*79
$GPGSV,3,3,12,58,68,131,,59,68,131,,14,35,270,,15,22,264,*79
$GPRMC,093516.000,A,4825.1397,N,00428.4605,W,0.00,227.81,090621,,,A*78
,,0000*72
$GPGSA,A,3,31,29,26,18,25,05,,,,,,,3.2,1.7,2.7*36
$GPRMC,093517.000,A,4825.1397,N,00428.4605,W,0.00,227.81,090621,,,A*79
$GPGGA,093518.000,4825.1397,N,00428.4605,W,1,06,1.7,87.3,M,52.0,M6,18,25,05,,,,,,,3.2,1.7,2.7*36
$GPRMC,093518.000,A,4825.1397,N,00428.4605,W,0.00,227.81,090621,,,A*76
$GPGGA,093519.000,4825.1397,N,00428.4605,W,1,06,1.7,87.3,M,52.0,M,,0000*7C
$GPGSA,A,3,31,29,26,18,25,05,,,,,,,3.2,1.7,2.7*36
$GPRMC,093519.000,A,4825.1397,N,00428.4605,W,0.00,227.81,090621,,,A*77
$GPGGA,093520.000,4825.1397,N,00428.4605,W,1,06,1.7,87.3,M,52.0,M,,0000*76
$GPGSA,A,3,31,29,26,18,25,05,,,,,,,3.2,1.7,2.7*36
$GPRMC,093520.000,A,4825.1397,N,00428.4605,W,0.00,227.81,090621,,,A*7D
$GPGGA,093521.000,4825.1397,N,00428.4605,W,1,06,1.7,87.3,M,52.0,M,,0000*77
$GPGSA,A,3,31,29,26,18,25,05,,,,,,,3.2,1.7,2.7*36
$GPGSV,3,1,12,31,60,220,42,29,55,056,44,26,54,295,44,18,43,152,42*77
$GPGSV,3,1,12,31,60,220,42,29,55,056,44,26,54,295,44,18,43,152,42*77
$GPGSV,3,2,12,25,25,107,39,05,10,069,32,09,03,339,22,57,68,131,*71
$GPGSV,3,2,12,25,25,107,39,05,10,069,32,09,03,339,22,57,68,131,*71
$GPGSV,3,3,12,58,68,131,,59,68,131,,14,35,270,,15,22,264,*79
$GPGSV,3,3,12,58,68,131,,59,68,131,,14,35,270,,15,22,264,*79
$GPRMC,093521.000,A,4825.1397,N,00428.4605,W,0.00,227.81,090621,,,A*7C
$GPGGA,093522.000,4825.1397,N,00428.4605,W,1,06,1.7,87.3,M,52.0,M,,0000*74
$GPGSA,A,3,31,29,2$GPGGA,093523.000,4825.1397,N,00428.4605,W,1,06,1.7,87.3,M,52.0,M,,0000*75
$GPGSA,A,3,31,29,26,18,25,05,,,,,,,3.2,1.7,2.7*36
$GPRMC,093523.000,A,4825.1397,N,00428.4605,W,0.00,227.81,090621,,,A*7E
$GPGGA,093524.000,4825.1397,N,00428.4605,W,1,06,1.7,87.3,M,52.0,M,,0000*72
$GPGSA,A,3,31,29,26,18,25,05,,,,,,,3.2,1.7,2.7*36
$GPRMC,093524.000,A,4825.1397,N,00428.4605,W,0.00,227.81,090621,,,A*79
$GPGGA,093525.000,4825.1397,N,00428.4605,W,1,06,1.7,87.3,M,52.0,M,,0000*73
$GPGSA,A,3,31,29,26,18,25,05,,,,,,,3.2,1.7,2.7*36
$GPRMC,093525.000,A,4825.1397,N,00428.4605,W,0.00,227.81,090621,,,A*78
$GPGGA,093526.000,4825.1397,N,00428.4605,W,1,06,1.7,87.3,M,52.0,M,,0000*70
$GPGSA,A,3,31,29,26,18,25,05,,,,,,,3.2,1.7,2.7*36
$GPGSV,3,1,12,31,60,220,42,29,55,056,45,26,54,295,43,18,43,152,42*71
$GPGSV,3,1,12,31,60,220,42,29,55,056,45,26,54,295,43,18,43,152,42*71
$GPGSV,3,2,12,25,25,107,39,05,10,069,31,09,03,339,26,57,68,131,*76
$GPGSV,3,2,12,25,25,107,39,05,10,069,31,09,03,339,26,57,68,131,*76
$GPGSV,3,3,12,58,68,131,,59,68,131,,14,35,270,,15,22,264,*79
$GPGSV,3,3,12,58,68,131,,59,68,131,,14,35,270,,15,22,264,*79
$GPRMC,093526.000,A,4825.1397,N,00428.4605,W,0.00,227.81,090621,,,A*7B
$GPGGA,093527.000,4825.1397,N,00428.4605,W,1,06,1.7,87.3,M,52.0,M,,0000*71
$GPGSA,A,3,31,29,26,18,25,05,,,,,,,3.2,1.7,2.7*36
$GPRMC,093527.000,A,4825.1397,N,00428.4605,W,0.00,227.81,090621,,,A*7A
000,4825.1397,N,00428.4605,W,1,06,1.7,87.2,M,52.0,M,,0000*7F
$GPGSA,A,3,31,29,26,18,25,05,,,,,,,3.2,1.7,2.8*39
$GPRMC,093528.000,A,4825.1397,N,00428.4605,W,0.00,227.81,090621,,,A*75
$GPGGA,093529.87.2,M,52.0,M,,0000*7E
$GPGSA,A,3,31,29,26,18,25,05,,,,,,,3.2,1.7,2.8*39
$GPRMC,093529.000,A,4825.1397,N,00428.4605,W,0.00,227.81,090621,,,A*74
$GPGGA,093530.000,4825.1397,N,00428.4605,W,1,06,1.7,87.2,M,52.0,M,,0000*76
