$GPGGA,082351.00,4825.1391574,N,00428.4608091,W,4,11,0.6,89.858,M,51.637,M,1.0,4095*6E
$GPRMC,082351.00,A,4825.1391574,N,00428.4608091,W,0.0,0.0,020621,999.9,E,D*23
$GNGSA,A,3,32,02,12,25,29,31,,,,,,,1.0,0.6,0.8,1*30
$GNGSA,A,3,69,78,77,79,88,,,,,,,,1.0,0.6,0.8,2*33
$GPGSV,3,1,09,02,25,051,43,06,05,024,,12,28,080,43,18,00,169,,1*6D
$GPGSV,3,2,09,25,65,070,47,26,14,275,37,29,70,179,47,31,48,301,45,1*64
$GPGSV,3,3,09,32,25,224,43,1*58
$GSGSV,3,1,09,01,33,195,,04,25,136,40,05,29,147,,06,33,195,,1*64
$GSGSV,3,2,09,07,05,106,38,08,11,114,30,17,34,167,42,28,19,125,36,1*68
$GSGSV,3,3,09,29,33,197,36,1*5F
$GLGSV,3,1,10,68,09,249,39,69,21,298,42,70,07,354,,77,40,101,35,1*70
$GLGSV,3,2,10,78,70,348,47,79,23,304,41,81,10,185,40,86,04,021,,1*78
$GLGSV,3,3,10,87,57,066,46,88,53,149,45,1*7D
$GQGSV,1,1,00,1*65
$GAGSV,3,1,09,02,18,094,39,07,16,222,39,15,23,162,,18,,,38,7*4E
$GAGSV,3,2,09,19,15,321,,20,,,38,21,01,280,,27,50,290,45,7*4C
$GAGSV,3,3,09,30,68,075,46,7*47
$GBGSV,2,1,07,05,09,110,,08,22,037,33,13,28,060,37,14,08,306,28,1*7A
$GBGSV,2,2,07,26,41,300,42,29,65,122,44,30,30,049,40,1*45
$GIGSV,1,1,02,02,17,106,34,06,23,135,34,1*7C
$GPGGA,082352.00,4825.1391603,N,00428.4608101,W,4,11,0.6,89.850,M,51.637,M,2.0,4095*6D
$GPRMC,082352.00,A,4825.1391603,N,00428.4608101,W,0.0,0.0,020621,999.9,E,D*2B
$GNGSA,A,3,32,02,12,25,29,31,,,,,,,1.0,0.6,0.8,1*30
$GNGSA,A,3,69,78,77,79,88,,,,,,,,1.0,0.6,0.8,2*33
$GPGSV,3,1,09,02,25,051,43,06,05,024,,12,28,080,43,18,00,169,,1*6D
$GPGSV,3,2,09,25,65,070,47,26,14,275,37,29,70,179,47,31,48,301,45,1*64
$GPGSV,3,3,09,32,25,224,43,1*58
$GSGSV,3,1,09,01,33,195,,04,25,136,39,05,29,147,,06,33,195,,1*6A
$GSGSV,3,2,09,07,05,106,37,08,11,114,30,17,34,167,42,28,19,125,36,1*67
$GSGSV,3,3,09,29,33,197,37,1*5E
$GLGSV,3,1,10,68,09,249,39,69,21,298,42,70,07,354,,77,40,101,35,1*70
$GLGSV,3,2,10,78,70,348,47,79,23,304,41,81,10,185,41,86,04,021,,1*79
$GLGSV,3,3,10,87,57,066,46,88,53,149,45,1*7D
$GQGSV,1,1,00,1*65
$GAGSV,3,1,09,02,18,094,39,07,16,222,39,15,23,162,,18,,,38,7*4E
$GAGSV,3,2,09,19,15,321,,20,,,38,21,01,280,,27,50,290,45,7*4C
$GAGSV,3,3,09,30,68,075,46,7*47
$GBGSV,2,1,07,05,09,110,,08,22,037,32,13,28,060,37,14,08,306,28,1*7B
$GBGSV,2,2,07,26,41,300,42,29,65,122,44,30,30,049,40,1*45
$GIGSV,1,1,02,02,17,106,34,06,23,135,34,1*7C
$GPGGA,082353.00,4825.1391627,N,00428.4608110,W,4,11,0.6,89.847,M,51.637,M,2.0,4095*6C
$GPRMC,082353.00,A,4825.1391627,N,00428.4608110,W,0.0,0.0,020621,999.9,E,D*2C
$GNGSA,A,3,32,02,12,25,29,31,,,,,,,1.0,0.6,0.8,1*30
$GNGSA,A,3,69,78,77,79,88,,,,,,,,1.0,0.6,0.8,2*33
$GPGSV,3,1,09,02,25,051,43,06,05,024,,12,28,080,43,18,00,169,,1*6D
$GPGSV,3,2,09,25,65,070,47,26,14,275,37,29,70,179,47,31,48,301,45,1*64
$GPGSV,3,3,09,32,25,224,43,1*58
$GSGSV,3,1,09,01,33,195,,04,25,136,39,05,29,147,,06,33,195,,1*6A
$GSGSV,3,2,09,07,05,106,37,08,11,114,30,17,34,167,42,28,19,125,36,1*67
$GSGSV,3,3,09,29,33,197,36,1*5F
$GLGSV,3,1,10,68,09,249,40,69,21,298,42,70,07,354,,77,40,101,35,1*7E
$GLGSV,3,2,10,78,70,348,47,79,23,304,41,81,10,185,41,86,04,021,,1*79
$GLGSV,3,3,10,87,57,066,46,88,53,149,45,1*7D
$GQGSV,1,1,00,1*65
$GAGSV,3,1,09,02,18,094,39,07,16,222,38,15,23,162,,18,,,38,7*4F
$GAGSV,3,2,09,19,15,321,,20,,,38,21,01,280,,27,50,290,45,7*4C
$GAGSV,3,3,09,30,68,075,46,7*47
$GBGSV,2,1,07,05,09,110,,08,22,037,32,13,28,060,37,14,08,306,28,1*7B
$GBGSV,2,2,07,26,41,300,42,29,65,122,44,30,30,049,40,1*45
$GIGSV,1,1,02,02,17,106,34,06,23,135,34,1*7C
$GPGGA,082354.00,4825.1391630,N,00428.4608130,W,4,11,0.6,89.845,M,51.637,M,1.0,4095*6E
$GPRMC,082354.00,A,4825.1391630,N,00428.4608130,W,0.0,0.0,020621,999.9,E,D*2F
$GNGSA,A,3,32,02,12,25,29,31,,,,,,,1.0,0.6,0.8,1*30
$GNGSA,A,3,69,78,77,79,88,,,,,,,,1.0,0.6,0.8,2*33
$GPGSV,3,1,09,02,25,051,43,06,05,024,,12,28,080,43,18,00,169,,1*6D
$GPGSV,3,2,09,25,65,070,47,26,14,275,37,29,70,179,47,31,48,301,45,1*64
$GPGSV,3,3,09,32,25,224,43,1*58
$GSGSV,3,1,09,01,33,195,,04,25,136,39,05,29,147,,06,33,195,,1*6A
$GSGSV,3,2,09,07,05,106,37,08,11,114,31,17,34,167,43,28,19,125,36,1*67
$GSGSV,3,3,09,29,33,197,36,1*5F
$GLGSV,3,1,10,68,09,249,39,69,21,298,42,70,07,354,,77,40,101,35,1*70
$GLGSV,3,2,10,78,70,348,47,79,23,304,41,81,10,185,41,86,04,021,,1*79
$GLGSV,3,3,10,87,57,066,46,88,53,149,46,1*7E
$GQGSV,1,1,00,1*65
$GAGSV,3,1,09,02,18,094,39,07,16,222,39,15,23,162,,18,,,38,7*4E
$GAGSV,3,2,09,19,15,321,,20,,,38,21,01,280,,27,50,290,45,7*4C
$GAGSV,3,3,09,30,68,076,46,7*44
$GBGSV,2,1,07,05,09,110,,08,22,037,33,13,28,060,38,14,08,306,28,1*75
$GBGSV,2,2,07,26,41,300,42,29,65,122,44,30,30,049,40,1*45
$GIGSV,1,1,02,02,17,106,34,06,23,135,34,1*7C
$GPGGA,082355.00,4825.1391629,N,00428.4608135,W,4,11,0.6,89.849,M,51.637,M,2.0,4095*6D
$GPRMC,082355.00,A,4825.1391629,N,00428.4608135,W,0.0,0.0,020621,999.9,E,D*23
$GNGSA,A,3,32,02,12,25,29,31,,,,,,,1.0,0.6,0.8,1*30
$GNGSA,A,3,69,78,77,79,88,,,,,,,,1.0,0.6,0.8,2*33
$GPGSV,3,1,09,02,25,051,43,06,05,024,,12,28,080,42,18,00,169,,1*6C
$GPGSV,3,2,09,25,65,070,47,26,14,275,37,29,70,179,47,31,48,301,45,1*64
$GPGSV,3,3,09,32,25,224,43,1*58
$GSGSV,3,1,09,01,33,195,,04,25,136,39,05,29,147,,06,33,195,,1*6A
$GSGSV,3,2,09,07,05,106,37,08,11,114,30,17,34,167,43,28,19,125,37,1*67
$GSGSV,3,3,09,29,33,197,36,1*5F
$GLGSV,3,1,10,68,09,249,39,69,21,298,42,70,07,354,,77,40,101,35,1*70
$GLGSV,3,2,10,78,70,348,47,79,23,304,41,81,10,185,41,86,04,021,,1*79
$GLGSV,3,3,10,87,57,066,46,88,53,149,45,1*7D
$GQGSV,1,1,00,1*65
$GAGSV,3,1,09,02,18,094,38,07,16,222,39,15,23,162,,18,,,38,7*4F
$GAGSV,3,2,09,19,15,321,,20,,,38,21,01,280,,27,50,290,45,7*4C
$GAGSV,3,3,09,30,68,076,46,7*44
$GBGSV,2,1,07,05,09,110,,08,22,037,32,13,28,060,37,14,08,306,28,1*7B
$GBGSV,2,2,07,26,41,300,42,29,65,122,44,30,30,049,40,1*45
$GIGSV,1,1,02,02,17,106,34,06,23,135,34,1*7C
$GPGGA,082356.00,4825.1391590,N,00428.4608120,W,4,11,0.6,89.855,M,51.637,M,2.0,4095*66
$GPRMC,082356.00,A,4825.1391590,N,00428.4608120,W,0.0,0.0,020621,999.9,E,D*25
$GNGSA,A,3,32,02,12,25,29,31,,,,,,,1.0,0.6,0.8,1*30
$GNGSA,A,3,69,78,77,79,88,,,,,,,,1.0,0.6,0.8,2*33
$GPGSV,3,1,09,02,25,051,42,06,05,024,,12,28,080,42,18,00,169,,1*6D
$GPGSV,3,2,09,25,65,070,47,26,14,275,37,29,70,179,47,31,48,301,45,1*64
$GPGSV,3,3,09,32,25,224,43,1*58
$GSGSV,3,1,09,01,33,195,,04,25,136,39,05,29,147,,06,33,195,,1*6A
$GSGSV,3,2,09,07,05,106,37,08,11,114,30,17,34,167,42,28,19,125,37,1*66
$GSGSV,3,3,09,29,33,197,36,1*5F
$GLGSV,3,1,10,68,09,249,39,69,21,298,42,70,07,354,,77,40,101,36,1*73
$GLGSV,3,2,10,78,70,348,47,79,23,304,41,81,10,185,41,86,04,021,,1*79
$GLGSV,3,3,10,87,57,066,46,88,53,149,45,1*7D
$GQGSV,1,1,00,1*65
$GAGSV,3,1,09,02,18,094,39,07,16,222,39,15,23,162,,18,,,38,7*4E
$GAGSV,3,2,09,19,15,321,,20,,,38,21,01,280,,27,50,290,45,7*4C
$GAGSV,3,3,09,30,68,076,46,7*44
$GBGSV,2,1,07,05,09,110,,08,22,037,32,13,28,060,37,14,08,306,28,1*7B
$GBGSV,2,2,07,26,41,300,42,29,65,122,45,30,30,049,40,1*44
$GIGSV,1,1,02,02,17,106,34,06,23,135,34,1*7C
$GPGGA,082357.00,4825.1391602,N,00428.4608140,W,4,11,0.6,89.865,M,51.637,M,2.0,4095*6A
$GPRMC,082357.00,A,4825.1391602,N,00428.4608140,W,0.0,0.0,020621,999.9,E,D*2A
$GNGSA,A,3,32,02,12,25,29,31,,,,,,,1.0,0.6,0.8,1*30
$GNGSA,A,3,69,78,77,79,88,,,,,,,,1.0,0.6,0.8,2*33
$GPGSV,3,1,09,02,25,051,42,06,05,024,,12,28,080,42,18,00,169,,1*6D
$GPGSV,3,2,09,25,65,070,47,26,14,275,37,29,70,179,47,31,48,301,45,1*64
$GPGSV,3,3,09,32,25,224,43,1*58
$GSGSV,3,1,09,01,33,195,,04,25,136,40,05,29,147,,06,33,195,,1*64
$GSGSV,3,2,09,07,05,106,37,08,11,114,31,17,34,167,43,28,19,125,37,1*66
$GSGSV,3,3,09,29,33,197,36,1*5F
$GLGSV,3,1,10,68,09,249,39,69,21,298,42,70,07,354,,77,40,101,36,1*73
$GLGSV,3,2,10,78,70,348,47,79,23,304,41,81,10,185,41,86,04,021,,1*79
$GLGSV,3,3,10,87,57,065,46,88,53,149,46,1*7D
$GQGSV,1,1,00,1*65
$GAGSV,3,1,09,02,18,094,38,07,16,222,39,15,23,162,,18,,,38,7*4F
$GAGSV,3,2,09,19,15,321,,20,,,38,21,01,280,,27,50,290,45,7*4C
$GAGSV,3,3,09,30,68,076,46,7*44
$GBGSV,2,1,07,05,09,110,,08,22,037,32,13,28,060,37,14,08,306,29,1*7A
$GBGSV,2,2,07,26,41,300,42,29,65,122,45,30,30,049,40,1*44
$GIGSV,1,1,02,02,17,106,34,06,23,135,34,1*7C
$GPGGA,082358.00,4825.1391588,N,00428.4608138,W,4,11,0.6,89.859,M,51.637,M,2.0,4095*64
$GPRMC,082358.00,A,4825.1391588,N,00428.4608138,W,0.0,0.0,020621,999.9,E,D*2B
$GNGSA,A,3,32,02,12,25,29,31,,,,,,,1.0,0.6,0.8,1*30
$GNGSA,A,3,69,78,77,79,88,,,,,,,,1.0,0.6,0.8,2*33
$GPGSV,3,1,09,02,25,051,42,06,05,024,,12,28,080,43,18,00,169,,1*6C
$GPGSV,3,2,09,25,65,070,47,26,14,275,37,29,70,179,47,31,48,301,45,1*64
$GPGSV,3,3,09,32,25,224,43,1*58
$GSGSV,3,1,09,01,33,195,,04,25,136,39,05,29,147,,06,33,195,,1*6A
$GSGSV,3,2,09,07,05,106,38,08,11,114,31,17,34,167,43,28,19,125,36,1*68
$GSGSV,3,3,09,29,33,197,37,1*5E
$GLGSV,3,1,10,68,09,249,39,69,21,298,42,70,07,354,,77,40,101,35,1*70
$GLGSV,3,2,10,78,70,348,47,79,23,304,41,81,10,185,41,86,04,021,,1*79
$GLGSV,3,3,10,87,57,065,46,88,53,149,45,1*7E
$GQGSV,1,1,00,1*65
$GAGSV,3,1,09,02,18,094,39,07,16,222,39,15,23,162,,18,,,38,7*4E
$GAGSV,3,2,09,19,15,321,,20,,,38,21,01,280,,27,50,290,45,7*4C
$GAGSV,3,3,09,30,68,076,46,7*44
$GBGSV,2,1,07,05,09,110,,08,22,037,32,13,28,060,37,14,08,306,28,1*7B
$GBGSV,2,2,07,26,41,300,42,29,65,122,44,30,30,049,39,1*4B
$GIGSV,1,1,02,02,17,106,34,06,23,135,34,1*7C
$GPGGA,082359.00,4825.1391581,N,00428.4608146,W,4,11,0.6,89.862,M,51.637,M,2.0,4095*6D
$GPRMC,082359.00,A,4825.1391581,N,00428.4608146,W,0.0,0.0,020621,999.9,E,D*2A
$GNGSA,A,3,32,02,12,25,29,31,,,,,,,1.0,0.6,0.8,1*30
$GNGSA,A,3,69,78,77,79,88,,,,,,,,1.0,0.6,0.8,2*33
$GPGSV,3,1,09,02,25,051,42,06,05,024,,12,28,080,42,18,00,169,,1*6D
$GPGSV,3,2,09,25,65,070,47,26,14,275,37,29,70,179,47,31,48,301,45,1*64
$GPGSV,3,3,09,32,25,224,43,1*58
$GSGSV,3,1,09,01,33,195,,04,25,136,39,05,29,147,,06,33,195,,1*6A
$GSGSV,3,2,09,07,05,106,38,08,11,114,31,17,34,167,42,28,19,125,36,1*69
$GSGSV,3,3,09,29,33,197,36,1*5F
$GLGSV,3,1,10,68,09,249,39,69,21,298,42,70,07,354,,77,40,101,35,1*70
$GLGSV,3,2,10,78,70,348,47,79,23,304,41,81,10,185,41,86,04,021,,1*79
$GLGSV,3,3,10,87,57,065,46,88,53,149,45,1*7E
$GQGSV,1,1,00,1*65
$GAGSV,3,1,09,02,18,094,39,07,16,222,39,15,23,162,,18,,,38,7*4E
$GAGSV,3,2,09,19,15,321,,20,,,38,21,01,280,,27,50,290,45,7*4C
$GAGSV,3,3,09,30,68,076,46,7*44
$GBGSV,2,1,07,05,09,110,,08,22,036,33,13,28,060,37,14,08,306,28,1*7B
$GBGSV,2,2,07,26,41,300,42,29,65,122,44,30,30,049,39,1*4B
$GIGSV,1,1,02,02,17,106,34,06,23,135,34,1*7C
$GPGGA,082400.00,4825.1391578,N,00428.4608126,W,4,11,0.6,89.848,M,51.637,M,1.0,4095*6D
$GPRMC,082400.00,A,4825.1391578,N,00428.4608126,W,0.0,0.0,020621,999.9,E,D*21
$GNGSA,A,3,32,02,12,25,29,31,,,,,,,1.0,0.6,0.8,1*30
$GNGSA,A,3,69,78,77,79,88,,,,,,,,1.0,0.6,0.8,2*33
$GPGSV,3,1,09,02,25,051,42,06,05,024,,12,28,080,43,18,00,169,,1*6C
$GPGSV,3,2,09,25,65,070,47,26,14,275,37,29,70,179,47,31,48,301,45,1*64
$GPGSV,3,3,09,32,25,224,43,1*58
$GSGSV,3,1,09,01,33,195,,04,25,136,40,05,29,147,,06,33,195,,1*64
$GSGSV,3,2,09,07,05,106,38,08,11,114,31,17,34,167,42,28,19,125,36,1*69
$GSGSV,3,3,09,29,33,197,36,1*5F
$GLGSV,3,1,10,68,09,249,38,69,21,298,42,70,07,354,,77,40,101,35,1*71
$GLGSV,3,2,10,78,70,348,47,79,23,304,41,81,10,185,41,86,03,021,,1*7E
$GLGSV,3,3,10,87,57,065,46,88,53,149,44,1*7F
$GQGSV,1,1,00,1*65
$GAGSV,3,1,09,02,18,094,39,07,16,222,39,15,23,162,,18,,,38,7*4E
$GAGSV,3,2,09,19,15,321,,20,,,38,21,01,280,,27,50,290,45,7*4C
$GAGSV,3,3,09,30,68,076,46,7*44
$GBGSV,2,1,07,05,09,110,,08,22,036,32,13,28,060,37,14,08,306,28,1*7A
$GBGSV,2,2,07,26,41,300,42,29,65,122,44,30,30,049,40,1*45
$GIGSV,1,1,02,02,17,106,34,06,23,135,34,1*7C
$GPGGA,082401.00,4825.1391600,N,00428.4608129,W,4,11,0.6,89.861,M,51.637,M,2.0,4095*67
$GPRMC,082401.00,A,4825.1391600,N,00428.4608129,W,0.0,0.0,020621,999.9,E,D*23
$GNGSA,A,3,32,02,12,25,29,31,,,,,,,1.0,0.6,0.8,1*30
$GNGSA,A,3,69,78,77,79,88,,,,,,,,1.0,0.6,0.8,2*33
$GPGSV,3,1,09,02,25,051,42,06,05,024,,12,28,080,43,18,00,169,,1*6C
$GPGSV,3,2,09,25,65,070,47,26,14,275,37,29,70,179,47,31,48,301,45,1*64
$GPGSV,3,3,09,32,25,224,44,1*5F
$GSGSV,3,1,09,01,33,195,,04,25,136,40,05,29,147,,06,33,195,,1*64
$GSGSV,3,2,09,07,05,106,38,08,11,114,30,17,34,167,42,28,19,125,36,1*68
$GSGSV,3,3,09,29,33,197,36,1*5F
$GLGSV,3,1,10,68,09,249,39,69,21,298,42,70,07,354,,77,40,101,36,1*73
$GLGSV,3,2,10,78,70,348,47,79,23,304,41,81,10,185,41,86,03,021,,1*7E
$GLGSV,3,3,10,87,57,065,46,88,53,149,45,1*7E
$GQGSV,1,1,00,1*65
$GAGSV,3,1,09,02,18,094,38,07,16,222,39,15,23,162,,18,,,38,7*4F
$GAGSV,3,2,09,19,15,321,,20,,,38,21,01,280,,27,50,290,45,7*4C
$GAGSV,3,3,09,30,68,076,46,7*44
$GBGSV,2,1,07,05,09,110,,08,22,036,32,13,28,060,37,14,08,306,29,1*7B
$GBGSV,2,2,07,26,41,300,41,29,65,122,44,30,30,049,40,1*46
$GIGSV,1,1,02,02,17,106,34,06,23,135,35,1*7D
$GPGGA,082402.00,4825.1391593,N,00428.4608113,W,4,11,0.6,89.861,M,51.637,M,2.0,4095*64
$GPRMC,082402.00,A,4825.1391593,N,00428.4608113,W,0.0,0.0,020621,999.9,E,D*20
$GNGSA,A,3,32,02,12,25,29,31,,,,,,,1.0,0.6,0.8,1*30
$GNGSA,A,3,69,78,77,79,88,,,,,,,,1.0,0.6,0.8,2*33
$GPGSV,3,1,09,02,25,051,43,06,05,024,,12,28,080,42,18,00,169,,1*6C
$GPGSV,3,2,09,25,65,070,47,26,14,275,37,29,70,179,47,31,48,301,45,1*64
$GPGSV,3,3,09,32,25,224,43,1*58
$GSGSV,3,1,09,01,33,195,,04,25,136,40,05,29,147,,06,33,195,,1*64
$GSGSV,3,2,09,07,05,106,37,08,11,114,30,17,34,167,42,28,19,125,37,1*66
$GSGSV,3,3,09,29,33,197,37,1*5E
$GLGSV,3,1,10,68,09,249,38,69,21,298,42,70,07,354,,77,40,101,36,1*72
$GLGSV,3,2,10,78,70,348,47,79,23,304,41,81,10,185,41,86,03,021,,1*7E
$GLGSV,3,3,10,87,57,065,46,88,53,149,45,1*7E
$GQGSV,1,1,00,1*65
$GAGSV,3,1,09,02,18,094,39,07,16,222,40,15,23,162,,18,,,38,7*40
$GAGSV,3,2,09,19,15,321,,20,,,38,21,01,280,,27,50,290,45,7*4C
$GAGSV,3,3,09,30,68,076,46,7*44
$GBGSV,2,1,07,05,09,110,,08,22,036,32,13,28,060,38,14,08,306,29,1*74
$GBGSV,2,2,07,26,41,300,41,29,65,122,44,30,30,049,40,1*46
$GIGSV,1,1,02,02,17,106,34,06,23,135,34,1*7C
$GPGGA,082403.00,4825.1391589,N,00428.4608118,W,4,11,0.6,89.859,M,51.637,M,2.0,4095*6E
$GPRMC,082403.00,A,4825.1391589,N,00428.4608118,W,0.0,0.0,020621,999.9,E,D*21
$GNGSA,A,3,32,02,12,25,29,31,,,,,,,1.0,0.6,0.8,1*30
$GNGSA,A,3,69,78,77,79,88,,,,,,,,1.0,0.6,0.8,2*33
$GPGSV,3,1,09,02,25,051,43,06,05,024,,12,28,080,42,18,00,169,,1*6C
$GPGSV,3,2,09,25,65,070,47,26,14,275,37,29,70,179,47,31,48,301,45,1*64
$GPGSV,3,3,09,32,25,224,43,1*58
$GSGSV,3,1,09,01,33,195,,04,25,136,40,05,29,147,,06,33,195,,1*64
$GSGSV,3,2,09,07,05,106,38,08,11,114,30,17,34,167,42,28,19,125,37,1*69
$GSGSV,3,3,09,29,33,197,36,1*5F
$GLGSV,3,1,10,68,09,249,38,69,21,297,42,70,07,354,,77,40,101,35,1*7E
$GLGSV,3,2,10,78,70,348,47,79,23,304,41,81,10,185,41,86,03,021,,1*7E
$GLGSV,3,3,10,87,57,065,47,88,53,149,44,1*7E
$GQGSV,1,1,00,1*65
$GAGSV,3,1,09,02,18,094,39,07,16,222,39,15,23,162,,18,,,38,7*4E
$GAGSV,3,2,09,19,15,321,,20,,,38,21,01,280,,27,50,290,45,7*4C
$GAGSV,3,3,09,30,68,076,46,7*44
$GBGSV,2,1,07,05,09,110,,08,22,036,32,13,28,060,38,14,08,306,28,1*75
$GBGSV,2,2,07,26,41,300,42,29,65,122,44,30,30,049,39,1*4B
$GIGSV,1,1,02,02,17,106,34,06,23,135,34,1*7C
$GPGGA,082404.00,4825.1391606,N,00428.4608112,W,4,11,0.6,89.846,M,51.637,M,1.0,4095*6A
$GPRMC,082404.00,A,4825.1391606,N,00428.4608112,W,0.0,0.0,020621,999.9,E,D*28
$GNGSA,A,3,32,02,12,25,29,31,,,,,,,1.0,0.6,0.8,1*30
$GNGSA,A,3,69,78,77,79,88,,,,,,,,1.0,0.6,0.8,2*33
$GPGSV,3,1,09,02,25,051,43,06,05,024,,12,28,080,43,18,00,169,,1*6D
$GPGSV,3,2,09,25,65,070,47,26,14,275,37,29,70,179,47,31,48,301,45,1*64
$GPGSV,3,3,09,32,25,224,43,1*58
$GSGSV,3,1,09,01,33,195,,04,25,136,39,05,29,147,,06,33,195,,1*6A
$GSGSV,3,2,09,07,05,106,38,08,11,114,30,17,34,167,42,28,19,125,37,1*69
$GSGSV,3,3,09,29,33,197,36,1*5F
$GLGSV,3,1,10,68,09,249,38,69,21,297,43,70,07,354,,77,40,101,36,1*7C
$GLGSV,3,2,10,78,70,348,47,79,23,304,41,81,10,185,41,86,03,021,,1*7E
$GLGSV,3,3,10,87,57,065,46,88,53,149,44,1*7F
$GQGSV,1,1,00,1*65
$GAGSV,3,1,09,02,18,094,39,07,16,222,39,15,23,162,,18,,,38,7*4E
$GAGSV,3,2,09,19,15,321,,20,,,38,21,01,280,,27,50,290,45,7*4C
$GAGSV,3,3,09,30,68,076,46,7*44
$GBGSV,2,1,07,05,09,110,,08,22,036,33,13,28,060,38,14,08,306,27,1*7B
$GBGSV,2,2,07,26,41,300,42,29,65,122,44,30,30,049,40,1*45
$GIGSV,1,1,02,02,17,106,34,06,23,135,34,1*7C
$GPGGA,082405.00,4825.1391616,N,00428.4608108,W,4,11,0.6,89.844,M,51.637,M,1.0,4095*63
$GPRMC,082405.00,A,4825.1391616,N,00428.4608108,W,0.0,0.0,020621,999.9,E,D*23
$GNGSA,A,3,32,02,12,25,29,31,,,,,,,1.0,0.6,0.8,1*30
$GNGSA,A,3,69,78,77,79,88,,,,,,,,1.0,0.6,0.8,2*33
$GPGSV,3,1,09,02,25,051,42,06,05,024,,12,28,080,43,18,00,169,,1*6C
$GPGSV,3,2,09,25,65,070,47,26,14,275,37,29,70,179,47,31,48,301,45,1*64
$GPGSV,3,3,09,32,25,224,43,1*58
$GSGSV,3,1,09,01,33,195,,04,25,136,39,05,29,147,,06,33,195,,1*6A
$GSGSV,3,2,09,07,05,106,38,08,11,114,30,17,34,167,42,28,19,125,36,1*68
$GSGSV,3,3,09,29,33,197,36,1*5F
$GLGSV,3,1,10,68,09,249,37,69,21,297,42,70,07,354,,77,40,101,35,1*71
$GLGSV,3,2,10,78,70,348,47,79,23,304,41,81,10,185,40,86,03,021,,1*7F
$GLGSV,3,3,10,87,57,065,46,88,53,149,45,1*7E
$GQGSV,1,1,00,1*65
$GAGSV,3,1,09,02,18,094,39,07,16,222,39,15,23,162,,18,,,38,7*4E
$GAGSV,3,2,09,19,15,321,,20,,,38,21,01,280,,27,50,290,45,7*4C
$GAGSV,3,3,09,30,68,076,47,7*45
$GBGSV,2,1,07,05,09,110,,08,22,036,32,13,28,060,38,14,08,306,28,1*75
$GBGSV,2,2,07,26,41,300,41,29,65,122,44,30,30,049,39,1*48
$GIGSV,1,1,02,02,17,106,34,06,23,135,34,1*7C
$GPGGA,082406.00,4825.1391616,N,00428.4608116,W,4,11,0.6,89.852,M,51.637,M,2.0,4095*6B
$GPRMC,082406.00,A,4825.1391616,N,00428.4608116,W,0.0,0.0,020621,999.9,E,D*2F
$GNGSA,A,3,32,02,12,25,29,31,,,,,,,1.0,0.6,0.8,1*30
$GNGSA,A,3,69,78,77,79,88,,,,,,,,1.0,0.6,0.8,2*33
$GPGSV,3,1,09,02,25,051,43,06,05,024,,12,28,080,43,18,00,169,,1*6D
$GPGSV,3,2,09,25,65,070,47,26,14,275,37,29,70,179,47,31,48,301,45,1*64
$GPGSV,3,3,09,32,25,224,43,1*58
$GSGSV,3,1,09,01,33,195,,04,25,136,40,05,29,147,,06,33,195,,1*64
$GSGSV,3,2,09,07,05,106,38,08,11,114,30,17,34,167,42,28,19,125,36,1*68
$GSGSV,3,3,09,29,33,197,37,1*5E
$GLGSV,3,1,10,68,09,249,38,69,21,297,42,70,07,354,,77,40,101,35,1*7E
$GLGSV,3,2,10,78,70,348,47,79,23,304,41,81,10,185,40,86,03,021,,1*7F
$GLGSV,3,3,10,87,57,065,46,88,53,149,45,1*7E
$GQGSV,1,1,00,1*65
$GAGSV,3,1,09,02,18,094,39,07,16,222,40,15,23,162,,18,,,38,7*40
$GAGSV,3,2,09,19,15,321,,20,,,38,21,01,280,,27,50,290,45,7*4C
$GAGSV,3,3,09,30,68,076,47,7*45
$GBGSV,2,1,07,05,09,110,,08,22,036,33,13,28,060,37,14,08,306,28,1*7B
$GBGSV,2,2,07,26,41,300,41,29,65,122,44,30,30,049,39,1*48
$GIGSV,1,1,02,02,17,106,33,06,23,135,33,1*7C
$GPGGA,082407.00,4825.1391586,N,00428.4608097,W,4,11,0.6,89.850,M,51.637,M,2.0,4095*6A
$GPRMC,082407.00,A,4825.1391586,N,00428.4608097,W,0.0,0.0,020621,999.9,E,D*2C
$GNGSA,A,3,32,02,12,25,29,31,,,,,,,1.0,0.6,0.8,1*30
$GNGSA,A,3,69,78,77,79,88,,,,,,,,1.0,0.6,0.8,2*33
$GPGSV,3,1,09,02,25,051,43,06,05,024,,12,28,080,43,18,00,169,,1*6D
$GPGSV,3,2,09,25,65,070,47,26,14,275,38,29,70,179,47,31,48,301,45,1*6B
$GPGSV,3,3,09,32,25,224,43,1*58
$GSGSV,3,1,09,01,33,195,,04,25,136,40,05,29,147,,06,33,195,,1*64
$GSGSV,3,2,09,07,05,106,38,08,11,114,30,17,34,167,42,28,19,125,36,1*68
$GSGSV,3,3,09,29,33,197,36,1*5F
$GLGSV,3,1,10,68,09,249,37,69,21,297,42,70,07,354,,77,40,101,35,1*71
$GLGSV,3,2,10,78,70,348,47,79,23,304,40,81,10,185,40,86,03,021,,1*7E
$GLGSV,3,3,10,87,57,065,47,88,53,149,45,1*7F
$GQGSV,1,1,00,1*65
$GAGSV,3,1,09,02,18,094,39,07,16,222,39,15,23,162,,18,,,38,7*4E
$GAGSV,3,2,09,19,15,321,,20,,,38,21,01,280,,27,50,290,44,7*4D
$GAGSV,3,3,09,30,68,076,46,7*44
$GBGSV,2,1,07,05,09,110,,08,22,036,33,13,28,060,38,14,08,306,29,1*75
$GBGSV,2,2,07,26,41,300,42,29,65,122,44,30,30,049,39,1*4B
$GIGSV,1,1,02,02,17,106,33,06,23,135,34,1*7B
$GPGGA,082408.00,4825.1391577,N,00428.4608079,W,4,11,0.6,89.851,M,51.637,M,2.0,4095*6A
$GPRMC,082408.00,A,4825.1391577,N,00428.4608079,W,0.0,0.0,020621,999.9,E,D*2D
$GNGSA,A,3,32,02,12,25,29,31,,,,,,,1.0,0.6,0.8,1*30
$GNGSA,A,3,69,78,77,79,88,,,,,,,,1.0,0.6,0.8,2*33
$GPGSV,3,1,09,02,25,051,43,06,05,024,,12,28,080,44,18,00,169,,1*6A
$GPGSV,3,2,09,25,65,070,47,26,14,275,38,29,70,179,47,31,48,301,45,1*6B
$GPGSV,3,3,09,32,25,224,43,1*58
$GSGSV,3,1,09,01,33,195,,04,25,136,40,05,29,147,,06,33,195,,1*64
$GSGSV,3,2,09,07,05,106,38,08,11,114,30,17,34,167,42,28,19,125,36,1*68
$GSGSV,3,3,09,29,33,197,36,1*5F
$GLGSV,3,1,10,68,09,249,36,69,21,297,42,70,07,354,,77,40,101,36,1*73
$GLGSV,3,2,10,78,70,348,47,79,23,304,41,81,10,185,40,86,03,021,,1*7F
$GLGSV,3,3,10,87,57,065,47,88,53,149,45,1*7F
$GQGSV,1,1,00,1*65
$GAGSV,3,1,09,02,18,094,39,07,16,222,38,15,23,162,,18,,,38,7*4F
$GAGSV,3,2,09,19,15,321,,20,,,38,21,01,280,,27,50,290,45,7*4C
$GAGSV,3,3,09,30,68,076,46,7*44
$GBGSV,2,1,07,05,09,110,,08,22,036,32,13,28,060,38,14,08,306,28,1*75
$GBGSV,2,2,07,26,41,300,42,29,65,122,44,30,30,049,40,1*45
$GIGSV,1,1,02,02,17,106,33,06,23,135,34,1*7B
$GPGGA,082409.00,4825.1391559,N,00428.4608061,W,4,11,0.6,89.849,M,51.637,M,2.0,4095*67
$GPRMC,082409.00,A,4825.1391559,N,00428.4608061,W,0.0,0.0,020621,999.9,E,D*29
$GNGSA,A,3,32,02,12,25,29,31,,,,,,,1.0,0.6,0.8,1*30
$GNGSA,A,3,69,78,77,79,88,,,,,,,,1.0,0.6,0.8,2*33
$GPGSV,3,1,09,02,25,051,43,06,05,024,,12,28,080,44,18,00,169,,1*6A
$GPGSV,3,2,09,25,65,070,47,26,14,275,37,29,70,179,48,31,48,301,45,1*6B
$GPGSV,3,3,09,32,25,224,44,1*5F
$GSGSV,3,1,09,01,33,195,,04,25,136,40,05,29,147,,06,33,195,,1*64
$GSGSV,3,2,09,07,05,106,38,08,11,114,30,17,34,167,42,28,19,125,36,1*68
$GSGSV,3,3,09,29,33,197,36,1*5F
$GLGSV,3,1,10,68,09,249,37,69,21,297,42,70,07,354,,77,40,101,36,1*72
$GLGSV,3,2,10,78,70,348,47,79,23,304,41,81,10,185,40,86,03,021,,1*7F
$GLGSV,3,3,10,87,57,065,47,88,53,149,45,1*7F
$GQGSV,1,1,00,1*65
$GAGSV,3,1,09,02,18,094,39,07,16,222,39,15,23,162,,18,,,38,7*4E
$GAGSV,3,2,09,19,15,321,,20,,,38,21,01,280,,27,50,290,45,7*4C
$GAGSV,3,3,09,30,68,076,46,7*44
$GBGSV,2,1,07,05,09,110,,08,22,036,33,13,28,060,37,14,08,306,28,1*7B
$GBGSV,2,2,07,26,41,300,42,29,65,122,44,30,30,049,40,1*45
$GIGSV,1,1,02,02,17,106,33,06,23,135,34,1*7B
$GPGGA,082410.00,4825.1391603,N,00428.4608090,W,4,11,0.6,89.848,M,51.637,M,2.0,4095*6C
$GPRMC,082410.00,A,4825.1391603,N,00428.4608090,W,0.0,0.0,020621,999.9,E,D*23
$GNGSA,A,3,32,02,12,25,29,31,,,,,,,1.0,0.6,0.8,1*30
$GNGSA,A,3,69,78,77,79,88,,,,,,,,1.0,0.6,0.8,2*33
$GPGSV,3,1,09,02,25,051,43,06,05,024,,12,28,080,44,18,00,169,,1*6A
$GPGSV,3,2,09,25,65,070,47,26,14,275,38,29,70,179,48,31,48,301,45,1*64
$GPGSV,3,3,09,32,25,224,43,1*58
$GSGSV,3,1,09,01,33,195,,04,25,136,40,05,29,147,,06,33,195,,1*64
$GSGSV,3,2,09,07,05,106,38,08,11,114,30,17,34,167,42,28,19,125,36,1*68
$GSGSV,3,3,09,29,33,197,36,1*5F
$GLGSV,3,1,10,68,09,249,37,69,21,297,43,70,07,354,,77,40,101,35,1*70
$GLGSV,3,2,10,78,70,348,47,79,23,304,41,81,10,185,40,86,03,021,,1*7F
$GLGSV,3,3,10,87,57,065,47,88,53,149,45,1*7F
$GQGSV,1,1,00,1*65
$GAGSV,3,1,09,02,18,094,39,07,16,222,39,15,23,162,,18,,,38,7*4E
$GAGSV,3,2,09,19,15,321,,20,,,38,21,01,280,,27,50,290,45,7*4C
$GAGSV,3,3,09,30,68,076,46,7*44
$GBGSV,2,1,07,05,09,110,,08,22,036,32,13,28,060,37,14,08,306,28,1*7A
$GBGSV,2,2,07,26,41,300,42,29,65,122,44,30,30,049,40,1*45
$GIGSV,1,1,02,02,17,106,33,06,23,135,34,1*7B
$GPGGA,082413.00,4825.1391604,N,00428.4608123,W,4,11,0.6,89.849,M,51.637,M,1.0,4095*63
$GPRMC,082413.00,A,4825.1391604,N,00428.4608123,W,0.0,0.0,020621,999.9,E,D*2E
$GNGSA,A,3,32,02,12,25,29,31,,,,,,,1.0,0.6,0.8,1*30
$GNGSA,A,3,69,78,77,79,88,,,,,,,,1.0,0.6,0.8,2*33
$GPGSV,3,1,09,02,25,051,43,06,05,024,,12,28,080,43,18,00,169,,1*6D
$GPGSV,3,2,09,25,65,070,47,26,14,275,37,29,70,179,48,31,48,301,45,1*6B
$GPGSV,3,3,09,32,25,224,43,1*58
$GSGSV,3,1,09,01,33,195,,04,25,136,40,05,29,147,,06,33,195,,1*64
$GSGSV,3,2,09,07,05,106,38,08,11,114,30,17,34,167,42,28,19,125,36,1*68
$GSGSV,3,3,09,29,33,197,37,1*5E
$GLGSV,3,1,10,68,09,249,36,69,21,297,42,70,07,354,,77,40,101,35,1*70
$GLGSV,3,2,10,78,70,348,47,79,23,304,40,81,10,185,40,86,03,021,,1*7E
$GLGSV,3,3,10,87,57,065,47,88,53,149,45,1*7F
$GQGSV,1,1,00,1*65
$GAGSV,3,1,09,02,18,094,39,07,16,222,38,15,23,162,,18,,,38,7*4F
$GAGSV,3,2,09,19,15,321,,20,,,38,21,01,280,,27,50,290,45,7*4C
$GAGSV,3,3,09,30,68,076,46,7*44
$GBGSV,2,1,07,05,09,110,,08,22,036,32,13,28,060,37,14,08,306,28,1*7A
$GBGSV,2,2,07,26,41,300,41,29,65,122,44,30,30,049,39,1*48
$GIGSV,1,1,02,02,17,106,34,06,23,135,33,1*7B
$GPGGA,082414.00,4825.1390091,N,00428.4608798,W,2,23,0.6,90.282,M,51.637,M,1.8,4095*63
$GPRMC,082414.00,A,4825.1390091,N,00428.4608798,W,0.0,0.0,020621,999.9,E,D*24
$GNGSA,A,3,32,02,12,25,26,29,31,,,,,,1.0,0.6,0.8,1*34
$GNGSA,A,3,69,78,81,77,79,88,87,,,,,,1.0,0.6,0.8,2*35
$GNGSA,A,3,02,30,07,27,,,,,,,,,1.0,0.6,0.8,3*3F
$GPGSV,3,1,09,02,25,051,43,06,05,024,,12,28,080,43,18,00,169,,1*6D
$GPGSV,3,2,09,25,65,070,47,26,14,275,38,29,70,179,47,31,48,301,45,1*6B
$GPGSV,3,3,09,32,25,224,44,1*5F
$GSGSV,3,1,09,01,33,195,,04,25,136,40,05,29,147,,06,33,195,,1*64
$GSGSV,3,2,09,07,05,106,38,08,11,114,30,17,34,167,42,28,19,125,37,1*69
$GSGSV,3,3,09,29,33,197,36,1*5F
$GLGSV,3,1,10,68,09,249,36,69,21,297,42,70,07,354,,77,40,101,35,1*70
$GLGSV,3,2,10,78,71,348,47,79,23,304,41,81,10,185,40,86,03,021,,1*7E
$GLGSV,3,3,10,87,57,065,47,88,53,149,45,1*7F
$GQGSV,1,1,00,1*65
$GAGSV,3,1,09,02,18,094,39,07,16,222,39,15,23,162,,18,,,38,7*4E
$GAGSV,3,2,09,19,15,321,,20,,,38,21,01,280,,27,50,290,45,7*4C
$GAGSV,3,3,09,30,68,076,46,7*44
$GBGSV,2,1,07,05,09,110,,08,22,036,32,13,28,060,37,14,08,306,28,1*7A
$GBGSV,2,2,07,26,41,300,42,29,65,122,45,30,30,049,39,1*4A
$GIGSV,1,1,02,02,17,106,34,06,23,135,33,1*7B
$GPGGA,082415.00,4825.1390097,N,00428.4608804,W,2,23,0.6,90.280,M,51.637,M,1.8,4095*6C
$GPRMC,082415.00,A,4825.1390097,N,00428.4608804,W,0.0,0.0,020621,999.9,E,D*29
$GNGSA,A,3,32,02,12,25,26,29,31,,,,,,1.0,0.6,0.8,1*34
$GNGSA,A,3,69,78,81,77,79,88,87,,,,,,1.0,0.6,0.8,2*35
$GNGSA,A,3,02,30,07,27,,,,,,,,,1.0,0.6,0.8,3*3F
$GPGSV,3,1,09,02,25,051,43,06,05,024,,12,28,080,43,18,00,169,,1*6D
$GPGSV,3,2,09,25,65,070,47,26,14,275,37,29,70,179,47,31,48,301,45,1*64
$GPGSV,3,3,09,32,25,224,43,1*58
$GSGSV,3,1,09,01,33,195,,04,25,136,40,05,29,147,,06,33,195,,1*64
$GSGSV,3,2,09,07,05,106,38,08,11,114,31,17,34,167,42,28,19,125,36,1*69
$GSGSV,3,3,09,29,33,197,36,1*5F
$GLGSV,3,1,10,68,09,249,36,69,21,297,42,70,07,354,,77,40,101,36,1*73
$GLGSV,3,2,10,78,71,348,47,79,23,304,41,81,10,185,40,86,03,021,,1*7E
$GLGSV,3,3,10,87,57,065,46,88,53,149,45,1*7E
$GQGSV,1,1,00,1*65
$GAGSV,3,1,09,02,18,094,38,07,16,222,38,15,23,162,,18,,,38,7*4E
$GAGSV,3,2,09,19,15,321,,20,,,38,21,01,280,,27,50,290,45,7*4C
$GAGSV,3,3,09,30,68,076,46,7*44
$GBGSV,2,1,07,05,09,110,,08,22,036,32,13,28,060,37,14,08,306,28,1*7A
$GBGSV,2,2,07,26,41,300,42,29,65,122,44,30,30,049,40,1*45
$GIGSV,1,1,02,02,17,106,34,06,23,135,34,1*7C
$GPGGA,082416.00,4825.1390112,N,00428.4608810,W,2,23,0.6,90.279,M,51.637,M,1.8,4095*60
$GPRMC,082416.00,A,4825.1390112,N,00428.4608810,W,0.0,0.0,020621,999.9,E,D*23
$GNGSA,A,3,32,02,12,25,26,29,31,,,,,,1.0,0.6,0.8,1*34
$GNGSA,A,3,69,78,81,77,79,88,87,,,,,,1.0,0.6,0.8,2*35
$GNGSA,A,3,02,30,07,27,,,,,,,,,1.0,0.6,0.8,3*3F
$GPGSV,3,1,09,02,25,051,42,06,05,024,,12,28,080,43,18,01,169,,1*6D
$GPGSV,3,2,09,25,65,070,47,26,14,275,38,29,70,179,47,31,48,301,45,1*6B
$GPGSV,3,3,09,32,25,224,43,1*58
$GSGSV,3,1,09,01,33,195,,04,25,136,40,05,29,147,,06,33,195,,1*64
$GSGSV,3,2,09,07,05,106,38,08,11,114,30,17,34,167,42,28,19,125,36,1*68
$GSGSV,3,3,09,29,33,197,37,1*5E
$GLGSV,3,1,10,68,09,249,37,69,21,297,42,70,07,354,,77,40,101,36,1*72
$GLGSV,3,2,10,78,71,348,47,79,23,304,40,81,10,185,40,86,03,021,,1*7F
$GLGSV,3,3,10,87,57,065,46,88,53,149,45,1*7E
$GQGSV,1,1,00,1*65
$GAGSV,3,1,09,02,18,094,38,07,16,222,38,15,23,162,,18,,,38,7*4E
$GAGSV,3,2,09,19,15,321,,20,,,38,21,01,280,,27,50,290,45,7*4C
$GAGSV,3,3,09,30,68,076,46,7*44
$GBGSV,2,1,07,05,09,110,,08,22,036,32,13,28,060,37,14,08,306,28,1*7A
$GBGSV,2,2,07,26,41,300,42,29,65,122,44,30,30,049,40,1*45
$GIGSV,1,1,02,02,17,106,34,06,23,135,34,1*7C
$GPGGA,082417.00,4825.1391618,N,00428.4608118,W,4,11,0.6,89.847,M,51.637,M,2.0,4095*6F
$GPRMC,082417.00,A,4825.1391618,N,00428.4608118,W,0.0,0.0,020621,999.9,E,D*2F
$GNGSA,A,3,32,02,12,25,29,31,,,,,,,1.0,0.6,0.8,1*30
$GNGSA,A,3,69,78,77,79,88,,,,,,,,1.0,0.6,0.8,2*33
$GPGSV,3,1,09,02,25,051,42,06,05,024,,12,28,080,43,18,01,169,,1*6D
$GPGSV,3,2,09,25,65,070,47,26,14,275,37,29,70,179,47,31,48,301,45,1*64
$GPGSV,3,3,09,32,25,224,43,1*58
$GSGSV,3,1,09,01,33,195,,04,25,136,40,05,29,147,,06,33,195,,1*64
$GSGSV,3,2,09,07,05,106,38,08,11,114,31,17,34,167,42,28,19,125,36,1*69
$GSGSV,3,3,09,29,33,197,37,1*5E
$GLGSV,3,1,10,68,09,249,36,69,21,297,42,70,07,354,,77,40,101,35,1*70
$GLGSV,3,2,10,78,71,348,46,79,23,304,40,81,10,185,40,86,03,021,,1*7E
$GLGSV,3,3,10,87,57,065,46,88,53,149,45,1*7E
$GQGSV,1,1,00,1*65
$GAGSV,3,1,09,02,18,094,38,07,16,222,38,15,23,162,,18,,,39,7*4F
$GAGSV,3,2,09,19,15,321,,20,,,38,21,01,280,,27,50,290,45,7*4C
$GAGSV,3,3,09,30,68,076,46,7*44
$GBGSV,2,1,07,05,09,110,,08,22,036,32,13,28,060,37,14,08,306,28,1*7A
$GBGSV,2,2,07,26,41,300,42,29,65,122,45,30,29,049,39,1*42
$GIGSV,1,1,02,02,17,106,34,06,23,135,33,1*7B
$GPGGA,082418.00,4825.1391626,N,00428.4608110,W,4,11,0.6,89.850,M,51.637,M,2.0,4095*63
$GPRMC,082418.00,A,4825.1391626,N,00428.4608110,W,0.0,0.0,020621,999.9,E,D*25
$GNGSA,A,3,32,02,12,25,29,31,,,,,,,1.0,0.6,0.8,1*30
$GNGSA,A,3,69,78,77,79,88,,,,,,,,1.0,0.6,0.8,2*33
$GPGSV,3,1,09,02,25,051,43,06,05,024,,12,28,080,44,18,01,169,,1*6B
$GPGSV,3,2,09,25,65,070,47,26,14,275,37,29,70,179,48,31,48,301,45,1*6B
$GPGSV,3,3,09,32,25,224,43,1*58
$GSGSV,3,1,09,01,33,195,,04,25,136,40,05,29,147,,06,33,195,,1*64
$GSGSV,3,2,09,07,05,106,37,08,11,114,30,17,34,167,42,28,19,125,36,1*67
$GSGSV,3,3,09,29,33,197,37,1*5E
$GLGSV,3,1,10,68,09,249,36,69,21,297,42,70,07,354,,77,40,101,35,1*70
$GLGSV,3,2,10,78,71,348,47,79,23,304,39,81,10,185,40,86,03,021,,1*71
$GLGSV,3,3,10,87,57,065,46,88,53,149,45,1*7E
$GQGSV,1,1,00,1*65
$GAGSV,3,1,09,02,18,094,38,07,16,222,38,15,23,162,,18,,,39,7*4F
$GAGSV,3,2,09,19,15,321,,20,,,38,21,01,280,,27,50,290,45,7*4C
$GAGSV,3,3,09,30,68,076,46,7*44
$GBGSV,2,1,07,05,09,110,,08,22,036,32,13,28,060,37,14,08,306,28,1*7A
$GBGSV,2,2,07,26,41,300,42,29,65,122,44,30,29,049,40,1*4D
$GIGSV,1,1,02,02,17,106,34,06,23,135,34,1*7C
$GPGGA,082419.00,4825.1391625,N,00428.4608110,W,4,11,0.6,89.850,M,51.637,M,2.0,4095*61
$GPRMC,082419.00,A,4825.1391625,N,00428.4608110,W,0.0,0.0,020621,999.9,E,D*27
$GNGSA,A,3,32,02,12,25,29,31,,,,,,,1.0,0.6,0.8,1*30
$GNGSA,A,3,69,78,77,79,88,,,,,,,,1.0,0.6,0.8,2*33
$GPGSV,3,1,09,02,25,050,43,06,05,024,,12,28,080,43,18,01,169,,1*6D
$GPGSV,3,2,09,25,65,070,47,26,14,275,38,29,70,179,47,31,48,301,45,1*6B
$GPGSV,3,3,09,32,25,224,43,1*58
$GSGSV,3,1,09,01,33,195,,04,25,136,40,05,29,147,,06,33,195,,1*64
$GSGSV,3,2,09,07,05,106,37,08,11,114,30,17,34,167,43,28,19,125,36,1*66
$GSGSV,3,3,09,29,33,197,37,1*5E
$GLGSV,3,1,10,68,09,249,37,69,21,297,42,70,07,354,,77,40,101,35,1*71
$GLGSV,3,2,10,78,71,348,47,79,23,304,40,81,10,185,40,86,03,021,,1*7F
$GLGSV,3,3,10,87,57,065,46,88,53,149,45,1*7E
$GQGSV,1,1,00,1*65
$GAGSV,3,1,09,02,18,094,38,07,16,222,38,15,23,162,,18,,,39,7*4F
$GAGSV,3,2,09,19,15,321,,20,,,38,21,01,280,,27,50,290,45,7*4C
$GAGSV,3,3,09,30,68,076,46,7*44
$GBGSV,2,1,07,05,09,110,,08,22,036,32,13,28,060,37,14,08,306,28,1*7A
$GBGSV,2,2,07,26,41,300,42,29,65,122,44,30,29,049,40,1*4D
$GIGSV,1,1,02,02,17,106,34,06,23,135,33,1*7B
$GPGGA,082420.00,4825.1391613,N,00428.4608098,W,4,11,0.6,89.852,M,51.637,M,2.0,4095*6D
$GPRMC,082420.00,A,4825.1391613,N,00428.4608098,W,0.0,0.0,020621,999.9,E,D*29
$GNGSA,A,3,32,02,12,25,29,31,,,,,,,1.0,0.6,0.8,1*30
$GNGSA,A,3,69,78,77,79,88,,,,,,,,1.0,0.6,0.8,2*33
$GPGSV,3,1,09,02,25,050,43,06,05,024,,12,28,080,43,18,01,169,,1*6D
$GPGSV,3,2,09,25,65,070,47,26,14,275,37,29,70,179,47,31,48,301,45,1*64
$GPGSV,3,3,09,32,25,224,44,1*5F
$GSGSV,3,1,09,01,33,195,,04,25,136,40,05,29,147,,06,33,195,,1*64
$GSGSV,3,2,09,07,05,106,37,08,11,114,31,17,34,167,42,28,19,125,36,1*66
$GSGSV,3,3,09,29,33,197,37,1*5E
$GLGSV,3,1,10,68,09,249,37,69,21,297,42,70,07,354,,77,40,101,35,1*71
$GLGSV,3,2,10,78,71,348,47,79,23,304,40,81,10,185,40,86,03,021,,1*7F
$GLGSV,3,3,10,87,57,065,46,88,53,149,45,1*7E
$GQGSV,1,1,00,1*65
$GAGSV,3,1,09,02,18,094,38,07,16,222,38,15,23,162,,18,,,39,7*4F
$GAGSV,3,2,09,19,15,321,,20,,,38,21,01,280,,27,50,290,45,7*4C
$GAGSV,3,3,09,30,68,076,46,7*44
$GBGSV,2,1,07,05,09,110,,08,22,036,32,13,28,060,37,14,08,306,28,1*7A
$GBGSV,2,2,07,26,41,300,42,29,65,121,44,30,29,049,40,1*4E
$GIGSV,1,1,02,02,17,106,34,06,23,135,33,1*7B
$GPGGA,082421.00,4825.1391589,N,00428.4608094,W,4,11,0.6,89.851,M,51.637,M,2.0,4095*63
$GPRMC,082421.00,A,4825.1391589,N,00428.4608094,W,0.0,0.0,020621,999.9,E,D*24
$GNGSA,A,3,32,02,12,25,29,31,,,,,,,1.0,0.6,0.8,1*30
$GNGSA,A,3,69,78,77,79,88,,,,,,,,1.0,0.6,0.8,2*33
$GPGSV,3,1,09,02,25,050,43,06,05,024,,12,28,080,43,18,01,169,,1*6D
$GPGSV,3,2,09,25,65,070,47,26,14,275,37,29,70,179,47,31,48,301,45,1*64
$GPGSV,3,3,09,32,25,224,44,1*5F
$GSGSV,3,1,09,01,33,195,,04,25,136,40,05,29,147,,06,33,195,,1*64
$GSGSV,3,2,09,07,05,106,37,08,11,114,30,17,34,167,42,28,19,125,36,1*67
$GSGSV,3,3,09,29,33,197,37,1*5E
$GLGSV,3,1,10,68,09,249,38,69,21,297,42,70,07,354,,77,40,101,35,1*7E
$GLGSV,3,2,10,78,71,348,47,79,23,304,40,81,10,185,40,86,03,021,,1*7F
$GLGSV,3,3,10,87,57,065,46,88,53,149,45,1*7E
$GQGSV,1,1,00,1*65
$GAGSV,3,1,09,02,18,094,38,07,16,222,38,15,23,162,,18,,,39,7*4F
$GAGSV,3,2,09,19,15,321,,20,,,38,21,01,280,,27,50,290,44,7*4D
$GAGSV,3,3,09,30,68,076,46,7*44
$GBGSV,2,1,07,05,09,110,,08,22,036,32,13,28,060,37,14,08,306,28,1*7A
$GBGSV,2,2,07,26,41,300,42,29,65,121,44,30,29,049,39,1*40
$GIGSV,1,1,02,02,17,106,34,06,23,135,33,1*7B
$GPGGA,082422.00,4825.1391587,N,00428.4608082,W,4,11,0.6,89.846,M,51.637,M,2.0,4095*6F
$GPRMC,082422.00,A,4825.1391587,N,00428.4608082,W,0.0,0.0,020621,999.9,E,D*2E
$GNGSA,A,3,32,02,12,25,29,31,,,,,,,1.0,0.6,0.8,1*30
$GNGSA,A,3,69,78,77,79,88,,,,,,,,1.0,0.6,0.8,2*33
$GPGSV,3,1,09,02,24,050,43,06,05,024,,12,28,080,43,18,01,169,,1*6C
$GPGSV,3,2,09,25,65,070,47,26,14,275,37,29,70,179,47,31,48,301,45,1*64
$GPGSV,3,3,09,32,25,224,43,1*58
$GSGSV,3,1,09,01,33,195,,04,25,136,39,05,29,147,,06,33,195,,1*6A
$GSGSV,3,2,09,07,05,106,38,08,11,114,30,17,34,167,42,28,19,125,36,1*68
$GSGSV,3,3,09,29,33,197,37,1*5E
$GLGSV,3,1,10,68,09,249,38,69,21,297,42,70,07,354,,77,40,101,36,1*7D
$GLGSV,3,2,10,78,71,348,47,79,23,304,40,81,10,185,40,86,03,021,,1*7F
$GLGSV,3,3,10,87,57,065,46,88,53,149,45,1*7E
$GQGSV,1,1,00,1*65
$GAGSV,3,1,09,02,18,094,38,07,16,222,38,15,23,162,,18,,,38,7*4E
$GAGSV,3,2,09,19,15,321,,20,,,38,21,01,280,,27,50,290,45,7*4C
$GAGSV,3,3,09,30,68,076,45,7*47
$GBGSV,2,1,07,05,09,110,,08,22,036,32,13,28,060,37,14,08,306,29,1*7B
$GBGSV,2,2,07,26,41,300,42,29,65,121,44,30,29,049,39,1*40
$GIGSV,1,1,02,02,17,106,34,06,23,135,33,1*7B
$GPGGA,082423.00,4825.1391613,N,00428.4608096,W,4,11,0.6,89.850,M,51.637,M,2.0,4095*62
$GPRMC,082423.00,A,4825.1391613,N,00428.4608096,W,0.0,0.0,020621,999.9,E,D*24
$GNGSA,A,3,32,02,12,25,29,31,,,,,,,1.0,0.6,0.8,1*30
$GNGSA,A,3,69,78,77,79,88,,,,,,,,1.0,0.6,0.8,2*33
$GPGSV,3,1,09,02,24,050,43,06,05,024,,12,28,080,43,18,01,169,,1*6C
$GPGSV,3,2,09,25,65,070,47,26,14,275,37,29,70,179,47,31,48,301,45,1*64
$GPGSV,3,3,09,32,25,224,42,1*59
$GSGSV,3,1,09,01,33,195,,04,25,136,39,05,29,147,,06,33,195,,1*6A
$GSGSV,3,2,09,07,05,106,38,08,11,114,31,17,34,167,42,28,19,125,36,1*69
$GSGSV,3,3,09,29,33,197,37,1*5E
$GLGSV,3,1,10,68,09,249,38,69,21,297,42,70,07,354,,77,40,101,35,1*7E
$GLGSV,3,2,10,78,71,348,47,79,23,304,40,81,10,185,39,86,03,021,,1*71
$GLGSV,3,3,10,87,57,065,47,88,53,149,45,1*7F
$GQGSV,1,1,00,1*65
$GAGSV,3,1,09,02,18,095,38,07,16,222,39,15,23,162,,18,,,38,7*4E
$GAGSV,3,2,09,19,15,321,,20,,,38,21,01,280,,27,50,290,45,7*4C
$GAGSV,3,3,09,30,68,076,46,7*44
$GBGSV,2,1,07,05,09,110,,08,22,036,32,13,28,060,37,14,08,306,29,1*7B
$GBGSV,2,2,07,26,41,300,42,29,65,121,44,30,29,049,40,1*4E
$GIGSV,1,1,02,02,17,106,34,06,23,135,34,1*7C
$GPGGA,082424.00,4825.1391630,N,00428.4608118,W,4,11,0.6,89.852,M,51.637,M,2.0,4095*61
$GPRMC,082424.00,A,4825.1391630,N,00428.4608118,W,0.0,0.0,020621,999.9,E,D*25
$GNGSA,A,3,32,02,12,25,29,31,,,,,,,1.0,0.6,0.8,1*30
$GNGSA,A,3,69,78,77,79,88,,,,,,,,1.0,0.6,0.8,2*33
$GPGSV,3,1,09,02,24,050,43,06,05,024,,12,28,080,43,18,01,169,,1*6C
$GPGSV,3,2,09,25,65,070,47,26,14,275,37,29,70,179,47,31,49,301,45,1*65
$GPGSV,3,3,09,32,25,224,43,1*58
$GSGSV,3,1,09,01,33,195,,04,25,136,40,05,29,147,,06,33,195,,1*64
$GSGSV,3,2,09,07,05,106,37,08,11,114,30,17,34,167,42,28,19,125,35,1*64
$GSGSV,3,3,09,29,33,197,37,1*5E
$GLGSV,3,1,10,68,09,249,38,69,21,297,42,70,07,354,,77,40,101,35,1*7E
$GLGSV,3,2,10,78,71,348,46,79,23,304,40,81,10,185,40,86,03,021,,1*7E
$GLGSV,3,3,10,87,57,065,46,88,53,149,45,1*7E
$GQGSV,1,1,00,1*65
$GAGSV,3,1,09,02,18,095,38,07,16,222,39,15,23,162,,18,,,38,7*4E
$GAGSV,3,2,09,19,15,321,,20,,,38,21,01,280,,27,50,290,45,7*4C
$GAGSV,3,3,09,30,68,076,46,7*44
$GBGSV,2,1,07,05,09,110,,08,22,036,32,13,28,060,37,14,08,306,28,1*7A
$GBGSV,2,2,07,26,41,300,42,29,65,121,44,30,29,049,40,1*4E
$GIGSV,1,1,02,02,17,106,35,06,23,135,34,1*7D
$GPGGA,082425.00,4825.1391614,N,00428.4608111,W,4,11,0.6,89.848,M,51.637,M,2.0,4095*64
$GPRMC,082425.00,A,4825.1391614,N,00428.4608111,W,0.0,0.0,020621,999.9,E,D*2B
$GNGSA,A,3,32,02,12,25,29,31,,,,,,,1.0,0.6,0.8,1*30
$GNGSA,A,3,69,78,77,79,88,,,,,,,,1.0,0.6,0.8,2*33
$GPGSV,3,1,09,02,24,050,43,06,05,024,,12,28,080,42,18,01,169,,1*6D
$GPGSV,3,2,09,25,65,070,46,26,14,275,37,29,70,179,47,31,49,301,45,1*64
$GPGSV,3,3,09,32,25,224,43,1*58
$GSGSV,3,1,09,01,33,195,,04,25,136,40,05,29,147,,06,33,195,,1*64
$GSGSV,3,2,09,07,05,106,38,08,11,114,31,17,34,167,42,28,19,125,36,1*69
$GSGSV,3,3,09,29,33,197,37,1*5E
$GLGSV,3,1,10,68,09,249,38,69,21,297,42,70,07,354,,77,40,101,35,1*7E
$GLGSV,3,2,10,78,71,348,46,79,23,304,40,81,10,185,39,86,03,021,,1*70
$GLGSV,3,3,10,87,57,065,46,88,53,149,45,1*7E
$GQGSV,1,1,00,1*65
$GAGSV,3,1,09,02,18,095,38,07,16,222,38,15,23,162,,18,,,39,7*4E
$GAGSV,3,2,09,19,15,321,,20,,,38,21,01,280,,27,50,290,45,7*4C
$GAGSV,3,3,09,30,68,076,46,7*44
$GBGSV,2,1,07,05,09,110,,08,22,036,33,13,28,060,37,14,08,306,29,1*7A
$GBGSV,2,2,07,26,41,300,42,29,65,121,44,30,29,049,40,1*4E
$GIGSV,1,1,02,02,17,106,34,06,23,135,33,1*7B
$GPGGA,082426.00,4825.1391603,N,00428.4608106,W,4,11,0.6,89.845,M,51.637,M,2.0,4095*6A
$GPRMC,082426.00,A,4825.1391603,N,00428.4608106,W,0.0,0.0,020621,999.9,E,D*28
$GNGSA,A,3,32,02,12,25,29,31,,,,,,,1.0,0.6,0.8,1*30
$GNGSA,A,3,69,78,77,79,88,,,,,,,,1.0,0.6,0.8,2*33
$GPGSV,3,1,09,02,24,050,43,06,05,024,,12,28,080,42,18,01,169,,1*6D
$GPGSV,3,2,09,25,65,070,47,26,14,275,37,29,70,179,47,31,49,301,45,1*65
$GPGSV,3,3,09,32,25,224,43,1*58
$GSGSV,3,1,09,01,33,195,,04,25,136,40,05,29,147,,06,33,195,,1*64
$GSGSV,3,2,09,07,05,106,37,08,11,114,31,17,34,167,42,28,19,125,36,1*66
$GSGSV,3,3,09,29,33,197,37,1*5E
$GLGSV,3,1,10,68,09,249,38,69,21,297,42,70,07,354,,77,40,101,35,1*7E
$GLGSV,3,2,10,78,71,348,47,79,23,304,40,81,10,185,39,86,03,021,,1*71
$GLGSV,3,3,10,87,57,065,46,88,53,149,45,1*7E
$GQGSV,1,1,00,1*65
$GAGSV,3,1,09,02,18,095,38,07,15,222,38,15,23,162,,18,,,39,7*4D
$GAGSV,3,2,09,19,15,321,,20,,,38,21,01,280,,27,50,290,45,7*4C
$GAGSV,3,3,09,30,68,076,46,7*44
$GBGSV,2,1,07,05,09,110,,08,22,036,33,13,28,060,37,14,08,306,29,1*7A
$GBGSV,2,2,07,26,41,300,42,29,65,121,44,30,29,049,39,1*40
$GIGSV,1,1,02,02,17,106,34,06,23,135,33,1*7B
$GPGGA,082427.00,4825.1391589,N,00428.4608094,W,4,11,0.6,89.848,M,51.637,M,2.0,4095*6D
$GPRMC,082427.00,A,4825.1391589,N,00428.4608094,W,0.0,0.0,020621,999.9,E,D*22
$GNGSA,A,3,32,02,12,25,29,31,,,,,,,1.0,0.6,0.8,1*30
$GNGSA,A,3,69,78,77,79,88,,,,,,,,1.0,0.6,0.8,2*33
$GPGSV,3,1,09,02,24,050,43,06,05,024,,12,28,080,42,18,01,169,,1*6D
$GPGSV,3,2,09,25,65,070,47,26,14,275,37,29,70,179,47,31,49,301,45,1*65
$GPGSV,3,3,09,32,25,224,42,1*59
$GSGSV,3,1,09,01,33,195,,04,25,136,40,05,29,147,,06,33,195,,1*64
$GSGSV,3,2,09,07,05,106,37,08,11,114,31,17,34,167,42,28,19,125,36,1*66
$GSGSV,3,3,09,29,33,197,37,1*5E
$GLGSV,3,1,10,68,09,249,38,69,21,297,42,70,07,354,,77,40,101,35,1*7E
$GLGSV,3,2,10,78,71,349,47,79,23,304,40,81,10,185,40,86,03,021,,1*7E
$GLGSV,3,3,10,87,57,065,46,88,53,149,45,1*7E
$GQGSV,1,1,00,1*65
$GAGSV,3,1,09,02,18,095,38,07,15,222,39,15,23,162,,18,,,39,7*4C
$GAGSV,3,2,09,19,15,321,,20,,,38,21,01,280,,27,50,290,45,7*4C
$GAGSV,3,3,09,30,68,076,46,7*44
$GBGSV,2,1,07,05,09,110,,08,22,036,33,13,28,060,37,14,08,306,29,1*7A
$GBGSV,2,2,07,26,41,300,42,29,65,121,44,30,29,049,39,1*40
$GIGSV,1,1,02,02,17,106,34,06,23,135,33,1*7B
$GPGGA,082428.00,4825.1391584,N,00428.4608106,W,4,11,0.6,89.852,M,51.637,M,2.0,4095*6E
$GPRMC,082428.00,A,4825.1391584,N,00428.4608106,W,0.0,0.0,020621,999.9,E,D*2A
$GNGSA,A,3,32,02,12,25,29,31,,,,,,,1.0,0.6,0.8,1*30
$GNGSA,A,3,69,78,77,79,88,,,,,,,,1.0,0.6,0.8,2*33
$GPGSV,3,1,09,02,24,050,43,06,05,024,,12,28,080,42,18,01,169,,1*6D
$GPGSV,3,2,09,25,65,070,46,26,14,275,36,29,70,179,47,31,49,301,45,1*65
$GPGSV,3,3,09,32,25,224,42,1*59
$GSGSV,3,1,09,01,33,195,,04,25,136,40,05,29,147,,06,33,195,,1*64
$GSGSV,3,2,09,07,05,106,37,08,11,114,31,17,34,167,43,28,19,125,36,1*67
$GSGSV,3,3,09,29,33,197,36,1*5F
$GLGSV,3,1,10,68,09,249,38,69,21,297,42,70,07,354,,77,40,101,35,1*7E
$GLGSV,3,2,10,78,71,349,47,79,23,304,40,81,10,185,40,86,03,021,,1*7E
$GLGSV,3,3,10,87,57,065,46,88,53,149,46,1*7D
$GQGSV,1,1,00,1*65
$GAGSV,3,1,09,02,18,095,38,07,15,222,39,15,23,162,,18,,,39,7*4C
$GAGSV,3,2,09,19,15,321,,20,,,38,21,01,280,,27,50,290,45,7*4C
$GAGSV,3,3,09,30,68,076,46,7*44
$GBGSV,2,1,07,05,09,110,,08,22,036,33,13,28,060,36,14,08,306,30,1*73
$GBGSV,2,2,07,26,41,300,42,29,65,121,44,30,29,049,39,1*40
$GIGSV,1,1,02,02,17,106,34,06,23,135,33,1*7B
$GPGGA,082429.00,4825.1391614,N,00428.4608117,W,4,11,0.6,89.856,M,51.637,M,2.0,4095*61
$GPRMC,082429.00,A,4825.1391614,N,00428.4608117,W,0.0,0.0,020621,999.9,E,D*21
$GNGSA,A,3,32,02,12,25,29,31,,,,,,,1.0,0.6,0.8,1*30
$GNGSA,A,3,69,78,77,79,88,,,,,,,,1.0,0.6,0.8,2*33
$GPGSV,3,1,09,02,24,050,43,06,05,024,,12,28,080,42,18,01,169,,1*6D
$GPGSV,3,2,09,25,65,070,47,26,14,275,37,29,70,179,47,31,49,301,45,1*65
$GPGSV,3,3,09,32,25,223,43,1*5F
$GSGSV,3,1,09,01,33,195,,04,25,136,40,05,29,147,,06,33,195,,1*64
$GSGSV,3,2,09,07,05,106,38,08,11,114,31,17,34,167,42,28,19,125,36,1*69
$GSGSV,3,3,09,29,33,197,37,1*5E
$GLGSV,3,1,10,68,09,249,38,69,21,297,41,70,07,354,,77,40,101,36,1*7E
$GLGSV,3,2,10,78,71,349,47,79,23,304,40,81,10,185,40,86,03,021,,1*7E
$GLGSV,3,3,10,87,57,065,47,88,53,149,46,1*7C
$GQGSV,1,1,00,1*65
$GAGSV,3,1,09,02,18,095,38,07,15,222,40,15,23,162,,18,,,39,7*42
$GAGSV,3,2,09,19,15,321,,20,,,38,21,01,281,,27,50,290,44,7*4C
$GAGSV,3,3,09,30,68,076,46,7*44
$GBGSV,2,1,07,05,09,110,,08,22,036,32,13,28,060,37,14,08,306,30,1*73
$GBGSV,2,2,07,26,41,300,42,29,65,121,44,30,29,049,39,1*40
$GIGSV,1,1,02,02,17,106,35,06,23,135,33,1*7A
$GPGGA,082430.00,4825.1391610,N,00428.4608126,W,4,11,0.6,89.852,M,51.637,M,2.0,4095*6B
$GPRMC,082430.00,A,4825.1391610,N,00428.4608126,W,0.0,0.0,020621,999.9,E,D*2F
$GNGSA,A,3,32,02,12,25,29,31,,,,,,,1.0,0.6,0.8,1*30
$GNGSA,A,3,69,78,77,79,88,,,,,,,,1.0,0.6,0.8,2*33
$GPGSV,3,1,09,02,24,050,43,06,05,024,,12,28,080,42,18,01,169,,1*6D
$GPGSV,3,2,09,25,65,070,46,26,14,275,37,29,70,179,47,31,49,301,45,1*64
$GPGSV,3,3,09,32,25,223,42,1*5E
$GSGSV,3,1,09,01,33,195,,04,25,136,39,05,29,147,,06,33,195,,1*6A
$GSGSV,3,2,09,07,05,106,37,08,11,114,31,17,34,167,42,28,19,125,36,1*66
$GSGSV,3,3,09,29,33,197,37,1*5E
$GLGSV,3,1,10,68,09,249,38,69,21,297,41,70,07,354,,77,40,101,35,1*7D
$GLGSV,3,2,10,78,71,349,47,79,23,304,40,81,10,185,40,86,03,021,,1*7E
$GLGSV,3,3,10,87,57,065,47,88,53,149,45,1*7F
$GQGSV,1,1,00,1*65
$GAGSV,3,1,09,02,18,095,38,07,15,222,39,15,23,162,,18,,,39,7*4C
$GAGSV,3,2,09,19,15,321,,20,,,38,21,01,281,,27,50,290,45,7*4D
$GAGSV,3,3,09,30,68,076,46,7*44
$GBGSV,2,1,07,05,09,110,,08,22,036,33,13,28,060,37,14,08,306,30,1*72
$GBGSV,2,2,07,26,41,300,42,29,65,121,44,30,29,049,39,1*40
$GIGSV,1,1,02,02,17,106,34,06,23,135,33,1*7B
$GPGGA,082431.00,4825.1391621,N,00428.4608124,W,4,11,0.6,89.851,M,51.637,M,2.0,4095*69
$GPRMC,082431.00,A,4825.1391621,N,00428.4608124,W,0.0,0.0,020621,999.9,E,D*2E
$GNGSA,A,3,32,02,12,25,29,31,,,,,,,1.0,0.6,0.8,1*30
$GNGSA,A,3,69,78,77,79,88,,,,,,,,1.0,0.6,0.8,2*33
$GPGSV,3,1,09,02,24,050,42,06,05,023,,12,27,080,42,18,01,169,,1*64
$GPGSV,3,2,09,25,65,070,47,26,14,275,36,29,70,179,47,31,49,301,45,1*64
$GPGSV,3,3,09,32,25,223,43,1*5F
$GSGSV,3,1,09,01,33,195,,04,25,136,40,05,29,147,,06,33,195,,1*64
$GSGSV,3,2,09,07,05,106,37,08,11,114,30,17,34,167,42,28,19,125,35,1*64
$GSGSV,3,3,09,29,33,197,37,1*5E
$GLGSV,3,1,10,68,09,249,38,69,21,297,42,70,07,354,,77,40,101,35,1*7E
$GLGSV,3,2,10,78,71,349,47,79,23,304,41,81,10,185,40,86,03,021,,1*7F
$GLGSV,3,3,10,87,57,065,47,88,53,149,46,1*7C
$GQGSV,1,1,00,1*65
$GAGSV,3,1,09,02,18,095,38,07,15,222,39,15,23,162,,18,,,40,7*42
$GAGSV,3,2,09,19,15,321,,20,,,38,21,01,281,,27,50,290,45,7*4D
$GAGSV,3,3,09,30,68,076,46,7*44
$GBGSV,2,1,07,05,09,110,,08,22,036,33,13,28,060,37,14,08,306,29,1*7A
$GBGSV,2,2,07,26,41,300,42,29,65,121,44,30,29,049,39,1*40
$GIGSV,1,1,02,02,17,106,35,06,23,135,33,1*7A
$GPGGA,082432.00,4825.1391595,N,00428.4608100,W,4,11,0.6,89.851,M,51.637,M,3.0,4095*61
$GPRMC,082432.00,A,4825.1391595,N,00428.4608100,W,0.0,0.0,020621,999.9,E,D*27
$GNGSA,A,3,32,02,12,25,29,31,,,,,,,1.0,0.6,0.8,1*30
$GNGSA,A,3,69,78,77,79,88,,,,,,,,1.0,0.6,0.8,2*33
$GPGSV,3,1,09,02,24,050,42,06,05,023,,12,27,080,43,18,01,169,,1*65
$GPGSV,3,2,09,25,65,070,47,26,14,275,37,29,70,179,47,31,49,301,45,1*65
$GPGSV,3,3,09,32,25,223,42,1*5E
$GSGSV,3,1,09,01,33,195,,04,25,136,40,05,29,147,,06,33,195,,1*64
$GSGSV,3,2,09,07,05,106,37,08,11,114,31,17,34,167,42,28,19,125,36,1*66
$GSGSV,3,3,09,29,33,197,36,1*5F
$GLGSV,3,1,10,68,09,249,38,69,21,297,41,70,07,354,,77,40,101,36,1*7E
$GLGSV,3,2,10,78,71,349,47,79,23,304,40,81,11,185,40,86,03,021,,1*7F
$GLGSV,3,3,10,87,57,065,46,88,53,149,45,1*7E
$GQGSV,1,1,00,1*65
$GAGSV,3,1,09,02,18,095,38,07,15,222,39,15,23,162,,18,,,39,7*4C
$GAGSV,3,2,09,19,15,321,,20,,,38,21,01,281,,27,50,290,45,7*4D
$GAGSV,3,3,09,30,68,076,46,7*44
$GBGSV,2,1,07,05,09,110,,08,22,036,32,13,28,060,37,14,08,306,28,1*7A
$GBGSV,2,2,07,26,41,300,42,29,65,121,44,30,29,049,40,1*4E
$GIGSV,1,1,02,02,17,106,35,06,23,135,33,1*7A
$GPGGA,082433.00,4825.1391601,N,00428.4608093,W,4,11,0.6,89.846,M,51.637,M,2.0,4095*62
$GPRMC,082433.00,A,4825.1391601,N,00428.4608093,W,0.0,0.0,020621,999.9,E,D*23
$GNGSA,A,3,32,02,12,25,29,31,,,,,,,1.0,0.6,0.8,1*30
$GNGSA,A,3,69,78,77,79,88,,,,,,,,1.0,0.6,0.8,2*33
$GPGSV,3,1,09,02,24,050,42,06,05,023,,12,27,080,42,18,01,169,,1*64
$GPGSV,3,2,09,25,65,070,47,26,14,275,37,29,70,179,47,31,49,301,46,1*66
$GPGSV,3,3,09,32,25,223,42,1*5E
$GSGSV,3,1,09,01,33,195,,04,25,136,40,05,29,147,,06,33,195,,1*64
$GSGSV,3,2,09,07,05,106,37,08,11,114,31,17,34,167,42,28,19,125,36,1*66
$GSGSV,3,3,09,29,33,197,36,1*5F
$GLGSV,3,1,10,68,09,249,38,69,21,297,41,70,07,354,,77,40,101,36,1*7E
$GLGSV,3,2,10,78,71,349,46,79,23,304,40,81,11,185,40,86,03,021,,1*7E
$GLGSV,3,3,10,87,57,065,46,88,53,149,45,1*7E
$GQGSV,1,1,00,1*65
$GAGSV,3,1,09,02,18,095,38,07,15,222,39,15,23,162,,18,,,39,7*4C
$GAGSV,3,2,09,19,15,321,,20,,,38,21,01,281,,27,50,290,44,7*4C
$GAGSV,3,3,09,30,68,076,46,7*44
$GBGSV,2,1,07,05,09,110,,08,22,036,32,13,28,060,37,14,08,306,29,1*7B
$GBGSV,2,2,07,26,41,300,42,29,65,121,44,30,29,049,40,1*4E
$GIGSV,1,1,02,02,17,106,34,06,23,135,34,1*7C
$GPGGA,082434.00,4825.1391604,N,00428.4608105,W,4,11,0.6,89.850,M,51.637,M,3.0,4095*68
$GPRMC,082434.00,A,4825.1391604,N,00428.4608105,W,0.0,0.0,020621,999.9,E,D*2F
$GNGSA,A,3,32,02,12,25,29,31,,,,,,,1.0,0.6,0.8,1*30
$GNGSA,A,3,69,78,77,79,88,,,,,,,,1.0,0.6,0.8,2*33
$GPGSV,3,1,09,02,24,050,42,06,05,023,,12,27,080,42,18,01,169,,1*64
$GPGSV,3,2,09,25,65,070,47,26,14,275,37,29,70,179,47,31,49,301,46,1*66
$GPGSV,3,3,09,32,25,223,42,1*5E
$GSGSV,3,1,09,01,33,195,,04,25,136,40,05,29,147,,06,33,195,,1*64
$GSGSV,3,2,09,07,05,106,37,08,11,114,31,17,34,167,42,28,19,125,35,1*65
$GSGSV,3,3,09,29,33,197,36,1*5F
$GLGSV,3,1,10,68,09,249,39,69,21,297,41,70,07,354,,77,40,101,36,1*7F
$GLGSV,3,2,10,78,71,349,47,79,23,304,40,81,11,185,39,86,03,021,,1*71
$GLGSV,3,3,10,87,57,065,46,88,53,149,45,1*7E
$GQGSV,1,1,00,1*65
$GAGSV,3,1,09,02,18,095,38,07,15,222,39,15,23,162,,18,,,40,7*42
$GAGSV,3,2,09,19,15,321,,20,,,38,21,01,281,,27,50,290,44,7*4C
$GAGSV,3,3,09,30,68,076,46,7*44
$GBGSV,2,1,07,05,09,110,,08,22,036,32,13,28,060,37,14,08,306,29,1*7B
$GBGSV,2,2,07,26,41,300,42,29,65,121,44,30,29,049,40,1*4E
$GIGSV,1,1,02,02,17,106,34,06,23,135,34,1*7C
$GPGGA,082435.00,4825.1391598,N,00428.4608103,W,4,11,0.6,89.850,M,51.637,M,4.0,4095*6E
$GPRMC,082435.00,A,4825.1391598,N,00428.4608103,W,0.0,0.0,020621,999.9,E,D*2E
$GNGSA,A,3,32,02,12,25,29,31,,,,,,,1.0,0.6,0.8,1*30
$GNGSA,A,3,69,78,77,79,88,,,,,,,,1.0,0.6,0.8,2*33
$GPGSV,3,1,09,02,24,050,42,06,05,023,,12,27,080,42,18,01,169,,1*64
$GPGSV,3,2,09,25,65,070,47,26,14,275,38,29,70,179,47,31,49,301,45,1*6A
$GPGSV,3,3,09,32,25,223,43,1*5F
$GSGSV,3,1,09,01,33,195,,04,25,136,40,05,29,147,,06,33,195,,1*64
$GSGSV,3,2,09,07,05,106,38,08,11,114,31,17,34,167,42,28,19,125,36,1*69
$GSGSV,3,3,09,29,33,197,37,1*5E
$GLGSV,3,1,10,68,09,249,39,69,21,297,42,70,07,354,,77,40,101,36,1*7C
$GLGSV,3,2,10,78,71,349,47,79,23,304,40,81,11,185,39,86,03,021,,1*71
$GLGSV,3,3,10,87,57,065,46,88,53,149,45,1*7E
$GQGSV,1,1,00,1*65
$GAGSV,3,1,09,02,18,095,38,07,15,222,39,15,23,162,,18,,,40,7*42
$GAGSV,3,2,09,19,15,321,,20,,,38,21,01,281,,27,50,290,44,7*4C
$GAGSV,3,3,09,30,68,076,46,7*44
$GBGSV,2,1,07,05,09,110,,08,22,036,32,13,28,060,37,14,08,306,30,1*73
$GBGSV,2,2,07,26,41,300,42,29,65,121,45,30,29,049,40,1*4F
$GIGSV,1,1,02,02,17,106,34,06,23,135,34,1*7C
$GPGGA,082436.00,4825.1391604,N,00428.4608105,W,4,11,0.6,89.849,M,51.637,M,5.0,4095*64
$GPRMC,082436.00,A,4825.1391604,N,00428.4608105,W,0.0,0.0,020621,999.9,E,D*2D
$GNGSA,A,3,32,02,12,25,29,31,,,,,,,1.0,0.6,0.8,1*30
$GNGSA,A,3,69,78,77,79,88,,,,,,,,1.0,0.6,0.8,2*33
$GPGSV,3,1,09,02,24,050,43,06,05,023,,12,27,080,42,18,01,169,,1*65
$GPGSV,3,2,09,25,65,070,47,26,14,275,38,29,70,179,47,31,49,301,45,1*6A
$GPGSV,3,3,09,32,25,223,42,1*5E
$GSGSV,3,1,09,01,33,195,,04,25,136,40,05,29,147,,06,33,195,,1*64
$GSGSV,3,2,09,07,05,106,38,08,11,114,31,17,34,167,42,28,19,125,36,1*69
$GSGSV,3,3,09,29,33,197,36,1*5F
$GLGSV,3,1,10,68,09,249,40,69,21,297,42,70,07,354,,77,40,101,35,1*71
$GLGSV,3,2,10,78,71,349,47,79,23,304,41,81,11,185,40,86,03,021,,1*7E
$GLGSV,3,3,10,87,57,065,46,88,53,149,45,1*7E
$GQGSV,1,1,00,1*65
$GAGSV,3,1,09,02,18,095,38,07,15,222,39,15,23,162,,18,,,40,7*42
$GAGSV,3,2,09,19,15,321,,20,,,38,21,01,281,,27,50,290,44,7*4C
$GAGSV,3,3,09,30,68,076,46,7*44
$GBGSV,2,1,07,05,09,110,,08,22,036,33,13,28,060,37,14,08,306,30,1*72
$GBGSV,2,2,07,26,41,300,42,29,65,121,44,30,29,049,40,1*4E
$GIGSV,1,1,02,02,17,106,35,06,23,135,34,1*7D
$GPGGA,082437.00,4825.1391596,N,00428.4608106,W,4,11,0.6,89.845,M,51.637,M,6.0,4095*61
$GPRMC,082437.00,A,4825.1391596,N,00428.4608106,W,0.0,0.0,020621,999.9,E,D*27
$GNGSA,A,3,32,02,12,25,29,31,,,,,,,1.0,0.6,0.8,1*30
$GNGSA,A,3,69,78,77,79,88,,,,,,,,1.0,0.6,0.8,2*33
$GPGSV,3,1,09,02,24,050,43,06,05,023,,12,27,080,43,18,01,169,,1*64
$GPGSV,3,2,09,25,65,070,47,26,14,275,38,29,70,179,47,31,49,301,45,1*6A
$GPGSV,3,3,09,32,25,223,42,1*5E
$GSGSV,3,1,09,01,33,195,,04,25,136,40,05,29,147,,06,33,195,,1*64
$GSGSV,3,2,09,07,05,106,38,08,11,114,31,17,34,167,42,28,19,125,36,1*69
$GSGSV,3,3,09,29,33,197,36,1*5F
$GLGSV,3,1,10,68,09,249,40,69,21,297,42,70,07,354,,77,40,101,36,1*72
$GLGSV,3,2,10,78,71,349,46,79,23,304,41,81,11,185,40,86,03,021,,1*7F
$GLGSV,3,3,10,87,57,065,46,88,53,149,45,1*7E
$GQGSV,1,1,00,1*65
$GAGSV,3,1,09,02,18,095,38,07,15,222,40,15,23,162,,18,,,40,7*4C
$GAGSV,3,2,09,19,15,321,,20,,,38,21,01,281,,27,50,290,45,7*4D
$GAGSV,3,3,09,30,68,076,46,7*44
$GBGSV,2,1,07,05,09,110,,08,22,036,32,13,28,060,37,14,08,306,28,1*7A
$GBGSV,2,2,07,26,41,300,42,29,65,121,44,30,29,048,40,1*4F
$GIGSV,1,1,02,02,17,106,35,06,23,135,33,1*7A
$GPGGA,082438.00,4825.1391592,N,00428.4608105,W,4,11,0.6,89.844,M,51.637,M,7.0,4095*69
$GPRMC,082438.00,A,4825.1391592,N,00428.4608105,W,0.0,0.0,020621,999.9,E,D*2F
$GNGSA,A,3,32,02,12,25,29,31,,,,,,,1.0,0.6,0.8,1*30
$GNGSA,A,3,69,78,77,79,88,,,,,,,,1.0,0.6,0.8,2*33
$GPGSV,3,1,09,02,24,050,43,06,05,023,,12,27,080,42,18,01,169,,1*65
$GPGSV,3,2,09,25,65,070,47,26,14,275,37,29,70,179,48,31,49,301,45,1*6A
$GPGSV,3,3,09,32,25,223,42,1*5E
$GSGSV,3,1,09,01,33,195,,04,25,136,41,05,29,147,,06,33,195,,1*65
$GSGSV,3,2,09,07,05,106,38,08,11,114,31,17,34,167,42,28,19,125,36,1*69
$GSGSV,3,3,09,29,33,197,37,1*5E
$GLGSV,3,1,10,68,09,249,40,69,21,297,42,70,07,354,,77,40,101,36,1*72
$GLGSV,3,2,10,78,71,349,47,79,23,304,41,81,11,185,41,86,03,021,,1*7F
$GLGSV,3,3,10,87,57,065,46,88,53,149,46,1*7D
$GQGSV,1,1,00,1*65
$GAGSV,3,1,09,02,18,095,38,07,15,222,40,15,23,162,,18,,,40,7*4C
$GAGSV,3,2,09,19,15,321,,20,,,38,21,01,281,,27,50,290,45,7*4D
$GAGSV,3,3,09,30,68,076,47,7*45
$GBGSV,2,1,07,05,09,110,,08,22,036,33,13,28,060,37,14,08,306,30,1*72
$GBGSV,2,2,07,26,41,300,43,29,65,121,45,30,29,048,40,1*4F
$GIGSV,1,1,02,02,17,106,35,06,23,135,33,1*7A
$GPGGA,082439.00,4825.1391592,N,00428.4608110,W,4,11,0.6,89.846,M,51.637,M,8.0,4095*61
$GPRMC,082439.00,A,4825.1391592,N,00428.4608110,W,0.0,0.0,020621,999.9,E,D*2A
$GNGSA,A,3,32,02,12,25,29,31,,,,,,,1.0,0.6,0.8,1*30
$GNGSA,A,3,69,78,77,79,88,,,,,,,,1.0,0.6,0.8,2*33
$GPGSV,3,1,09,02,24,050,43,06,05,023,,12,27,080,43,18,01,169,,1*64
$GPGSV,3,2,09,25,65,070,47,26,14,275,37,29,70,179,48,31,49,301,46,1*69
$GPGSV,3,3,09,32,25,223,42,1*5E
$GSGSV,3,1,09,01,33,195,,04,25,136,41,05,29,147,,06,33,195,,1*65
$GSGSV,3,2,09,07,05,106,38,08,11,114,30,17,34,167,42,28,19,125,36,1*68
$GSGSV,3,3,09,29,33,197,37,1*5E
$GLGSV,3,1,10,68,09,249,39,69,21,297,42,70,07,354,,77,40,101,36,1*7C
$GLGSV,3,2,10,78,71,349,47,79,23,304,41,81,11,185,41,86,03,021,,1*7F
$GLGSV,3,3,10,87,57,065,47,88,53,149,46,1*7C
$GQGSV,1,1,00,1*65
$GAGSV,3,1,09,02,18,095,39,07,15,222,39,15,23,162,,18,,,40,7*43
$GAGSV,3,2,09,19,15,321,,20,,,38,21,01,281,,27,50,290,45,7*4D
$GAGSV,3,3,09,30,68,076,46,7*44
$GBGSV,2,1,07,05,09,110,,08,22,036,32,13,28,060,37,14,08,306,29,1*7B
$GBGSV,2,2,07,26,41,300,42,29,65,121,44,30,29,048,40,1*4F
$GIGSV,1,1,02,02,17,106,34,06,23,135,33,1*7B
$GPGGA,082440.00,4825.1391597,N,00428.4608112,W,4,11,0.6,89.850,M,51.637,M,9.0,4095*6E
$GPRMC,082440.00,A,4825.1391597,N,00428.4608112,W,0.0,0.0,020621,999.9,E,D*23
$GNGSA,A,3,32,02,12,25,29,31,,,,,,,1.0,0.6,0.8,1*30
$GNGSA,A,3,69,78,77,79,88,,,,,,,,1.0,0.6,0.8,2*33
$GPGSV,3,1,09,02,24,050,43,06,05,023,,12,27,080,43,18,01,169,,1*64
$GPGSV,3,2,09,25,65,070,47,26,14,275,36,29,70,179,47,31,49,301,45,1*64
$GPGSV,3,3,09,32,25,223,42,1*5E
$GSGSV,3,1,09,01,33,195,,04,25,136,40,05,29,147,,06,33,195,,1*64
$GSGSV,3,2,09,07,05,106,38,08,11,114,31,17,34,167,42,28,19,125,36,1*69
$GSGSV,3,3,09,29,33,197,36,1*5F
$GLGSV,3,1,10,68,09,249,39,69,21,297,42,70,07,354,,77,40,101,37,1*7D
$GLGSV,3,2,10,78,71,349,47,79,23,304,40,81,11,185,40,86,03,021,,1*7F
$GLGSV,3,3,10,87,57,065,46,88,53,149,46,1*7D
$GQGSV,1,1,00,1*65
$GAGSV,3,1,09,02,18,095,38,07,15,222,39,15,23,162,,18,,,40,7*42
$GAGSV,3,2,09,19,15,321,,20,,,38,21,01,281,,27,50,290,44,7*4C
$GAGSV,3,3,09,30,68,076,47,7*45
$GBGSV,2,1,07,05,09,110,,08,22,036,32,13,28,060,37,14,08,306,29,1*7B
$GBGSV,2,2,07,26,41,300,42,29,65,121,44,30,29,048,40,1*4F
$GIGSV,1,1,02,02,17,106,35,06,23,135,34,1*7D
$GPGGA,082441.00,4825.1391600,N,00428.4608115,W,4,11,0.6,89.848,M,51.637,M,10.0,4095*54
$GPRMC,082441.00,A,4825.1391600,N,00428.4608115,W,0.0,0.0,020621,999.9,E,D*28
$GNGSA,A,3,32,02,12,25,29,31,,,,,,,1.0,0.6,0.8,1*30
$GNGSA,A,3,69,78,77,79,88,,,,,,,,1.0,0.6,0.8,2*33
$GPGSV,3,1,09,02,24,050,44,06,05,023,,12,27,080,43,18,01,169,,1*63
$GPGSV,3,2,09,25,65,070,47,26,14,275,37,29,70,179,47,31,49,301,46,1*66
$GPGSV,3,3,09,32,25,223,42,1*5E
$GSGSV,3,1,09,01,33,195,,04,25,136,40,05,29,147,,06,33,195,,1*64
$GSGSV,3,2,09,07,05,106,37,08,11,114,31,17,34,167,43,28,19,125,36,1*67
$GSGSV,3,3,09,29,33,197,37,1*5E
$GLGSV,3,1,10,68,09,249,39,69,21,297,42,70,07,354,,77,40,101,36,1*7C
$GLGSV,3,2,10,78,71,349,47,79,23,304,41,81,11,185,41,86,03,021,,1*7F
$GLGSV,3,3,10,87,57,065,47,88,53,149,46,1*7C
$GQGSV,1,1,00,1*65
$GAGSV,3,1,09,02,18,095,38,07,15,222,39,15,23,162,,18,,,40,7*42
$GAGSV,3,2,09,19,15,321,,20,,,38,21,01,281,,27,50,290,45,7*4D
$GAGSV,3,3,09,30,67,076,46,7*4B
$GBGSV,2,1,07,05,09,110,,08,22,036,33,13,28,060,37,14,08,306,29,1*7A
$GBGSV,2,2,07,26,41,300,43,29,65,121,45,30,29,048,40,1*4F
$GIGSV,1,1,02,02,17,106,35,06,23,135,34,1*7D
$GPGGA,082442.00,4825.1391603,N,00428.4608120,W,4,11,0.6,89.849,M,51.637,M,11.0,4095*52
$GPRMC,082442.00,A,4825.1391603,N,00428.4608120,W,0.0,0.0,020621,999.9,E,D*2E
$GNGSA,A,3,32,02,12,25,29,31,,,,,,,1.0,0.6,0.8,1*30
$GNGSA,A,3,69,78,77,79,88,,,,,,,,1.0,0.6,0.8,2*33
$GPGSV,3,1,09,02,24,050,44,06,05,023,,12,27,080,43,18,01,169,,1*63
$GPGSV,3,2,09,25,65,070,47,26,14,275,37,29,70,179,47,31,49,301,45,1*65
$GPGSV,3,3,09,32,25,223,42,1*5E
$GSGSV,3,1,09,01,33,195,,04,25,136,40,05,29,147,,06,33,195,,1*64
$GSGSV,3,2,09,07,05,106,37,08,11,114,31,17,34,167,43,28,19,125,36,1*67
$GSGSV,3,3,09,29,33,197,37,1*5E
$GLGSV,3,1,10,68,09,249,39,69,21,297,42,70,08,354,,77,39,101,37,1*7C
$GLGSV,3,2,10,78,71,349,47,79,23,304,41,81,11,185,41,86,03,021,,1*7F
$GLGSV,3,3,10,87,57,065,47,88,53,149,46,1*7C
$GQGSV,1,1,00,1*65
$GAGSV,3,1,09,02,18,095,38,07,15,222,39,15,23,162,,18,,,40,7*42
$GAGSV,3,2,09,19,15,321,,20,,,38,21,01,281,,27,50,290,45,7*4D
$GAGSV,3,3,09,30,67,076,47,7*4A
$GBGSV,2,1,07,05,09,110,,08,22,036,32,13,28,060,37,14,08,306,28,1*7A
$GBGSV,2,2,07,26,41,300,43,29,65,121,44,30,29,048,40,1*4E
$GIGSV,1,1,02,02,17,106,35,06,23,135,34,1*7D
$GPGGA,082443.00,4825.1391609,N,00428.4608124,W,4,11,0.6,89.851,M,51.637,M,12.0,4095*57
$GPRMC,082443.00,A,4825.1391609,N,00428.4608124,W,0.0,0.0,020621,999.9,E,D*21
$GNGSA,A,3,32,02,12,25,29,31,,,,,,,1.0,0.6,0.8,1*30
$GNGSA,A,3,69,78,77,79,88,,,,,,,,1.0,0.6,0.8,2*33
$GPGSV,3,1,09,02,24,050,43,06,05,023,,12,27,080,43,18,01,169,,1*64
$GPGSV,3,2,09,25,65,070,47,26,14,275,37,29,70,179,48,31,49,301,45,1*6A
$GPGSV,3,3,09,32,25,223,42,1*5E
$GSGSV,3,1,09,01,33,195,,04,25,136,40,05,29,147,,06,33,195,,1*64
$GSGSV,3,2,09,07,05,106,37,08,11,114,31,17,34,167,42,28,19,125,36,1*66
$GSGSV,3,3,09,29,33,197,36,1*5F
$GLGSV,3,1,10,68,09,249,39,69,21,297,42,70,08,354,,77,39,101,36,1*7D
$GLGSV,3,2,10,78,71,349,47,79,23,304,41,81,11,185,41,86,03,021,,1*7F
$GLGSV,3,3,10,87,57,065,47,88,53,149,46,1*7C
$GQGSV,1,1,00,1*65
$GAGSV,3,1,09,02,18,095,38,07,15,222,39,15,23,162,,18,,,40,7*42
$GAGSV,3,2,09,19,15,321,,20,,,38,21,01,281,,27,50,290,44,7*4C
$GAGSV,3,3,09,30,67,076,47,7*4A
$GBGSV,2,1,07,05,09,110,,08,22,036,32,13,28,060,37,14,08,305,29,1*78
$GBGSV,2,2,07,26,41,300,43,29,65,121,45,30,29,048,40,1*4F
$GIGSV,1,1,02,02,17,106,35,06,23,135,33,1*7A
$GPGGA,082444.00,4825.1391607,N,00428.4608120,W,4,11,0.6,89.850,M,51.637,M,13.0,4095*5A
$GPRMC,082444.00,A,4825.1391607,N,00428.4608120,W,0.0,0.0,020621,999.9,E,D*2C
$GNGSA,A,3,32,02,12,25,29,31,,,,,,,1.0,0.6,0.8,1*30
$GNGSA,A,3,69,78,77,79,88,,,,,,,,1.0,0.6,0.8,2*33
$GPGSV,3,1,09,02,24,050,43,06,05,023,,12,27,080,42,18,01,169,,1*65
$GPGSV,3,2,09,25,65,070,47,26,14,275,37,29,70,179,47,31,49,301,45,1*65
$GPGSV,3,3,09,32,25,223,42,1*5E
$GSGSV,3,1,09,01,33,195,,04,25,136,40,05,29,147,,06,33,195,,1*64
$GSGSV,3,2,09,07,05,106,37,08,11,114,31,17,34,167,42,28,19,125,36,1*66
$GSGSV,3,3,09,29,33,197,37,1*5E
$GLGSV,3,1,10,68,09,249,39,69,21,297,42,70,08,354,,77,39,101,36,1*7D
$GLGSV,3,2,10,78,71,349,47,79,23,304,40,81,11,185,41,86,03,021,,1*7E
$GLGSV,3,3,10,87,57,065,46,88,53,149,46,1*7D
$GQGSV,1,1,00,1*65
$GAGSV,3,1,09,02,18,095,38,07,15,222,40,15,23,162,,18,,,40,7*4C
$GAGSV,3,2,09,19,15,321,,20,,,38,21,01,281,,27,50,290,44,7*4C
$GAGSV,3,3,09,30,67,076,47,7*4A
$GBGSV,2,1,07,05,09,110,,08,22,036,32,13,28,060,37,14,08,305,30,1*70
$GBGSV,2,2,07,26,41,300,42,29,65,121,45,30,29,048,39,1*40
$GIGSV,1,1,02,02,17,106,34,06,23,135,33,1*7B
$GPGGA,082445.00,4825.1391601,N,00428.4608116,W,4,11,0.6,89.852,M,51.637,M,14.0,4095*5D
$GPRMC,082445.00,A,4825.1391601,N,00428.4608116,W,0.0,0.0,020621,999.9,E,D*2E
$GNGSA,A,3,32,02,12,25,29,31,,,,,,,1.0,0.6,0.8,1*30
$GNGSA,A,3,69,78,77,79,88,,,,,,,,1.0,0.6,0.8,2*33
$GPGSV,3,1,09,02,24,050,43,06,05,023,,12,27,080,43,18,01,169,,1*64
$GPGSV,3,2,09,25,65,070,47,26,14,275,38,29,70,179,47,31,49,301,45,1*6A
$GPGSV,3,3,09,32,25,223,42,1*5E
$GSGSV,3,1,09,01,33,195,,04,25,136,39,05,29,147,,06,33,195,,1*6A
$GSGSV,3,2,09,07,05,106,37,08,11,114,31,17,34,167,42,28,19,125,36,1*66
$GSGSV,3,3,09,29,33,197,37,1*5E
$GLGSV,3,1,10,68,09,249,40,69,21,297,42,70,08,354,,77,39,101,36,1*73
