$GPGGA,125028.820,4825.0888,N,00428.3663,W,1,03,2.9,-52.0,M,52.0,M,,0000*50
$GPGSA,A,2,26,31,29,,,,,,,,,,4.3,2.9,3.2*33
$GPRMC,125028.820,A,4825.0888,N,00428.3663,W,1.70,56.84,030521,,,A*4B
$GPGGA,125029.820,4825.0898,N,00428.3668,W,1,03,2.9,-52.0,M,52.0,M,,0000*5B
$GPGSA,A,2,26,31,29,,,,,,,,,,4.3,2.9,3.2*33
$GPRMC,125029.820,A,4825.0898,N,00428.3668,W,1.31,117.43,030521,,,A*7A
$GPGGA,125030.815,4825.0895,N,00428.3883,W,1,03,2.9,-52.0,M,52.0,M,,0000*53
$GPGSA,A,2,26,31,29,,,,,,,,,,4.3,2.9,3.2*33
$GPGSV,3,1,11,26,72,295,30,31,40,199,38,29,37,061,24,23,02,137,29*78
$GPGSV,3,2,11,14,52,284,,28,41,083,,15,39,276,,09,32,087,*7A
$GPGSV,3,3,11,11,16,227,,05,13,314,,27,00,354,*4F
$GPRMC,125030.815,A,4825.0895,N,00428.3883,W,0.70,206.05,030521,,,A*77
$GPGGA,125031.815,4825.0892,N,00428.3986,W,1,03,2.9,-52.0,M,52.0,M,,0000*51
$GPGSA,A,2,26,31,29,,,,,,,,,,4.3,2.9,3.2*33
$GPRMC,125031.815,A,4825.0892,N,00428.3986,W,0.60,42.64,030521,,,A*41
$GPGGA,125032.820,4825.0889,N,00428.3955,W,1,03,2.9,-52.0,M,52.0,M,,0000*50
$GPGSA,A,2,26,31,29,,,,,,,,,,4.3,2.9,3.2*33
$GPRMC,125032.820,A,4825.0889,N,00428.3955,W,1.73,269.59,030521,,,A*76
$GPGGA,125033.815,4825.0886,N,00428.4060,W,1,03,2.9,-52.0,M,52.0,M,,0000*50
$GPGSA,A,2,26,31,29,,,,,,,,,,4.3,2.9,3.2*33
$GPRMC,125033.815,A,4825.0886,N,00428.4060,W,1.82,110.09,030521,,,A*70
$GPGGA,125034.815,4825.0887,N,00428.3895,W,1,03,2.9,-52.0,M,52.0,M,,0000*53
$GPGSA,A,2,26,31,29,,,,,,,,,,4.3,2.9,3.2*33
$GPRMC,125034.815,A,4825.0887,N,00428.3895,W,0.28,116.47,030521,,,A*7E
$GPGGA,125035.815,4825.0885,N,00428.3885,W,1,03,2.9,-52.0,M,52.0,M,,0000*51
$GPGSA,A,2,26,31,29,,,,,,,,,,4.3,2.9,3.2*33
$GPGSV,3,1,11,26,72,295,29,31,40,199,37,29,37,061,24,23,02,137,28*7E
$GPGSV,3,2,11,14,52,284,,28,41,083,,15,39,276,,09,32,087,*7A
$GPGSV,3,3,11,11,16,227,,05,13,314,,27,00,354,*4F
$GPRMC,125035.815,A,4825.0885,N,00428.3885,W,0.96,273.95,030521,,,A*76
$GPGGA,125036.820,4825.0898,N,00428.3863,W,1,03,2.9,-52.0,M,52.0,M,,0000*50
$GPGSA,A,2,26,31,29,,,,,,,,,,4.3,2.9,3.2*33
$GPRMC,125036.820,A,4825.0898,N,00428.3863,W,0.33,87.95,030521,,,A*41
$GPGGA,125037.815,4825.0907,N,00428.3849,W,1,03,2.9,-52.0,M,52.0,M,,0000*58
$GPGSA,A,2,26,31,29,,,,,,,,,,4.3,2.9,3.2*33
$GPRMC,125037.815,A,4825.0907,N,00428.3849,W,1.10,292.85,030521,,,A*7E
$GPGGA,125038.815,4825.0875,N,00428.3901,W,1,03,2.9,-52.0,M,52.0,M,,0000*5E
$GPGSA,A,2,26,31,29,,,,,,,,,,4.3,2.9,3.2*33
$GPRMC,125038.815,A,4825.0875,N,00428.3901,W,0.76,304.62,030521,,,A*7E
$GPGGA,125039.815,4825.0870,N,00428.3983,W,1,03,2.9,-52.0,M,52.0,M,,0000*50
$GPGSA,A,2,26,31,29,,,,,,,,,,4.3,2.9,3.2*33
$GPRMC,125039.815,A,4825.0870,N,00428.3983,W,0.20,326.20,030521,,,A*75
$GPGGA,125040.815,4825.0860,N,00428.3922,W,1,03,2.9,-52.0,M,52.0,M,,0000*54
$GPGSA,A,2,26,31,29,,,,,,,,,,4.3,2.9,3.2*33
$GPGSV,3,1,11,26,72,295,28,31,40,199,38,29,37,061,25,23,02,137,19*73
$GPGSV,3,2,11,14,52,284,,28,41,083,,15,39,276,,09,32,087,*7A
$GPGSV,3,3,11,11,16,227,,05,13,314,,27,00,354,*4F
$GPRMC,125040.815,A,4825.0860,N,00428.3922,W,0.33,222.83,030521,,,A*7F
$GPGGA,125041.819,4825.0862,N,00428.3861,W,1,03,2.9,-52.0,M,52.0,M,,0000*5D
$GPGSA,A,2,26,31,29,,,,,,,,,,4.3,2.9,3.2*33
$GPRMC,125041.819,A,4825.0862,N,00428.3861,W,0.58,82.92,030521,,,A*43
$GPGGA,125042.819,4825.0863,N,00428.3844,W,1,03,2.9,-52.0,M,52.0,M,,0000*58
$GPGSA,A,2,26,31,29,,,,,,,,,,4.3,2.9,3.2*33
$GPRMC,125042.819,A,4825.0863,N,00428.3844,W,1.13,96.77,030521,,,A*46
$GPGGA,125043.819,4825.0867,N,00428.3845,W,1,03,2.9,-52.0,M,52.0,M,,0000*5C
$GPGSA,A,2,26,31,29,,,,,,,,,,4.3,2.9,3.2*33
$GPRMC,125043.819,A,4825.0867,N,00428.3845,W,1.51,116.63,030521,,,A*78
$GPGGA,125044.819,4825.0902,N,00428.3844,W,1,03,2.9,-52.0,M,52.0,M,,0000*58
$GPGSA,A,2,26,31,29,,,,,,,,,,4.3,2.9,3.2*33
$GPRMC,125044.819,A,4825.0902,N,00428.3844,W,0.69,139.97,030521,,,A*70
$GPGGA,125045.819,4825.0927,N,00428.3968,W,1,03,2.9,-52.0,M,52.0,M,,0000*51
$GPGSA,A,2,26,31,29,,,,,,,,,,4.3,2.9,3.2*33
$GPGSV,3,1,11,26,72,295,22,31,40,199,38,29,37,061,20,23,02,137,30*77
$GPGSV,3,2,11,14,52,284,,28,41,083,,15,39,276,,09,32,087,*7A
$GPGSV,3,3,11,11,16,227,,05,13,314,,27,00,354,*4F
$GPRMC,125045.819,A,4825.0927,N,00428.3968,W,3.14,126.16,030521,,,A*77
$GPGGA,125046.819,4825.0868,N,00428.4001,W,1,03,2.9,-52.0,M,52.0,M,,0000*59
