$GPGGA,085524.000,4825.1415,N,00428.4548,W,1,08,1.0,92.4,M,52.0,M,,0000*78
$GPGSA,A,3,29,31,25,26,02,12,18,32,,,,,1.6,1.0,1.3*35
$GPRMC,085524.000,A,4825.1415,N,00428.4548,W,0.00,0.00,020621,,,A*7C
$GPGGA,085525.000,4825.1415,N,00428.4548,W,1,07,1.0,92.4,M,52.0,M,,0000*76
$GPGSA,A,3,29,31,25,26,02,18,32,,,,,,1.7,1.0,1.3*37
$GPGSV,3,1,12,29,81,128,41,31,60,288,45,25,52,084,21,26,25,282,38*7C
$GPGSV,3,1,12,29,81,128,41,31,60,288,45,25,52,084,21,26,25,282,38*7C
$GPGSV,3,2,12,02,17,039,33,18,13,164,34,32,12,215,38,12,16,088,26*75
$GPGSV,3,2,12,02,17,039,33,18,13,164,34,32,12,215,38,12,16,088,26*75
$GPGSV,3,3,12,57,68,131,,58,68,131,,59,68,131,,07,37,054,*76
$GPGSV,3,3,12,57,68,131,,58,68,131,,59,68,131,,07,37,054,*76
$GPRMC,085525.000,A,4825.1415,N,00428.4548,W,0.00,0.00,020621,,,A*7D
$GPGGA,085526.000,4825.1415,N,00428.4548,W,1,08,1.0,92.4,M,52.0,M,,0000*7A
$GPGSA,A,3,29,31,25,26,02,12,18,32,,,,,1.6,1.0,1.3*35
$GPRMC,085526.000,A,4825.1415,N,00428.4548,W,0.00,0.00,020621,,,A*7E
$GPGGA,085527.000,4825.1415,N,00428.4548,W,1,08,1.0,92.4,M,52.0,M,,0000*7B
$GPGSA,A,3,29,31,25,26,02,12,18,32,,,,,1.6,1.0,1.3*35
$GPRMC,085527.000,A,4825.1415,N,00428.4548,W,0.00,0.00,020621,,,A*7F
$GPGGA,085528.000,4825.1415,N,00428.4548,W,1,08,1.0,92.4,M,52.0,M,,0000*74
$GPGSA,A,3,29,31,25,26,02,12,18,32,,,,,1.6,1.0,1.3*35
$GPRMC,085528.000,A,4825.1415,N,00428.4548,W,0.00,0.00,020621,,,A*70
$GPGGA,085529.000,4825.1415,N,00428.4548,W,1,08,1.0,92.4,M,52.0,M,,0000*75
$GPGSA,A,3,29,31,25,26,02,12,18,32,,,,,1.6,1.0,1.3*35
$GPRMC,085529.000,A,4825.1415,N,00428.4548,W,0.00,0.00,020621,,,A*71
$GPGGA,085530.000,4825.1415,N,00428.4548,W,1,08,1.0,92.4,M,52.0,M,,0000*7D
$GPGSA,A,3,29,31,25,26,02,12,18,32,,,,,1.6,1.0,1.3*35
$GPGSV,3,1,12,29,81,128,41,31,60,288,45,25,52,084,27,26,25,282,38*7A
$GPGSV,3,1,12,29,81,128,41,31,60,288,45,25,52,084,27,26,25,282,38*7A
$GPGSV,3,2,12,02,17,039,34,12,16,088,26,18,13,164,34,32,12,215,39*73
$GPGSV,3,2,12,02,17,039,34,12,16,088,26,18,13,164,34,32,12,215,39*73
$GPGSV,3,3,12,57,68,131,,58,68,131,,59,68,131,,07,37,054,*76
$GPGSV,3,3,12,57,68,131,,58,68,131,,59,68,131,,07,37,054,*76
$GPRMC,085530.000,A,4825.1415,N,00428.4548,W,0.00,0.00,020621,,,A*79
$GPGGA,085531.000,4825.1415,N,00428.4548,W,1,08,1.0,92.4,M,52.0,M,,0000*7C
$GPGSA,A,3,29,31,25,26,02,12,18,32,,,,,1.6,1.0,1.3*35
$GPRMC,085531.000,A,4825.1415,N,00428.4548,W,0.00,0.00,020621,,,A*78
$GPGGA,085532.000,4825.1415,N,00428.4548,W,1,08,1.0,92.4,M,52.0,M,,0000*7F
$GPGSA,A,3,29,31,25,26,02,12,18,32,,,,,1.6,1.0,1.3*35
$GPRMC,085532.000,A,4825.1415,N,00428.4548,W,0.00,0.00,020621,,,A*7B
$GPGGA,085533.000,4825.1415,N,00428.4549,W,1,08,1.0,92.1,M,52.0,M,,0000*7A
$GPGSA,A,3,29,31,25,26,02,12,18,32,,,,,1.6,1.0,1.3*35
$GPRMC,085533.000,A,4825.1415,N,00428.4549,W,0.05,0.00,020621,,,A*7E
$GPGGA,085534.000,4825.1415,N,00428.4549,W,1,08,1.0,92.1,M,52.0,M,,0000*7D
$GPGSA,A,3,29,31,25,26,02,12,18,32,,,,,1.6,1.0,1.3*35
$GPRMC,085534.000,A,4825.1415,N,00428.4549,W,0.00,0.00,020621,,,A*7C
$GPGGA,085535.000,4825.1415,N,00428.4549,W,1,08,1.0,92.1,M,52.0,M,,0000*7C
$GPGSA,A,3,29,31,25,26,02,12,18,32,,,,,1.6,1.0,1.3*35
$GPGSV,3,1,12,29,81,126,41,31,60,288,46,25,52,084,23,26,25,282,38*73
$GPGSV,3,1,12,29,81,126,41,31,60,288,46,25,52,084,23,26,25,282,38*73
$GPGSV,3,2,12,02,17,039,34,12,15,088,16,18,13,164,34,32,12,215,40*7D
$GPGSV,3,2,12,02,17,039,34,12,15,088,16,18,13,164,34,32,12,215,40*7D
$GPGSV,3,3,12,57,68,131,,58,68,131,,59,68,131,,07,37,054,*76
$GPGSV,3,3,12,57,68,131,,58,68,131,,59,68,131,,07,37,054,*76
$GPRMC,085535.000,A,4825.1415,N,00428.4549,W,0.00,0.00,020621,,,A*7D
$GPGGA,085536.000,4825.1415,N,00428.4549,W,1,08,1.0,92.1,M,52.0,M,,0000*7F
$GPGSA,A,3,29,31,25,26,02,12,18,32,,,,,1.6,1.0,1.3*35
$GPRMC,085536.000,A,4825.1415,N,00428.4549,W,0.00,0.00,020621,,,A*7E
$GPGGA,085537.000,4825.1415,N,00428.4549,W,1,08,1.0,92.1,M,52.0,M,,0000*7E
$GPGSA,A,3,29,31,25,26,02,12,18,32,,,,,1.6,1.0,1.3*35
$GPRMC,085537.000,A,4825.1415,N,00428.4549,W,0.00,0.00,020621,,,A*7F
$GPGGA,085538.000,4825.1416,N,00428.4549,W,1,08,1.0,92.1,M,52.0,M,,0000*72
$GPGSA,A,3,29,31,25,26,02,12,18,32,,,,,1.6,1.0,1.3*35
$GPRMC,085538.000,A,4825.1416,N,00428.4549,W,0.00,0.00,020621,,,A*73
$GPGGA,085539.000,4825.1416,N,00428.4549,W,1,08,1.0,92.1,M,52.0,M,,0000*73
$GPGSA,A,3,29,31,25,26,02,12,18,32,,,,,1.6,1.0,1.3*35
$GPRMC,085539.000,A,4825.1416,N,00428.4549,W,0.00,0.00,020621,,,A*72
$GPGGA,085540.000,4825.1416,N,00428.4549,W,1,08,1.0,92.1,M,52.0,M,,0000*7D
$GPGSA,A,3,29,31,25,26,02,12,18,32,,,,,1.6,1.0,1.3*35
$GPGSV,3,1,12,29,81,126,42,31,60,288,46,25,52,084,23,26,25,282,39*71
$GPGSV,3,1,12,29,81,126,42,31,60,288,46,25,52,084,23,26,25,282,39*71
$GPGSV,3,2,12,02,17,039,34,12,15,088,23,18,13,164,34,32,12,215,39*75
$GPGSV,3,2,12,02,17,039,34,12,15,088,23,18,13,164,34,32,12,215,39*75
$GPGSV,3,3,12,57,68,131,,58,68,131,,59,68,131,,07,37,054,*76
$GPGSV,3,3,12,57,68,131,,58,68,131,,59,68,131,,07,37,054,*76
$GPRMC,085540.000,A,4825.1416,N,00428.4549,W,0.00,0.00,020621,,,A*7C
$GPGGA,085541.000,4825.1416,N,00428.4549,W,1,08,1.0,92.1,M,52.0,M,,0000*7C
$GPGSA,A,3,29,31,25,26,02,12,18,32,,,,,1.6,1.0,1.3*35
$GPRMC,085541.000,A,4825.1416,N,00428.4549,W,0.00,0.00,020621,,,A*7D
$GPGGA,085542.000,4825.1416,N,00428.4549,W,1,08,1.0,92.1,M,52.0,M,,0000*7F
$GPGSA,A,3,29,31,25,26,02,12,18,32,,,,,1.6,1.0,1.3*35
$GPRMC,085542.000,A,4825.1416,N,00428.4549,W,0.00,0.00,020621,,,A*7E
$GPGGA,085543.000,4825.1416,N,00428.4549,W,1,08,1.0,92.1,M,52.0,M,,0000*7E
$GPGSA,A,3,29,31,25,26,02,12,18,32,,,,,1.6,1.0,1.3*35
$GPRMC,085543.000,A,4825.1416,N,00428.4549,W,0.00,0.00,020621,,,A*7F
$GPGGA,085544.000,4825.1416,N,00428.4549,W,1,08,1.0,92.1,M,52.0,M,,0000*79
$GPGSA,A,3,29,31,25,26,02,12,18,32,,,,,1.6,1.0,1.3*35
$GPRMC,085544.000,A,4825.1416,N,00428.4549,W,0.00,0.00,020621,,,A*78
$GPGGA,085545.000,4825.1416,N,00428.4549,W,1,08,1.0,92.1,M,52.0,M,,0000*78
$GPGSA,A,3,29,31,25,26,02,12,18,32,,,,,1.6,1.0,1.3*35
$GPGSV,3,1,12,29,81,126,42,31,60,288,45,25,52,084,25,26,25,282,38*75
$GPGSV,3,1,12,29,81,126,42,31,60,288,45,25,52,084,25,26,25,282,38*75
$GPGSV,3,2,12,02,17,039,34,12,15,088,22,18,13,164,34,32,12,215,40*7A
$GPGSV,3,2,12,02,17,039,34,12,15,088,22,18,13,164,34,32,12,215,40*7A
$GPGSV,3,3,12,57,68,131,,58,68,131,,59,68,131,,07,37,054,*76
$GPGSV,3,3,12,57,68,131,,58,68,131,,59,68,131,,07,37,054,*76
$GPRMC,085545.000,A,4825.1416,N,00428.4549,W,0.00,0.00,020621,,,A*79
$GPGGA,085546.000,4825.1416,N,00428.4549,W,1,08,1.0,92.1,M,52.0,M,,0000*7B
$GPGSA,A,3,29,31,25,26,02,12,18,32,,,,,1.6,1.0,1.3*35
$GPRMC,085546.000,A,4825.1416,N,00428.4549,W,0.00,0.00,020621,,,A*7A
$GPGGA,085547.000,4825.1416,N,00428.4549,W,1,08,1.0,92.1,M,52.0,M,,0000*7A
$GPGSA,A,3,29,31,25,26,02,12,18,32,,,,,1.6,1.0,1.3*35
$GPRMC,085547.000,A,4825.1416,N,00428.4549,W,0.00,0.00,020621,,,A*7B
$GPGGA,085548.000,4825.1416,N,00428.4549,W,1,08,1.0,92.1,M,52.0,M,,0000*75
$GPGSA,A,3,29,31,25,26,02,12,18,32,,,,,1.6,1.0,1.3*35
$GPRMC,085548.000,A,4825.1416,N,00428.4549,W,0.00,0.00,020621,,,A*74
$GPGGA,085549.000,4825.1416,N,00428.4549,W,1,08,1.0,91.8,M,52.0,M,,0000*7E
$GPGSA,A,3,29,31,25,26,02,12,18,32,,,,,1.6,1.0,1.3*35
$GPRMC,085549.000,A,4825.1416,N,00428.4549,W,0.20,0.00,020621,,,A*77
$GPGGA,085550.000,4825.1416,N,00428.4549,W,1,08,1.0,91.8,M,52.0,M,,0000*76
$GPGSA,A,3,29,31,25,26,02,12,18,32,,,,,1.6,1.0,1.3*35
$GPGSV,3,1,12,29,81,126,42,31,60,288,45,25,52,084,35,26,25,282,38*74
$GPGSV,3,1,12,29,81,126,42,31,60,288,45,25,52,084,35,26,25,282,38*74
$GPGSV,3,2,12,02,17,039,34,12,15,088,27,18,13,164,36,32,12,215,39*73
$GPGSV,3,2,12,02,17,039,34,12,15,088,27,18,13,164,36,32,12,215,39*73
$GPGSV,3,3,12,57,68,131,,58,68,131,,59,68,131,,07,37,054,*76
$GPGSV,3,3,12,57,68,131,,58,68,131,,59,68,131,,07,37,054,*76
$GPRMC,085550.000,A,4825.1416,N,00428.4549,W,0.01,0.00,020621,,,A*7C
$GPGGA,085551.000,4825.1416,N,00428.4549,W,1,08,1.0,91.8,M,52.0,M,,0000*77
$GPGSA,A,3,29,31,25,26,02,12,18,32,,,,,1.6,1.0,1.3*35
$GPRMC,085551.000,A,4825.1416,N,00428.4549,W,0.00,0.00,020621,,,A*7C
$GPGGA,085552.000,4825.1416,N,00428.4549,W,1,08,1.0,91.8,M,52.0,M,,0000*74
$GPGSA,A,3,29,31,25,26,02,12,18,32,,,,,1.6,1.0,1.3*35
$GPRMC,085552.000,A,4825.1416,N,00428.4549,W,0.00,0.00,020621,,,A*7F
$GPGGA,085553.000,4825.1416,N,00428.4549,W,1,08,1.0,91.8,M,52.0,M,,0000*75
$GPGSA,A,3,29,31,25,26,02,12,18,32,,,,,1.6,1.0,1.3*35
$GPRMC,085553.000,A,4825.1416,N,00428.4549,W,0.00,0.00,020621,,,A*7E
$GPGGA,085554.000,4825.1416,N,00428.4549,W,1,08,1.0,91.8,M,52.0,M,,0000*72
$GPGSA,A,3,29,31,25,26,02,12,18,32,,,,,1.6,1.0,1.3*35
$GPRMC,085554.000,A,4825.1416,N,00428.4549,W,0.00,0.00,020621,,,A*79
$GPGGA,085555.000,4825.1416,N,00428.4549,W,1,08,1.0,91.8,M,52.0,M,,0000*73
$GPGSA,A,3,29,31,25,26,02,12,18,32,,,,,1.6,1.0,1.3*35
$GPGSV,3,1,12,29,81,126,43,31,60,288,45,25,52,084,32,26,25,282,39*73
$GPGSV,3,1,12,29,81,126,43,31,60,288,45,25,52,084,32,26,25,282,39*73
$GPGSV,3,2,12,02,17,039,40,12,15,088,29,18,13,164,36,32,12,215,39*7E
$GPGSV,3,2,12,02,17,039,40,12,15,088,29,18,13,164,36,32,12,215,39*7E
$GPGSV,3,3,12,57,68,131,,58,68,131,,59,68,131,,07,37,054,*76
$GPGSV,3,3,12,57,68,131,,58,68,131,,59,68,131,,07,37,054,*76
$GPRMC,085555.000,A,4825.1416,N,00428.4549,W,0.00,0.00,020621,,,A*78
$GPGGA,085556.000,4825.1416,N,00428.4549,W,1,08,1.0,91.8,M,52.0,M,,0000*70
$GPGSA,A,3,29,31,25,26,02,12,18,32,,,,,1.6,1.0,1.3*35
$GPRMC,085556.000,A,4825.1416,N,00428.4549,W,0.00,0.00,020621,,,A*7B
$GPGGA,085557.000,4825.1416,N,00428.4549,W,1,08,1.0,91.8,M,52.0,M,,0000*71
$GPGSA,A,3,29,31,25,26,02,12,18,32,,,,,1.6,1.0,1.3*35
$GPRMC,085557.000,A,4825.1416,N,00428.4549,W,0.00,0.00,020621,,,A*7A
$GPGGA,085558.000,4825.1416,N,00428.4549,W,1,08,1.0,91.8,M,52.0,M,,0000*7E
$GPGSA,A,3,29,31,25,26,02,12,18,32,,,,,1.6,1.0,1.3*35
$GPRMC,085558.000,A,4825.1416,N,00428.4549,W,0.00,0.00,020621,,,A*75
$GPGGA,085559.000,4825.1416,N,00428.4549,W,1,08,1.0,91.7,M,52.0,M,,0000*70
$GPGSA,A,3,29,31,25,26,02,12,18,32,,,,,1.6,1.0,1.3*35
$GPRMC,085559.000,A,4825.1416,N,00428.4549,W,0.00,0.00,020621,,,A*74
$GPGGA,085600.000,4825.1416,N,00428.4549,W,1,08,1.0,91.7,M,52.0,M,,0000*7F
$GPGSA,A,3,29,31,25,26,02,12,18,32,,,,,1.6,1.0,1.3*35
$GPGSV,3,1,12,29,81,126,43,31,60,288,45,25,52,084,29,26,25,282,39*79
$GPGSV,3,1,12,29,81,126,43,31,60,288,45,25,52,084,29,26,25,282,39*79
$GPGSV,3,2,12,02,17,039,41,12,15,088,32,18,13,164,35,32,12,215,39*76
$GPGSV,3,2,12,02,17,039,41,12,15,088,32,18,13,164,35,32,12,215,39*76
$GPGSV,3,3,12,57,68,131,,58,68,131,,59,68,131,,07,37,054,*76
$GPGSV,3,3,12,57,68,131,,58,68,131,,59,68,131,,07,37,054,*76
$GPRMC,085600.000,A,4825.1416,N,00428.4549,W,0.00,0.00,020621,,,A*7B
$GPGGA,085601.000,4825.1416,N,00428.4549,W,1,08,1.0,91.7,M,52.0,M,,0000*7E
$GPGSA,A,3,29,31,25,26,02,12,18,32,,,,,1.6,1.0,1.3*35
$GPRMC,085601.000,A,4825.1416,N,00428.4549,W,0.00,0.00,020621,,,A*7A
$GPGGA,085602.000,4825.1416,N,00428.4549,W,1,08,1.0,91.7,M,52.0,M,,0000*7D
$GPGSA,A,3,29,31,25,26,02,12,18,32,,,,,1.6,1.0,1.3*35
$GPRMC,085602.000,A,4825.1416,N,00428.4549,W,0.00,0.00,020621,,,A*79
$GPGGA,085603.000,4825.1416,N,00428.4549,W,1,08,1.0,91.7,M,52.0,M,,0000*7C
$GPGSA,A,3,29,31,25,26,02,12,18,32,,,,,1.6,1.0,1.3*35
$GPRMC,085603.000,A,4825.1416,N,00428.4549,W,0.00,0.00,020621,,,A*78
$GPGGA,085604.000,4825.1416,N,00428.4549,W,1,08,1.0,91.7,M,52.0,M,,0000*7B
$GPGSA,A,3,29,31,25,26,02,12,18,32,,,,,1.6,1.0,1.3*35
$GPRMC,085604.000,A,4825.1416,N,00428.4549,W,0.00,0.00,020621,,,A*7F
$GPGGA,085605.000,4825.1416,N,00428.4549,W,1,08,1.0,91.7,M,52.0,M,,0000*7A
$GPGSA,A,3,29,31,25,26,02,12,18,32,,,,,1.6,1.0,1.3*35
$GPGSV,3,1,12,29,81,124,43,31,61,287,45,25,52,085,31,26,26,282,39*7E
$GPGSV,3,1,12,29,81,124,43,31,61,287,45,25,52,085,31,26,26,282,39*7E
$GPGSV,3,2,12,02,17,039,37,12,15,089,41,18,13,164,34,32,12,215,40*7D
$GPGSV,3,2,12,02,17,039,37,12,15,089,41,18,13,164,34,32,12,215,40*7D
$GPGSV,3,3,12,57,68,131,,58,68,131,,59,68,131,,07,36,053,*70
$GPGSV,3,3,12,57,68,131,,58,68,131,,59,68,131,,07,36,053,*70
$GPRMC,085605.000,A,4825.1416,N,00428.4549,W,0.00,0.00,020621,,,A*7E
$GPGGA,085606.000,4825.1416,N,00428.4549,W,1,08,1.0,91.7,M,52.0,M,,0000*79
$GPGSA,A,3,29,31,25,26,02,12,18,32,,,,,1.6,1.0,1.3*35
$GPRMC,085606.000,A,4825.1416,N,00428.4549,W,0.00,0.00,020621,,,A*7D
$GPGGA,085607.000,4825.1416,N,00428.4549,W,1,08,1.0,91.7,M,52.0,M,,0000*78
$GPGSA,A,3,29,31,25,26,02,12,18,32,,,,,1.6,1.0,1.3*35
$GPRMC,085607.000,A,4825.1416,N,00428.4549,W,0.00,0.00,020621,,,A*7C
$GPGGA,085608.000,4825.1416,N,00428.4549,W,1,08,1.0,91.7,M,52.0,M,,0000*77
$GPGSA,A,3,29,31,25,26,02,12,18,32,,,,,1.6,1.0,1.3*35
$GPRMC,085608.000,A,4825.1416,N,00428.4549,W,0.00,0.00,020621,,,A*73
$GPGGA,085609.000,4825.1416,N,00428.4549,W,1,08,1.0,91.7,M,52.0,M,,0000*76
$GPGSA,A,3,29,31,25,26,02,12,18,32,,,,,1.6,1.0,1.3*35
$GPRMC,085609.000,A,4825.1416,N,00428.4549,W,0.00,0.00,020621,,,A*72
$GPGGA,085610.000,4825.1416,N,00428.4549,W,1,08,1.0,91.7,M,52.0,M,,0000*7E
$GPGSA,A,3,29,31,25,26,02,12,18,32,,,,,1.6,1.0,1.3*35
$GPGSV,3,1,12,29,81,124,44,31,61,287,44,25,52,085,30,26,26,282,38*78
$GPGSV,3,1,12,29,81,124,44,31,61,287,44,25,52,085,30,26,26,282,38*78
$GPGSV,3,2,12,02,17,039,39,12,15,089,41,18,13,164,34,32,12,215,40*73
$GPGSV,3,2,12,02,17,039,39,12,15,089,41,18,13,164,34,32,12,215,40*73
$GPGSV,3,3,12,57,68,131,,58,68,131,,59,68,131,,07,36,053,*70
$GPGSV,3,3,12,57,68,131,,58,68,131,,59,68,131,,07,36,053,*70
$GPRMC,085610.000,A,4825.1416,N,00428.4549,W,0.00,0.00,020621,,,A*7A
$GPGGA,085611.000,4825.1416,N,00428.4549,W,1,08,1.0,91.7,M,52.0,M,,0000*7F
$GPGSA,A,3,29,31,25,26,02,12,18,32,,,,,1.6,1.0,1.3*35
$GPRMC,085611.000,A,4825.1416,N,00428.4549,W,0.00,0.00,020621,,,A*7B
$GPGGA,085612.000,4825.1416,N,00428.4549,W,1,08,1.0,91.7,M,52.0,M,,0000*7C
$GPGSA,A,3,29,31,25,26,02,12,18,32,,,,,1.6,1.0,1.3*35
$GPRMC,085612.000,A,4825.1416,N,00428.4549,W,0.00,0.00,020621,,,A*78
$GPGGA,085613.000,4825.1416,N,00428.4549,W,1,08,1.0,91.6,M,52.0,M,,0000*7C
$GPGSA,A,3,29,31,25,26,02,12,18,32,,,,,1.6,1.0,1.3*35
$GPRMC,085613.000,A,4825.1416,N,00428.4549,W,0.00,0.00,020621,,,A*79
$GPGGA,085614.000,4825.1416,N,00428.4549,W,1,08,1.0,91.6,M,52.0,M,,0000*7B
$GPGSA,A,3,29,31,25,26,02,12,18,32,,,,,1.6,1.0,1.3*35
$GPRMC,085614.000,A,4825.1416,N,00428.4549,W,0.00,0.00,020621,,,A*7E
$GPGGA,085615.000,4825.1416,N,00428.4549,W,1,08,1.0,91.6,M,52.0,M,,0000*7A
$GPGSA,A,3,29,31,25,26,02,12,18,32,,,,,1.6,1.0,1.3*35
$GPGSV,3,1,12,29,81,124,44,31,61,287,44,25,52,085,30,26,26,282,38*78
$GPGSV,3,1,12,29,81,124,44,31,61,287,44,25,52,085,30,26,26,282,38*78
$GPGSV,3,2,12,02,17,039,40,12,15,089,39,18,13,164,34,32,12,215,40*72
$GPGSV,3,2,12,02,17,039,40,12,15,089,39,18,13,164,34,32,12,215,40*72
$GPGSV,3,3,12,57,68,131,,58,68,131,,59,68,131,,07,36,053,*70
$GPGSV,3,3,12,57,68,131,,58,68,131,,59,68,131,,07,36,053,*70
$GPRMC,085615.000,A,4825.1416,N,00428.4549,W,0.00,0.00,020621,,,A*7F
$GPGGA,085616.000,4825.1416,N,00428.4549,W,1,08,1.0,91.6,M,52.0,M,,0000*79
$GPGSA,A,3,29,31,25,26,02,12,18,32,,,,,1.6,1.0,1.3*35
$GPRMC,085616.000,A,4825.1416,N,00428.4549,W,0.00,0.00,020621,,,A*7C
$GPGGA,085617.000,4825.1416,N,00428.4549,W,1,08,1.0,91.6,M,52.0,M,,0000*78
$GPGSA,A,3,29,31,25,26,02,12,18,32,,,,,1.6,1.0,1.3*35
$GPRMC,085617.000,A,4825.1416,N,00428.4549,W,0.00,0.00,020621,,,A*7D
$GPGGA,085618.000,4825.1416,N,00428.4549,W,1,08,1.0,91.6,M,52.0,M,,0000*77
$GPGSA,A,3,29,31,25,26,02,12,18,32,,,,,1.6,1.0,1.3*35
$GPRMC,085618.000,A,4825.1416,N,00428.4549,W,0.00,0.00,020621,,,A*72
$GPGGA,085619.000,4825.1416,N,00428.4549,W,1,08,1.0,91.6,M,52.0,M,,0000*76
$GPGSA,A,3,29,31,25,26,02,12,18,32,,,,,1.6,1.0,1.3*35
$GPRMC,085619.000,A,4825.1416,N,00428.4549,W,0.00,0.00,020621,,,A*73
$GPGGA,085620.000,4825.1416,N,00428.4549,W,1,08,1.0,91.6,M,52.0,M,,0000*7C
$GPGSA,A,3,29,31,25,26,02,12,18,32,,,,,1.6,1.0,1.3*35
$GPGSV,3,1,12,29,81,124,44,31,61,287,45,25,52,085,29,26,26,282,39*70
$GPGSV,3,1,12,29,81,124,44,31,61,287,45,25,52,085,29,26,26,282,39*70
$GPGSV,3,2,12,02,17,039,40,12,15,089,39,18,13,164,34,32,12,215,41*73
$GPGSV,3,2,12,02,17,039,40,12,15,089,39,18,13,164,34,32,12,215,41*73
$GPGSV,3,3,12,57,68,131,,58,68,131,,59,68,131,,07,36,053,*70
$GPGSV,3,3,12,57,68,131,,58,68,131,,59,68,131,,07,36,053,*70
$GPRMC,085620.000,A,4825.1416,N,00428.4549,W,0.00,0.00,020621,,,A*79
$GPGGA,085621.000,4825.1416,N,00428.4549,W,1,08,1.0,91.6,M,52.0,M,,0000*7D
$GPGSA,A,3,29,31,25,26,02,12,18,32,,,,,1.6,1.0,1.3*35
$GPRMC,085621.000,A,4825.1416,N,00428.4549,W,0.00,0.00,020621,,,A*78
