$GPGGA,141917.00,4825.087158,N,00428.397787,W,1,33,0.3,83.6,M,52.2,M,,*4D
$GPGSV,4,1,14,07,-1,258,,08,86,145,47,21,61,271,47,27,50,123,45*6A
$GPGSV,4,2,14,10,40,055,36,01,35,260,49,22,28,201,48,32,18,104,35*7A
$GPGSV,4,3,14,14,15,322,45,23,10,040,18,16,08,172,42,30,05,292,48*7B
$GPGSV,4,4,14,28,03,330,,03,03,205,*72
$GLGSV,2,1,08,87,67,009,47,72,45,114,47,88,42,299,48,71,35,046,40*67
$GLGSV,2,2,08,78,33,283,49,65,19,160,48,86,19,086,28,77,16,226,37*61
$BDGSV,3,1,11,228,76,075,42,227,44,292,45,214,43,072,34,206,12,049,*60
$BDGSV,3,2,11,209,11,074,,205,10,110,,237,10,229,41,236,09,329,43*6D
$BDGSV,3,3,11,211,00,103,,233,50,114,,216,14,053,*6D
$GAGSV,3,1,09,125,40,236,46,112,35,075,28,136,33,271,47,102,33,301,44*6A
$GAGSV,3,2,09,119,25,063,20,104,23,125,29,124,10,188,30,130,01,338,*6F
$GAGSV,3,3,09,111,67,057,*63
$GPGSA,A,3,01,08,10,14,16,21,22,23,27,30,32,,1.3,0.8,1.1*37
$GNGSA,A,3,01,08,10,14,16,21,22,23,27,30,32,,1.3,0.8,1.1*29
$GNGSA,A,3,65,71,72,77,78,86,87,88,,,,,1.3,0.8,1.1*28
$GNGSA,A,3,,,,,,,,,,,,,1.3,0.8,1.1*26
$QZGSA,A,3,,,,,,,,,,,,,1.3,0.8,1.1*24
$BDGSA,A,3,214,227,228,236,237,,,,,,,,1.3,0.8,1.1*10
$GAGSA,A,3,102,104,112,119,124,125,136,,,,,,1.3,0.8,1.1*11
$GIGSA,A,3,,,,,,,,,,,,,1.3,0.8,1.1*21
$GPRMC,141917.00,A,4825.087158,N,00428.397787,W,001.8,244.7,140621,,,A*48
$GPGGA,141918.00,4825.087064,N,00428.397648,W,1,31,0.3,83.9,M,52.2,M,,*43
$GPGSV,4,1,14,07,-1,258,,08,86,145,47,21,61,271,47,27,50,123,45*6A
$GPGSV,4,2,14,10,40,055,37,01,35,260,50,22,28,201,47,32,18,104,34*7D
$GPGSV,4,3,14,14,15,322,46,23,10,040,18,16,08,172,42,30,05,292,48*78
$GPGSV,4,4,14,28,03,330,,03,03,205,*72
$GLGSV,2,1,08,87,67,009,46,72,45,114,47,88,42,299,47,71,35,046,40*69
$GLGSV,2,2,08,78,33,283,50,65,19,160,48,86,19,086,27,77,16,226,37*66
$BDGSV,3,1,11,228,76,075,42,227,44,292,45,214,43,072,34,206,12,049,*60
$BDGSV,3,2,11,209,11,074,,205,10,110,,237,10,229,41,236,09,329,46*68
$BDGSV,3,3,11,211,00,103,,233,50,114,,216,14,053,*6D
$GAGSV,3,1,09,125,40,236,46,112,35,075,28,136,33,271,46,102,33,301,44*6B
$GAGSV,3,2,09,119,25,063,20,104,23,125,28,124,10,188,30,130,01,338,*6E
$GAGSV,3,3,09,111,67,057,*63
$GPGSA,A,3,01,08,10,14,16,21,22,23,27,30,32,,1.3,0.8,1.1*37
$GNGSA,A,3,01,08,10,14,16,21,22,23,27,30,32,,1.3,0.8,1.1*29
$GNGSA,A,3,65,71,72,77,78,87,88,,,,,,1.3,0.8,1.1*26
$GNGSA,A,3,,,,,,,,,,,,,1.3,0.8,1.1*26
$QZGSA,A,3,,,,,,,,,,,,,1.3,0.8,1.1*24
$BDGSA,A,3,214,227,228,236,237,,,,,,,,1.3,0.8,1.1*10
$GAGSA,A,3,102,104,112,119,124,125,136,,,,,,1.3,0.8,1.1*11
$GIGSA,A,3,,,,,,,,,,,,,1.3,0.8,1.1*21
$GPRMC,141918.00,A,4825.087064,N,00428.397648,W,000.0,244.7,140621,,,A*42
$GPGGA,141919.00,4825.086880,N,00428.397396,W,1,34,0.3,84.1,M,52.2,M,,*4D
$GPGSV,4,1,14,07,-1,258,,08,86,145,47,21,61,271,47,27,50,123,44*6B
$GPGSV,4,2,14,10,40,055,37,01,35,260,50,22,28,201,46,32,18,104,34*7C
$GPGSV,4,3,14,14,15,322,46,23,10,040,23,16,08,172,41,30,05,292,47*7C
$GPGSV,4,4,14,28,03,330,,03,03,205,*72
$GLGSV,2,1,08,87,67,009,46,72,45,114,47,88,42,299,47,71,35,046,40*69
$GLGSV,2,2,08,78,33,283,50,65,19,160,47,86,19,086,26,77,16,226,37*68
$BDGSV,3,1,11,228,76,075,42,227,44,292,45,214,43,072,35,206,12,049,*61
$BDGSV,3,2,11,209,11,074,,205,10,110,17,237,10,229,42,236,09,329,47*6C
$BDGSV,3,3,11,211,00,103,,233,50,114,,216,14,053,*6D
$GAGSV,3,1,09,125,40,236,46,112,35,075,28,136,33,271,46,102,33,301,44*6B
$GAGSV,3,2,09,119,25,063,19,104,23,125,27,124,10,188,29,130,01,338,*63
$GAGSV,3,3,09,111,67,057,*63
$GPGSA,A,3,01,08,10,14,16,21,22,23,27,30,32,,1.4,0.8,1.1*30
$GNGSA,A,3,01,08,10,14,16,21,22,23,27,30,32,,1.4,0.8,1.1*2E
$GNGSA,A,3,65,71,72,77,78,86,87,88,,,,,1.4,0.8,1.1*2F
$GNGSA,A,3,,,,,,,,,,,,,1.4,0.8,1.1*21
$QZGSA,A,3,,,,,,,,,,,,,1.4,0.8,1.1*23
$BDGSA,A,3,205,214,227,228,236,237,,,,,,,1.4,0.8,1.1*20
$GAGSA,A,3,102,104,112,119,124,125,136,,,,,,1.4,0.8,1.1*16
$GIGSA,A,3,,,,,,,,,,,,,1.4,0.8,1.1*26
$GPRMC,141919.00,A,4825.086880,N,00428.397396,W,000.0,244.7,140621,,,A*46
$GPGGA,141920.00,4825.086684,N,00428.397244,W,1,32,0.2,84.1,M,52.2,M,,*44
$GPGSV,4,1,14,07,-1,258,,08,86,145,47,21,61,271,46,27,50,123,44*6A
$GPGSV,4,2,14,10,40,055,37,01,36,260,50,22,28,201,45,32,18,104,33*7B
$GPGSV,4,3,14,14,15,322,46,23,10,040,23,16,08,172,40,30,05,292,47*7D
$GPGSV,4,4,14,28,03,330,,03,03,205,*72
$GLGSV,2,1,08,87,67,009,46,72,45,114,46,88,42,299,46,71,35,046,39*67
$GLGSV,2,2,08,78,33,283,50,65,19,160,47,86,19,086,26,77,16,226,37*68
$BDGSV,3,1,11,228,76,075,41,227,44,292,45,214,43,072,36,206,12,049,*61
$BDGSV,3,2,11,209,11,074,,205,10,110,17,237,10,229,42,236,09,329,47*6C
$BDGSV,3,3,11,211,00,103,,233,50,114,,216,14,053,*6D
$GAGSV,3,1,09,125,40,236,46,112,35,075,27,136,33,271,45,102,33,301,43*60
$GAGSV,3,2,09,119,25,063,19,104,23,125,26,124,10,188,29,130,01,338,*62
$GAGSV,3,3,09,111,67,057,*63
$GPGSA,A,3,01,08,10,14,16,21,22,23,27,30,32,,1.3,0.8,1.1*37
$GNGSA,A,3,01,08,10,14,16,21,22,23,27,30,32,,1.3,0.8,1.1*29
$GNGSA,A,3,65,71,72,77,78,86,87,88,,,,,1.3,0.8,1.1*28
$GNGSA,A,3,,,,,,,,,,,,,1.3,0.8,1.1*26
$QZGSA,A,3,,,,,,,,,,,,,1.3,0.8,1.1*24
$BDGSA,A,3,214,227,228,236,237,,,,,,,,1.3,0.8,1.1*10
$GAGSA,A,3,102,112,119,124,125,136,,,,,,,1.3,0.8,1.1*24
$GIGSA,A,3,,,,,,,,,,,,,1.3,0.8,1.1*21
$GPRMC,141920.00,A,4825.086684,N,00428.397244,W,000.0,244.7,140621,,,A*48
$GPGGA,141921.00,4825.086618,N,00428.397081,W,1,32,0.2,84.0,M,52.2,M,,*4A
$GPGSV,4,1,14,07,-1,258,,08,86,145,47,21,61,271,46,27,50,123,44*6A
$GPGSV,4,2,14,10,40,055,37,01,36,260,50,22,28,201,44,32,18,104,32*7B
$GPGSV,4,3,14,14,15,322,46,23,10,040,25,16,08,172,40,30,05,292,47*7B
$GPGSV,4,4,14,28,03,330,,03,03,205,*72
$GLGSV,2,1,08,87,67,009,46,72,45,114,46,88,42,299,46,71,35,046,39*67
$GLGSV,2,2,08,78,33,283,50,65,19,160,47,86,19,086,26,77,16,226,37*68
$BDGSV,3,1,11,228,76,075,41,227,44,292,45,214,43,072,36,206,13,049,*60
$BDGSV,3,2,11,209,11,074,,205,10,110,,237,10,229,42,236,09,329,46*6B
$BDGSV,3,3,11,211,00,103,,233,50,114,,216,14,053,*6D
$GAGSV,3,1,09,125,40,236,46,112,35,075,28,136,33,271,45,102,33,301,43*6F
$GAGSV,3,2,09,119,25,063,19,104,23,125,25,124,09,188,29,130,01,338,*69
$GAGSV,3,3,09,111,67,057,*63
$GPGSA,A,3,01,08,10,14,16,21,22,23,27,30,32,,1.3,0.8,1.1*37
$GNGSA,A,3,01,08,10,14,16,21,22,23,27,30,32,,1.3,0.8,1.1*29
$GNGSA,A,3,65,71,72,77,78,86,87,88,,,,,1.3,0.8,1.1*28
$GNGSA,A,3,,,,,,,,,,,,,1.3,0.8,1.1*26
$QZGSA,A,3,,,,,,,,,,,,,1.3,0.8,1.1*24
$BDGSA,A,3,214,227,228,236,237,,,,,,,,1.3,0.8,1.1*10
$GAGSA,A,3,102,112,119,124,125,136,,,,,,,1.3,0.8,1.1*24
$GIGSA,A,3,,,,,,,,,,,,,1.3,0.8,1.1*21
$GPRMC,141921.00,A,4825.086618,N,00428.397081,W,000.0,244.7,140621,,,A*47
$GPGGA,141922.00,4825.086595,N,00428.396970,W,1,32,0.2,83.8,M,52.2,M,,*46
$GPGSV,4,1,14,07,-1,258,,08,86,145,46,21,61,271,46,27,50,123,44*6B
$GPGSV,4,2,14,10,40,055,37,01,36,260,50,22,28,201,43,32,18,104,32*7C
$GPGSV,4,3,14,14,15,322,46,23,10,040,25,16,08,172,39,30,05,292,47*75
$GPGSV,4,4,14,28,03,330,,03,03,205,*72
$GLGSV,2,1,08,87,67,009,45,72,45,114,46,88,42,299,45,71,35,046,39*67
$GLGSV,2,2,08,78,33,283,49,65,19,160,47,86,19,086,25,77,16,226,37*63
$BDGSV,3,1,11,228,76,075,41,227,44,292,44,214,43,072,36,206,13,049,*61
$BDGSV,3,2,11,209,11,074,15,205,10,110,,237,10,229,42,236,09,329,46*6F
$BDGSV,3,3,11,211,00,103,,233,50,114,,216,14,053,*6D
$GAGSV,3,1,09,125,40,236,46,112,35,075,28,136,33,271,45,102,33,301,43*6F
$GAGSV,3,2,09,119,25,063,19,104,23,125,24,124,09,188,29,130,01,338,*68
$GAGSV,3,3,09,111,67,057,*63
$GPGSA,A,3,01,08,10,14,16,21,22,23,27,30,32,,1.3,0.8,1.1*37
$GNGSA,A,3,01,08,10,14,16,21,22,23,27,30,32,,1.3,0.8,1.1*29
$GNGSA,A,3,65,71,72,77,78,86,87,88,,,,,1.3,0.8,1.1*28
$GNGSA,A,3,,,,,,,,,,,,,1.3,0.8,1.1*26
$QZGSA,A,3,,,,,,,,,,,,,1.3,0.8,1.1*24
$BDGSA,A,3,214,227,228,236,237,,,,,,,,1.3,0.8,1.1*10
$GAGSA,A,3,102,112,119,124,125,136,,,,,,,1.3,0.8,1.1*24
$GIGSA,A,3,,,,,,,,,,,,,1.3,0.8,1.1*21
$GPRMC,141922.00,A,4825.086595,N,00428.396970,W,000.1,244.7,140621,,,A*45
$GPGGA,141923.00,4825.086484,N,00428.396903,W,1,33,0.2,84.0,M,52.2,M,,*4C
$GPGSV,4,1,14,07,-1,258,,08,86,145,46,21,61,271,47,27,50,123,44*6A
$GPGSV,4,2,14,10,40,055,36,01,36,260,50,22,28,201,42,32,18,104,31*7F
$GPGSV,4,3,14,14,15,322,46,23,10,040,25,16,08,172,39,30,05,292,47*75
$GPGSV,4,4,14,28,03,330,,03,03,205,*72
$GLGSV,2,1,08,87,67,009,45,72,45,114,46,88,42,299,44,71,35,046,38*67
$GLGSV,2,2,08,78,33,283,49,65,19,160,47,86,19,086,25,77,16,226,37*63
$BDGSV,3,1,11,228,76,075,41,227,44,292,44,214,43,072,35,206,13,049,19*6A
$BDGSV,3,2,11,209,11,074,16,205,10,110,,237,10,229,42,236,09,329,46*6C
$BDGSV,3,3,11,211,00,103,,233,50,114,,216,14,053,*6D
$GAGSV,3,1,09,125,40,236,46,112,35,075,28,136,33,271,44,102,33,301,42*6F
$GAGSV,3,2,09,119,25,063,19,104,23,125,23,124,09,188,29,130,01,338,*6F
$GAGSV,3,3,09,111,67,057,*63
$GPGSA,A,3,01,08,10,14,16,21,22,23,27,30,32,,1.3,0.8,1.1*37
$GNGSA,A,3,01,08,10,14,16,21,22,23,27,30,32,,1.3,0.8,1.1*29
$GNGSA,A,3,65,71,72,77,78,86,87,88,,,,,1.3,0.8,1.1*28
$GNGSA,A,3,,,,,,,,,,,,,1.3,0.8,1.1*26
$QZGSA,A,3,,,,,,,,,,,,,1.3,0.8,1.1*24
$BDGSA,A,3,206,214,227,228,236,237,,,,,,,1.3,0.8,1.1*24
$GAGSA,A,3,102,112,119,124,125,136,,,,,,,1.3,0.8,1.1*24
$GIGSA,A,3,,,,,,,,,,,,,1.3,0.8,1.1*21
$GPRMC,141923.00,A,4825.086484,N,00428.396903,W,000.1,244.7,140621,,,A*41
$GPGGA,141924.00,4825.086232,N,00428.396927,W,1,34,0.2,84.0,M,52.2,M,,*41
$GPGSV,4,1,14,07,-1,258,,08,86,145,46,21,61,271,47,27,50,123,44*6A
$GPGSV,4,2,14,10,40,055,36,01,36,260,50,22,28,201,42,32,18,104,31*7F
$GPGSV,4,3,14,14,15,322,45,23,10,040,24,16,08,172,38,30,05,292,46*77
$GPGSV,4,4,14,28,03,330,,03,03,205,*72
$GLGSV,2,1,08,87,67,009,45,72,45,114,46,88,42,299,44,71,35,046,38*67
$GLGSV,2,2,08,78,33,283,48,65,19,160,47,86,19,086,25,77,16,226,37*62
$BDGSV,3,1,11,228,76,075,41,227,44,292,44,214,43,072,35,206,13,049,*62
$BDGSV,3,2,11,209,11,074,18,205,10,110,,237,10,229,42,236,09,329,46*62
$BDGSV,3,3,11,211,00,103,,233,50,114,,216,14,053,*6D
$GAGSV,3,1,09,125,40,236,45,112,35,075,27,136,33,271,44,102,33,301,42*63
$GAGSV,3,2,09,119,25,063,19,104,23,125,22,124,09,188,29,130,01,338,*6E
$GAGSV,3,3,09,111,67,057,*63
$GPGSA,A,3,01,08,10,14,16,21,22,23,27,30,32,,1.3,0.8,1.1*37
$GNGSA,A,3,01,08,10,14,16,21,22,23,27,30,32,,1.3,0.8,1.1*29
$GNGSA,A,3,65,71,72,77,78,86,87,88,,,,,1.3,0.8,1.1*28
$GNGSA,A,3,,,,,,,,,,,,,1.3,0.8,1.1*26
$QZGSA,A,3,,,,,,,,,,,,,1.3,0.8,1.1*24
$BDGSA,A,3,209,214,227,228,236,237,,,,,,,1.3,0.8,1.1*2B
$GAGSA,A,3,102,112,119,124,125,136,,,,,,,1.3,0.8,1.1*24
$GIGSA,A,3,,,,,,,,,,,,,1.3,0.8,1.1*21
$GPRMC,141924.00,A,4825.086232,N,00428.396927,W,001.3,235.7,140621,,,A*4E
$GPGGA,141925.00,4825.085733,N,00428.397273,W,1,35,0.2,84.1,M,52.2,M,,*4C
$GPGSV,4,1,14,07,-1,258,,08,86,145,46,21,61,271,47,27,50,123,47*69
$GPGSV,4,2,14,10,40,055,36,01,36,260,49,22,29,201,46,32,18,104,30*73
$GPGSV,4,3,14,14,15,322,45,23,10,040,23,16,08,172,38,30,05,292,46*70
$GPGSV,4,4,14,28,03,330,,03,03,205,*72
$GLGSV,2,1,08,87,67,009,44,72,45,114,46,88,42,299,46,71,35,046,38*64
$GLGSV,2,2,08,78,33,283,48,65,19,160,47,86,19,086,31,77,16,226,37*67
$BDGSV,3,1,11,228,76,075,41,227,44,292,44,214,43,072,38,206,13,049,*6F
$BDGSV,3,2,11,209,11,074,25,205,10,110,,237,10,229,41,236,09,329,45*6C
$BDGSV,3,3,11,211,00,103,,233,50,114,,216,14,053,*6D
$GAGSV,3,1,09,125,40,236,45,112,35,075,28,136,33,271,44,102,33,301,42*6C
$GAGSV,3,2,09,119,25,063,28,104,23,125,22,124,09,188,29,130,01,338,*6C
$GAGSV,3,3,09,111,67,057,*63
$GPGSA,A,3,01,08,10,14,16,21,22,23,27,30,32,,1.3,0.8,1.1*37
$GNGSA,A,3,01,08,10,14,16,21,22,23,27,30,32,,1.3,0.8,1.1*29
$GNGSA,A,3,65,71,72,77,78,86,87,88,,,,,1.3,0.8,1.1*28
$GNGSA,A,3,,,,,,,,,,,,,1.3,0.8,1.1*26
$QZGSA,A,3,,,,,,,,,,,,,1.3,0.8,1.1*24
$BDGSA,A,3,209,214,227,228,236,237,,,,,,,1.3,0.8,1.1*2B
$GAGSA,A,3,102,104,112,119,124,125,136,,,,,,1.3,0.8,1.1*11
$GIGSA,A,3,,,,,,,,,,,,,1.3,0.8,1.1*21
$GPRMC,141925.00,A,4825.085733,N,00428.397273,W,001.5,204.8,140621,,,A*48
$GPGGA,141926.00,4825.084988,N,00428.397483,W,1,36,0.2,84.1,M,52.2,M,,*4A
$GPGSV,4,1,14,07,-1,258,,08,86,145,45,21,61,271,46,27,50,123,48*64
$GPGSV,4,2,14,10,40,055,37,01,36,260,49,22,29,201,47,32,18,104,30*73
$GPGSV,4,3,14,14,15,322,45,23,10,040,23,16,08,172,37,30,05,292,45*7C
$GPGSV,4,4,14,28,03,330,,03,03,205,*72
$GLGSV,2,1,08,87,67,009,44,72,45,114,48,88,42,299,45,71,35,046,38*69
$GLGSV,2,2,08,78,33,283,48,65,19,160,47,86,19,086,33,77,16,226,37*65
$BDGSV,3,1,11,228,76,075,41,227,44,292,43,214,43,072,40,206,13,049,*67
$BDGSV,3,2,11,209,11,074,29,205,10,110,,237,10,229,41,236,09,329,45*60
$BDGSV,3,3,11,211,00,103,,233,50,114,,216,14,053,*6D
$GAGSV,3,1,09,125,40,236,44,112,35,075,31,136,33,271,44,102,33,301,41*66
$GAGSV,3,2,09,119,25,063,28,104,23,125,25,124,09,188,32,130,01,338,*61
$GAGSV,3,3,09,111,67,057,*63
$GPGSA,A,3,01,08,10,14,16,21,22,23,27,30,32,,1.3,0.8,1.1*37
$GNGSA,A,3,01,08,10,14,16,21,22,23,27,30,32,,1.3,0.8,1.1*29
$GNGSA,A,3,65,71,72,77,78,86,87,88,,,,,1.3,0.8,1.1*28
$GNGSA,A,3,,,,,,,,,,,,,1.3,0.8,1.1*26
$QZGSA,A,3,,,,,,,,,,,,,1.3,0.8,1.1*24
$BDGSA,A,3,209,214,227,228,236,237,,,,,,,1.3,0.8,1.1*2B
$GAGSA,A,3,102,104,112,119,124,125,136,,,,,,1.3,0.8,1.1*11
$GIGSA,A,3,,,,,,,,,,,,,1.3,0.8,1.1*21
$GPRMC,141926.00,A,4825.084988,N,00428.397483,W,001.7,202.0,140621,,,A*41
$GPGGA,141927.00,4825.084110,N,00428.398140,W,1,35,0.2,84.4,M,52.2,M,,*41
$GPGSV,4,1,14,07,-1,258,,08,86,145,45,21,61,271,46,27,50,123,49*65
$GPGSV,4,2,14,10,40,055,39,01,36,260,48,22,29,201,50,32,18,104,30*7A
$GPGSV,4,3,14,14,15,322,45,23,10,040,22,16,08,172,37,30,05,292,45*7D
$GPGSV,4,4,14,28,03,330,,03,03,205,*72
$GLGSV,2,1,08,87,67,009,43,72,45,114,48,88,42,299,45,71,35,046,37*61
$GLGSV,2,2,08,78,33,283,47,65,19,160,47,86,19,086,33,77,16,226,37*6A
$BDGSV,3,1,11,228,76,075,41,227,44,292,43,214,43,072,40,206,13,049,*67
$BDGSV,3,2,11,209,11,074,32,205,10,110,,237,10,229,41,236,09,329,44*6B
$BDGSV,3,3,11,211,00,103,,233,50,114,,216,14,053,*6D
$GAGSV,3,1,09,125,40,236,44,112,35,075,34,136,33,271,43,102,33,301,41*64
$GAGSV,3,2,09,119,25,063,29,104,23,125,25,124,09,188,32,130,01,338,*60
$GAGSV,3,3,09,111,67,057,*63
$GPGSA,A,3,01,08,10,14,16,21,22,23,27,30,32,,1.3,0.8,1.1*37
$GNGSA,A,3,01,08,10,14,16,21,22,23,27,30,32,,1.3,0.8,1.1*29
$GNGSA,A,3,65,71,72,77,78,86,87,88,,,,,1.3,0.8,1.1*28
$GNGSA,A,3,,,,,,,,,,,,,1.3,0.8,1.1*26
$QZGSA,A,3,,,,,,,,,,,,,1.3,0.8,1.1*24
$BDGSA,A,3,209,214,227,228,236,237,,,,,,,1.3,0.8,1.1*2B
$GAGSA,A,3,102,104,112,119,124,125,136,,,,,,1.3,0.8,1.1*11
$GIGSA,A,3,,,,,,,,,,,,,1.3,0.8,1.1*21
$GPRMC,141927.00,A,4825.084110,N,00428.398140,W,002.0,206.1,140621,,,A*4D
$GPGGA,141928.00,4825.083285,N,00428.398504,W,1,36,0.2,84.6,M,52.2,M,,*43
$GPGSV,4,1,14,07,-1,258,,08,86,145,45,21,61,271,46,27,50,123,49*65
$GPGSV,4,2,14,10,40,055,39,01,36,260,48,22,29,201,50,32,18,104,30*7A
$GPGSV,4,3,14,14,15,322,44,23,10,040,22,16,08,172,37,30,05,292,44*7D
$GPGSV,4,4,14,28,03,330,,03,03,205,*72
$GLGSV,2,1,08,87,67,009,43,72,45,114,48,88,42,299,44,71,35,046,37*60
$GLGSV,2,2,08,78,33,283,47,65,19,160,47,86,19,086,33,77,16,226,37*6A
$BDGSV,3,1,11,228,76,075,41,227,44,292,43,214,43,072,40,206,13,049,*67
$BDGSV,3,2,11,209,11,074,33,205,10,110,,237,10,229,40,236,09,329,44*6B
$BDGSV,3,3,11,211,00,103,,233,50,114,,216,14,053,*6D
$GAGSV,3,1,09,125,40,236,44,112,35,075,33,136,33,271,43,102,33,301,41*63
$GAGSV,3,2,09,119,25,063,29,104,23,125,25,124,09,188,31,130,01,338,*63
$GAGSV,3,3,09,111,67,057,*63
$GPGSA,A,3,01,08,10,14,16,21,22,23,27,30,32,,1.3,0.8,1.0*36
$GNGSA,A,3,01,08,10,14,16,21,22,23,27,30,32,,1.3,0.8,1.0*28
$GNGSA,A,3,65,71,72,77,78,86,87,88,,,,,1.3,0.8,1.0*29
$GNGSA,A,3,,,,,,,,,,,,,1.3,0.8,1.0*27
$QZGSA,A,3,,,,,,,,,,,,,1.3,0.8,1.0*25
$BDGSA,A,3,209,214,227,228,236,237,,,,,,,1.3,0.8,1.0*2A
$GAGSA,A,3,102,104,112,119,124,125,136,,,,,,1.3,0.8,1.0*10
$GIGSA,A,3,,,,,,,,,,,,,1.3,0.8,1.0*20
$GPRMC,141928.00,A,4825.083285,N,00428.398504,W,002.2,206.0,140621,,,A*4D
$GPGGA,141929.00,4825.082514,N,00428.399036,W,1,36,0.2,84.7,M,52.2,M,,*48
$GPGSV,4,1,14,07,-1,258,,08,86,145,45,21,61,271,45,27,50,123,49*66
$GPGSV,4,2,14,10,40,055,38,01,36,260,47,22,29,201,50,32,18,104,29*7C
$GPGSV,4,3,14,14,15,322,44,23,10,040,21,16,08,172,36,30,05,292,44*7F
$GPGSV,4,4,14,28,03,330,,03,03,205,*72
$GLGSV,2,1,08,87,67,009,42,72,45,114,48,88,42,299,44,71,35,046,36*60
$GLGSV,2,2,08,78,33,283,47,65,19,160,47,86,19,086,33,77,16,226,37*6A
$BDGSV,3,1,11,228,76,075,41,227,44,292,43,214,43,072,39,206,13,049,*69
$BDGSV,3,2,11,209,11,074,33,205,10,110,14,237,10,229,40,236,09,329,43*69
$BDGSV,3,3,11,211,00,103,,233,50,114,,216,14,053,*6D
$GAGSV,3,1,09,125,40,236,44,112,35,075,33,136,33,271,43,102,33,301,41*63
$GAGSV,3,2,09,119,25,063,28,104,23,125,25,124,09,188,34,130,01,338,*67
$GAGSV,3,3,09,111,67,057,*63
$GPGSA,A,3,01,08,10,14,16,21,22,23,27,30,32,,1.4,0.8,1.1*30
$GNGSA,A,3,01,08,10,14,16,21,22,23,27,30,32,,1.4,0.8,1.1*2E
$GNGSA,A,3,65,71,72,77,78,86,87,88,,,,,1.4,0.8,1.1*2F
$GNGSA,A,3,,,,,,,,,,,,,1.4,0.8,1.1*21
$QZGSA,A,3,,,,,,,,,,,,,1.4,0.8,1.1*23
$BDGSA,A,3,209,214,227,228,236,237,,,,,,,1.4,0.8,1.1*2C
$GAGSA,A,3,102,104,112,119,124,125,136,,,,,,1.4,0.8,1.1*16
$GIGSA,A,3,,,,,,,,,,,,,1.4,0.8,1.1*26
$GPRMC,141929.00,A,4825.082514,N,00428.399036,W,002.3,209.1,140621,,,A*48
$GPGGA,141930.00,4825.081764,N,00428.399510,W,1,35,0.2,84.8,M,52.2,M,,*4B
$GPGSV,4,1,14,07,-1,258,,08,86,145,45,21,61,272,45,27,50,123,49*65
$GPGSV,4,2,14,10,40,055,38,01,36,260,47,22,29,201,50,32,18,104,29*7C
$GPGSV,4,3,14,14,15,322,44,23,10,040,21,16,08,172,35,30,05,292,44*7C
$GPGSV,4,4,14,28,03,330,,03,03,205,*72
$GLGSV,2,1,08,87,67,009,42,72,45,114,48,88,42,299,44,71,35,046,36*60
$GLGSV,2,2,08,78,33,283,47,65,19,160,47,86,19,086,32,77,16,226,38*64
$BDGSV,3,1,11,228,76,075,41,227,44,292,42,214,43,072,39,206,13,049,*68
$BDGSV,3,2,11,209,11,074,34,205,10,110,,237,10,229,39,236,09,329,43*65
$BDGSV,3,3,11,211,00,103,,233,50,114,,216,14,053,*6D
$GAGSV,3,1,09,125,40,236,44,112,35,075,36,136,33,271,42,102,33,301,40*66
$GAGSV,3,2,09,119,25,063,28,104,23,125,25,124,09,188,34,130,01,338,*67
$GAGSV,3,3,09,111,67,057,*63
$GPGSA,A,3,01,08,10,14,16,21,22,23,27,30,32,,1.4,0.8,1.1*30
$GNGSA,A,3,01,08,10,14,16,21,22,23,27,30,32,,1.4,0.8,1.1*2E
$GNGSA,A,3,65,71,72,77,78,86,87,88,,,,,1.4,0.8,1.1*2F
$GNGSA,A,3,,,,,,,,,,,,,1.4,0.8,1.1*21
$QZGSA,A,3,,,,,,,,,,,,,1.4,0.8,1.1*23
$BDGSA,A,3,209,214,227,228,236,237,,,,,,,1.4,0.8,1.1*2C
$GAGSA,A,3,102,104,112,119,124,125,136,,,,,,1.4,0.8,1.1*16
$GIGSA,A,3,,,,,,,,,,,,,1.4,0.8,1.1*26
$GPRMC,141930.00,A,4825.081764,N,00428.399510,W,002.4,211.0,140621,,,A*48
$GPGGA,141931.00,4825.080913,N,00428.400051,W,1,34,0.2,85.0,M,52.2,M,,*4A
$GPGSV,4,1,14,07,-1,258,,08,86,145,45,21,61,272,45,27,50,123,48*64
$GPGSV,4,2,14,10,39,055,38,01,36,260,46,22,29,201,50,32,18,104,28*72
$GPGSV,4,3,14,14,15,322,44,23,10,040,21,16,08,172,34,30,05,291,44*7E
$GPGSV,4,4,14,28,03,330,,03,03,205,*72
$GLGSV,2,1,08,87,67,009,42,72,45,114,49,88,42,299,44,71,35,045,35*61
$GLGSV,2,2,08,78,33,283,47,65,19,160,47,86,19,086,31,77,16,226,39*66
$BDGSV,3,1,11,228,76,075,41,227,44,292,42,214,43,072,39,206,13,049,*68
$BDGSV,3,2,11,209,11,074,34,205,10,110,,237,10,229,39,236,09,329,42*64
$BDGSV,3,3,11,211,00,103,,233,50,114,,216,14,053,*6D
$GAGSV,3,1,09,125,40,236,43,112,35,075,36,136,33,271,42,102,33,301,40*61
$GAGSV,3,2,09,119,25,063,28,104,23,125,29,124,09,188,34,130,01,338,*6B
$GAGSV,3,3,09,111,67,057,*63
$GPGSA,A,3,01,08,10,14,16,21,22,23,27,30,32,,1.3,0.8,1.1*37
$GNGSA,A,3,01,08,10,14,16,21,22,23,27,30,32,,1.3,0.8,1.1*29
$GNGSA,A,3,65,71,72,77,78,86,87,88,,,,,1.3,0.8,1.1*28
$GNGSA,A,3,,,,,,,,,,,,,1.3,0.8,1.1*26
$QZGSA,A,3,,,,,,,,,,,,,1.3,0.8,1.1*24
$BDGSA,A,3,209,214,227,228,236,237,,,,,,,1.3,0.8,1.1*2B
$GAGSA,A,3,102,104,112,119,124,125,136,,,,,,1.3,0.8,1.1*11
$GIGSA,A,3,,,,,,,,,,,,,1.3,0.8,1.1*21
$GPRMC,141931.00,A,4825.080913,N,00428.400051,W,002.5,209.6,140621,,,A*4F
$GPGGA,141932.00,4825.080183,N,00428.400555,W,1,33,0.2,85.1,M,52.2,M,,*4F
$GPGSV,4,1,14,07,-1,258,,08,86,145,44,21,61,272,44,27,50,123,48*64
$GPGSV,4,2,14,10,40,055,38,01,36,260,46,22,29,201,50,32,18,104,28*7C
$GPGSV,4,3,14,14,15,322,44,23,10,040,21,16,08,172,33,30,05,291,44*79
$GPGSV,4,4,14,28,03,330,,03,03,205,*72
$GLGSV,2,1,08,87,67,009,41,72,45,114,49,88,42,299,44,71,35,045,35*62
$GLGSV,2,2,08,78,33,283,47,65,19,160,46,86,19,086,29,77,16,226,39*6E
$BDGSV,3,1,11,228,76,075,41,227,44,292,42,214,43,072,38,206,13,049,15*6D
$BDGSV,3,2,11,209,11,074,33,205,10,110,,237,10,229,38,236,09,329,41*61
$BDGSV,3,3,11,211,00,103,,233,50,114,,216,14,053,*6D
$GAGSV,3,1,09,125,40,236,43,112,35,075,35,136,33,271,42,102,33,301,42*60
$GAGSV,3,2,09,119,25,063,28,104,23,125,29,124,09,188,34,130,01,338,*6B
$GAGSV,3,3,09,111,67,057,*63
$GPGSA,A,3,01,08,10,14,16,21,22,23,27,30,32,,1.3,0.8,1.1*37
$GNGSA,A,3,01,08,10,14,16,21,22,23,27,30,32,,1.3,0.8,1.1*29
$GNGSA,A,3,65,71,72,77,78,87,88,,,,,,1.3,0.8,1.1*26
$GNGSA,A,3,,,,,,,,,,,,,1.3,0.8,1.1*26
$QZGSA,A,3,,,,,,,,,,,,,1.3,0.8,1.1*24
$BDGSA,A,3,209,214,227,228,236,237,,,,,,,1.3,0.8,1.1*2B
$GAGSA,A,3,102,104,112,119,124,125,136,,,,,,1.3,0.8,1.1*11
$GIGSA,A,3,,,,,,,,,,,,,1.3,0.8,1.1*21
$GPRMC,141932.00,A,4825.080183,N,00428.400555,W,002.5,210.0,140621,,,A*42
$GPGGA,141933.00,4825.079560,N,00428.401090,W,1,34,0.2,85.2,M,52.2,M,,*48
$GPGSV,4,1,14,07,-1,258,,08,86,145,44,21,61,272,44,27,50,123,48*64
$GPGSV,4,2,14,10,39,055,38,01,36,260,45,22,29,201,51,32,18,104,29*71
$GPGSV,4,3,14,14,15,322,44,23,10,040,21,16,08,172,33,30,05,291,43*7E
$GPGSV,4,4,14,28,03,330,,03,03,205,*72
$GLGSV,2,1,08,87,67,009,41,72,45,114,50,88,42,299,44,71,35,045,35*6A
$GLGSV,2,2,08,78,33,283,47,65,19,160,46,86,19,086,28,77,16,226,39*6F
$BDGSV,3,1,11,228,76,075,42,227,44,292,42,214,43,072,38,206,13,048,*6B
$BDGSV,3,2,11,209,11,074,33,205,10,110,,237,10,229,37,236,09,329,40*6F
$BDGSV,3,3,11,211,00,103,,233,50,114,,216,14,053,*6D
$GAGSV,3,1,09,125,40,236,43,112,35,075,35,136,33,271,42,102,33,301,42*60
$GAGSV,3,2,09,119,25,063,31,104,23,125,35,124,09,188,36,130,01,338,*6C
$GAGSV,3,3,09,111,67,057,*63
$GPGSA,A,3,01,08,10,14,16,21,22,23,27,30,32,,1.3,0.8,1.1*37
$GNGSA,A,3,01,08,10,14,16,21,22,23,27,30,32,,1.3,0.8,1.1*29
$GNGSA,A,3,65,71,72,77,78,86,87,88,,,,,1.3,0.8,1.1*28
$GNGSA,A,3,,,,,,,,,,,,,1.3,0.8,1.1*26
$QZGSA,A,3,,,,,,,,,,,,,1.3,0.8,1.1*24
$BDGSA,A,3,209,214,227,228,236,237,,,,,,,1.3,0.8,1.1*2B
$GAGSA,A,3,102,104,112,119,124,125,136,,,,,,1.3,0.8,1.1*11
$GIGSA,A,3,,,,,,,,,,,,,1.3,0.8,1.1*21
$GPRMC,141933.00,A,4825.079560,N,00428.401090,W,002.5,209.2,140621,,,A*4B
$GPGGA,141934.00,4825.078832,N,00428.401630,W,1,33,0.2,85.5,M,52.2,M,,*48
$GPGSV,4,1,14,07,-1,258,,08,86,145,44,21,61,272,44,27,50,123,48*64
$GPGSV,4,2,14,10,39,055,38,01,36,260,45,22,29,201,50,32,18,104,29*70
$GPGSV,4,3,14,14,15,322,43,23,10,040,20,16,08,172,32,30,05,291,43*79
$GPGSV,4,4,14,28,03,330,,03,03,205,*72
$GLGSV,2,1,08,87,67,009,41,72,45,114,50,88,42,299,44,71,35,045,35*6A
$GLGSV,2,2,08,78,33,283,47,65,19,160,46,86,19,086,27,77,16,226,39*60
$BDGSV,3,1,11,228,76,075,43,227,44,292,43,214,43,072,38,206,13,048,*6B
$BDGSV,3,2,11,209,11,074,31,205,10,110,,237,10,229,37,236,09,329,40*6D
$BDGSV,3,3,11,211,00,103,,233,50,114,,216,14,053,*6D
$GAGSV,3,1,09,125,40,236,43,112,35,075,35,136,33,271,41,102,33,301,41*60
$GAGSV,3,2,09,119,25,062,31,104,23,125,42,124,09,188,36,130,01,338,*6D
$GAGSV,3,3,09,111,67,057,*63
$GPGSA,A,3,01,08,10,14,16,21,22,23,27,30,32,,1.3,0.8,1.1*37
$GNGSA,A,3,01,08,10,14,16,21,22,23,27,30,32,,1.3,0.8,1.1*29
$GNGSA,A,3,65,71,72,77,78,87,88,,,,,,1.3,0.8,1.1*26
$GNGSA,A,3,,,,,,,,,,,,,1.3,0.8,1.1*26
$QZGSA,A,3,,,,,,,,,,,,,1.3,0.8,1.1*24
$BDGSA,A,3,209,214,227,228,236,237,,,,,,,1.3,0.8,1.1*2B
$GAGSA,A,3,102,104,112,119,124,125,136,,,,,,1.3,0.8,1.1*11
$GIGSA,A,3,,,,,,,,,,,,,1.3,0.8,1.1*21
$GPRMC,141934.00,A,4825.078832,N,00428.401630,W,002.5,213.5,140621,,,A*47
$GPGGA,141935.00,4825.078108,N,00428.402153,W,1,33,0.2,85.5,M,52.2,M,,*48
$GPGSV,4,1,14,07,-1,258,,08,86,145,44,21,61,272,44,27,50,123,47*6B
$GPGSV,4,2,14,10,39,055,38,01,36,260,45,22,29,201,50,32,18,104,29*70
$GPGSV,4,3,14,14,15,322,43,23,10,040,20,16,08,172,31,30,05,291,43*7A
$GPGSV,4,4,14,28,03,330,,03,03,205,*72
$GLGSV,2,1,08,87,67,009,41,72,45,114,50,88,42,299,44,71,35,045,35*6A
$GLGSV,2,2,08,78,33,283,47,65,19,160,46,86,19,086,26,77,16,226,38*60
$BDGSV,3,1,11,228,76,075,43,227,44,292,43,214,43,072,37,206,13,048,14*61
$BDGSV,3,2,11,209,11,074,30,205,10,110,15,237,10,229,36,236,09,329,40*69
$BDGSV,3,3,11,211,00,103,,233,50,114,,216,14,053,*6D
$GAGSV,3,1,09,125,40,236,43,112,35,075,35,136,33,271,41,102,33,301,41*60
$GAGSV,3,2,09,119,25,062,30,104,23,125,44,124,09,188,35,130,01,338,*69
$GAGSV,3,3,09,111,67,057,*63
$GPGSA,A,3,01,08,10,14,16,21,22,23,27,30,32,,1.4,0.8,1.1*30
$GNGSA,A,3,01,08,10,14,16,21,22,23,27,30,32,,1.4,0.8,1.1*2E
$GNGSA,A,3,65,71,72,77,78,87,88,,,,,,1.4,0.8,1.1*21
$GNGSA,A,3,,,,,,,,,,,,,1.4,0.8,1.1*21
$QZGSA,A,3,,,,,,,,,,,,,1.4,0.8,1.1*23
$BDGSA,A,3,209,214,227,228,236,237,,,,,,,1.4,0.8,1.1*2C
$GAGSA,A,3,102,104,112,119,124,125,136,,,,,,1.4,0.8,1.1*16
$GIGSA,A,3,,,,,,,,,,,,,1.4,0.8,1.1*26
$GPRMC,141935.00,A,4825.078108,N,00428.402153,W,002.5,210.9,140621,,,A*48
$GPGGA,141936.00,4825.077471,N,00428.402850,W,1,33,0.2,85.6,M,52.2,M,,*46
$GPGSV,4,1,14,07,-1,258,,08,86,145,44,21,61,272,44,27,50,123,47*6B
$GPGSV,4,2,14,10,39,055,38,01,36,260,44,22,29,201,50,32,18,104,31*78
$GPGSV,4,3,14,14,15,322,43,23,10,040,20,16,08,172,30,30,05,291,42*7A
$GPGSV,4,4,14,28,03,330,,03,03,205,*72
$GLGSV,2,1,08,87,67,009,41,72,45,114,50,88,42,299,44,71,35,045,36*69
$GLGSV,2,2,08,78,33,283,47,65,19,160,45,86,19,086,25,77,16,226,38*60
$BDGSV,3,1,11,228,76,075,43,227,44,292,42,214,43,072,37,206,13,048,14*60
$BDGSV,3,2,11,209,11,074,28,205,10,110,17,237,10,229,36,236,09,329,40*62
$BDGSV,3,3,11,211,00,103,,233,50,114,,216,14,053,*6D
$GAGSV,3,1,09,125,40,236,44,112,35,075,35,136,33,272,41,102,33,301,41*64
$GAGSV,3,2,09,119,25,062,30,104,23,125,44,124,09,188,35,130,01,338,*69
$GAGSV,3,3,09,111,67,057,*63
$GPGSA,A,3,01,08,10,14,16,21,22,23,27,30,32,,1.4,0.8,1.1*30
$GNGSA,A,3,01,08,10,14,16,21,22,23,27,30,32,,1.4,0.8,1.1*2E
$GNGSA,A,3,65,71,72,77,78,87,88,,,,,,1.4,0.8,1.1*21
$GNGSA,A,3,,,,,,,,,,,,,1.4,0.8,1.1*21
$QZGSA,A,3,,,,,,,,,,,,,1.4,0.8,1.1*23
$BDGSA,A,3,205,214,227,228,236,237,,,,,,,1.4,0.8,1.1*20
$GAGSA,A,3,102,104,112,119,124,125,136,,,,,,1.4,0.8,1.1*16
$GIGSA,A,3,,,,,,,,,,,,,1.4,0.8,1.1*26
$GPRMC,141936.00,A,4825.077471,N,00428.402850,W,002.5,216.3,140621,,,A*49
$GPGGA,141937.00,4825.076862,N,00428.403519,W,1,32,0.2,85.7,M,52.2,M,,*49
$GPGSV,4,1,14,07,-1,258,,08,86,145,44,21,61,272,44,27,50,123,47*6B
$GPGSV,4,2,14,10,39,055,38,01,36,260,44,22,29,201,50,32,18,104,36*7F
$GPGSV,4,3,14,14,15,322,43,23,10,040,20,16,08,172,30,30,05,291,42*7A
$GPGSV,4,4,14,28,03,330,,03,03,205,*72
$GLGSV,2,1,08,87,67,010,41,72,45,114,50,88,42,299,44,71,35,045,36*61
$GLGSV,2,2,08,78,33,283,47,65,19,160,45,86,19,086,24,77,16,226,37*6E
$BDGSV,3,1,11,228,76,075,42,227,44,292,42,214,43,072,37,206,13,048,17*62
$BDGSV,3,2,11,209,11,074,27,205,10,110,17,237,10,229,35,236,09,329,40*6E
$BDGSV,3,3,11,211,00,103,,233,50,114,,216,14,053,*6D
$GAGSV,3,1,09,125,40,236,44,112,35,075,34,136,33,272,41,102,33,301,41*65
$GAGSV,3,2,09,119,25,062,29,104,23,125,44,124,09,188,35,130,01,338,*61
$GAGSV,3,3,09,111,67,057,*63
$GPGSA,A,3,01,08,10,14,16,21,22,23,27,30,32,,1.4,0.8,1.1*30
$GNGSA,A,3,01,08,10,14,16,21,22,23,27,30,32,,1.4,0.8,1.1*2E
$GNGSA,A,3,65,71,72,77,78,87,88,,,,,,1.4,0.8,1.1*21
$GNGSA,A,3,,,,,,,,,,,,,1.4,0.8,1.1*21
$QZGSA,A,3,,,,,,,,,,,,,1.4,0.8,1.1*23
$BDGSA,A,3,214,227,228,236,237,,,,,,,,1.4,0.8,1.1*17
$GAGSA,A,3,102,104,112,119,124,125,136,,,,,,1.4,0.8,1.1*16
$GIGSA,A,3,,,,,,,,,,,,,1.4,0.8,1.1*26
$GPRMC,141937.00,A,4825.076862,N,00428.403519,W,002.5,218.2,140621,,,A*49
$GPGGA,141938.00,4825.076295,N,00428.404197,W,1,33,0.2,85.9,M,52.2,M,,*4E
$GPGSV,4,1,14,07,-1,258,,08,86,145,45,21,61,272,44,27,50,123,47*6A
$GPGSV,4,2,14,10,39,055,38,01,36,260,44,22,29,201,50,32,18,104,39*70
$GPGSV,4,3,14,14,15,322,43,23,10,040,20,16,08,172,29,30,05,291,42*72
$GPGSV,4,4,14,28,03,330,,03,03,205,*72
$GLGSV,2,1,08,87,67,010,41,72,45,114,50,88,42,299,44,71,35,045,36*61
$GLGSV,2,2,08,78,33,283,47,65,19,160,45,86,19,086,23,77,16,226,37*69
$BDGSV,3,1,11,228,76,075,42,227,44,292,42,214,43,072,36,206,13,048,*65
$BDGSV,3,2,11,209,11,074,,205,10,110,21,237,10,229,35,236,09,329,40*6E
$BDGSV,3,3,11,211,00,103,,233,50,114,,216,14,053,*6D
$GAGSV,3,1,09,125,40,236,43,112,35,075,34,136,33,272,40,102,33,301,41*63
$GAGSV,3,2,09,119,25,062,29,104,23,125,44,124,09,188,35,130,01,338,*61
$GAGSV,3,3,09,111,67,057,*63
$GPGSA,A,3,01,08,10,14,16,21,22,23,27,30,32,,1.4,0.8,1.1*30
$GNGSA,A,3,01,08,10,14,16,21,22,23,27,30,32,,1.4,0.8,1.1*2E
$GNGSA,A,3,65,71,72,77,78,87,88,,,,,,1.4,0.8,1.1*21
$GNGSA,A,3,,,,,,,,,,,,,1.4,0.8,1.1*21
$QZGSA,A,3,,,,,,,,,,,,,1.4,0.8,1.1*23
$BDGSA,A,3,205,214,227,228,236,237,,,,,,,1.4,0.8,1.1*20
$GAGSA,A,3,102,104,112,119,124,125,136,,,,,,1.4,0.8,1.1*16
$GIGSA,A,3,,,,,,,,,,,,,1.4,0.8,1.1*26
$GPRMC,141938.00,A,4825.076295,N,00428.404197,W,002.5,219.8,140621,,,A*4A
$GPGGA,141939.00,4825.075708,N,00428.404899,W,1,34,0.2,86.1,M,52.2,M,,*46
$GPGSV,4,1,14,07,-1,258,,08,86,145,44,21,61,272,44,27,50,123,47*6B
$GPGSV,4,2,14,10,39,055,37,01,36,260,44,22,29,201,50,32,18,104,44*75
$GPGSV,4,3,14,14,15,322,43,23,10,040,20,16,08,172,28,30,05,291,42*73
$GPGSV,4,4,14,28,03,330,,03,03,205,*72
$GLGSV,2,1,08,87,67,010,41,72,45,114,50,88,42,299,44,71,35,045,35*62
$GLGSV,2,2,08,78,33,283,47,65,19,160,44,86,19,086,23,77,16,226,36*69
$BDGSV,3,1,11,228,76,075,42,227,44,292,42,214,43,072,36,206,13,048,*65
$BDGSV,3,2,11,209,11,074,,205,10,110,20,237,10,229,34,236,09,329,40*6E
$BDGSV,3,3,11,211,00,103,,233,50,114,,216,14,053,*6D
$GAGSV,3,1,09,125,40,236,43,112,35,075,34,136,33,272,40,102,33,301,41*63
$GAGSV,3,2,09,119,25,062,28,104,23,125,44,124,09,188,35,130,01,338,*60
$GAGSV,3,3,09,111,67,057,*63
$GPGSA,A,3,01,08,10,14,16,21,22,23,27,30,32,,1.4,0.8,1.1*30
$GNGSA,A,3,01,08,10,14,16,21,22,23,27,30,32,,1.4,0.8,1.1*2E
$GNGSA,A,3,65,71,72,77,78,86,87,88,,,,,1.4,0.8,1.1*2F
$GNGSA,A,3,,,,,,,,,,,,,1.4,0.8,1.1*21
$QZGSA,A,3,,,,,,,,,,,,,1.4,0.8,1.1*23
$BDGSA,A,3,205,214,227,228,236,237,,,,,,,1.4,0.8,1.1*20
$GAGSA,A,3,102,104,112,119,124,125,136,,,,,,1.4,0.8,1.1*16
$GIGSA,A,3,,,,,,,,,,,,,1.4,0.8,1.1*26
$GPRMC,141939.00,A,4825.075708,N,00428.404899,W,002.5,218.1,140621,,,A*46
$GPGGA,141940.00,4825.075171,N,00428.405549,W,1,34,0.2,86.2,M,52.2,M,,*42
$GPGSV,4,1,14,07,-1,258,,08,86,145,44,21,61,272,44,27,50,123,49*65
$GPGSV,4,2,14,10,39,055,37,01,36,260,43,22,29,201,50,32,18,104,44*72
$GPGSV,4,3,14,14,15,322,43,23,10,040,21,16,08,172,28,30,05,291,42*72
$GPGSV,4,4,14,28,03,330,,03,03,205,*72
$GLGSV,2,1,08,87,67,010,41,72,45,114,50,88,42,299,46,71,35,045,35*60
$GLGSV,2,2,08,78,33,283,47,65,19,160,43,86,19,086,22,77,16,226,35*6C
$BDGSV,3,1,11,228,76,075,42,227,44,292,42,214,43,072,36,206,13,048,*65
$BDGSV,3,2,11,209,11,074,,205,10,110,20,237,10,229,34,236,09,329,40*6E
$BDGSV,3,3,11,211,00,103,,233,50,114,,216,14,053,*6D
$GAGSV,3,1,09,125,40,236,44,112,35,075,34,136,33,272,40,102,33,301,42*67
$GAGSV,3,2,09,119,25,062,28,104,23,125,44,124,09,188,36,130,01,338,*63
$GAGSV,3,3,09,111,67,057,*63
$GPGSA,A,3,01,08,10,14,16,21,22,23,27,30,32,,1.4,0.8,1.1*30
$GNGSA,A,3,01,08,10,14,16,21,22,23,27,30,32,,1.4,0.8,1.1*2E
$GNGSA,A,3,65,71,72,77,78,86,87,88,,,,,1.4,0.8,1.1*2F
$GNGSA,A,3,,,,,,,,,,,,,1.4,0.8,1.1*21
$QZGSA,A,3,,,,,,,,,,,,,1.4,0.8,1.1*23
$BDGSA,A,3,205,214,227,228,236,237,,,,,,,1.4,0.8,1.1*20
$GAGSA,A,3,102,104,112,119,124,125,136,,,,,,1.4,0.8,1.1*16
$GIGSA,A,3,,,,,,,,,,,,,1.4,0.8,1.1*26
$GPRMC,141940.00,A,4825.075171,N,00428.405549,W,002.5,218.5,140621,,,A*45
$GPGGA,141941.00,4825.074655,N,00428.406240,W,1,34,0.2,86.4,M,52.2,M,,*48
$GPGSV,4,1,14,07,-1,258,,08,86,145,45,21,61,272,45,27,50,123,48*64
$GPGSV,4,2,14,10,39,055,37,01,36,260,45,22,29,201,50,32,18,104,45*75
$GPGSV,4,3,14,14,15,322,43,23,10,040,21,16,08,172,30,30,05,291,42*7B
$GPGSV,4,4,14,28,03,330,,03,03,205,*72
$GLGSV,2,1,08,87,67,010,40,72,45,114,49,88,42,299,46,71,35,045,35*69
$GLGSV,2,2,08,78,33,283,47,65,19,160,42,86,19,086,22,77,16,226,34*6C
$BDGSV,3,1,11,228,76,075,42,227,44,292,46,214,43,072,36,206,13,048,16*66
$BDGSV,3,2,11,209,11,074,,205,10,110,22,237,10,229,32,236,09,329,39*64
$BDGSV,3,3,11,211,00,103,,233,50,114,,216,14,053,*6D
$GAGSV,3,1,09,125,40,236,45,112,35,075,34,136,33,272,42,102,33,301,45*63
$GAGSV,3,2,09,119,25,062,28,104,23,125,43,124,09,188,36,130,01,338,*64
$GAGSV,3,3,09,111,67,057,*63
$GPGSA,A,3,01,08,10,14,16,21,22,23,27,30,32,,1.3,0.8,1.1*37
$GNGSA,A,3,01,08,10,14,16,21,22,23,27,30,32,,1.3,0.8,1.1*29
$GNGSA,A,3,65,71,72,77,78,86,87,88,,,,,1.3,0.8,1.1*28
$GNGSA,A,3,,,,,,,,,,,,,1.3,0.8,1.1*26
$QZGSA,A,3,,,,,,,,,,,,,1.3,0.8,1.1*24
$BDGSA,A,3,205,214,227,228,236,237,,,,,,,1.3,0.8,1.1*27
$GAGSA,A,3,102,104,112,119,124,125,136,,,,,,1.3,0.8,1.1*11
$GIGSA,A,3,,,,,,,,,,,,,1.3,0.8,1.1*21
$GPRMC,141941.00,A,4825.074655,N,00428.406240,W,002.5,223.8,140621,,,A*4C
$GPGGA,141942.00,4825.074211,N,00428.407051,W,1,35,0.2,86.6,M,52.2,M,,*4F
$GPGSV,4,1,14,07,-1,258,,08,86,145,45,21,61,272,45,27,50,123,48*64
$GPGSV,4,2,14,10,39,055,36,01,36,260,45,22,29,201,50,32,18,104,45*74
$GPGSV,4,3,14,14,15,322,43,23,10,040,21,16,08,172,30,30,05,291,41*78
$GPGSV,4,4,14,28,03,330,,03,03,205,*72
$GLGSV,2,1,08,87,67,010,41,72,45,114,49,88,42,299,47,71,35,045,35*69
$GLGSV,2,2,08,78,33,283,47,65,19,160,41,86,19,086,22,77,16,226,34*6F
$BDGSV,3,1,11,228,76,075,42,227,44,292,46,214,43,072,35,206,13,048,17*64
$BDGSV,3,2,11,209,11,074,,205,10,110,26,237,10,229,32,236,09,329,39*60
$BDGSV,3,3,11,211,00,103,,233,50,114,,216,14,053,*6D
$GAGSV,3,1,09,125,40,236,47,112,35,075,33,136,33,272,43,102,33,301,45*67
$GAGSV,3,2,09,119,25,062,28,104,23,125,43,124,09,188,35,130,01,338,*67
$GAGSV,3,3,09,111,67,057,*63
$GPGSA,A,3,01,08,10,14,16,21,22,23,27,30,32,,1.3,0.8,1.1*37
$GNGSA,A,3,01,08,10,14,16,21,22,23,27,30,32,,1.3,0.8,1.1*29
$GNGSA,A,3,65,71,72,77,78,86,87,88,,,,,1.3,0.8,1.1*28
$GNGSA,A,3,,,,,,,,,,,,,1.3,0.8,1.1*26
$QZGSA,A,3,,,,,,,,,,,,,1.3,0.8,1.1*24
$BDGSA,A,3,205,206,214,227,228,236,237,,,,,,1.3,0.8,1.1*13
$GAGSA,A,3,102,104,112,119,124,125,136,,,,,,1.3,0.8,1.1*11
$GIGSA,A,3,,,,,,,,,,,,,1.3,0.8,1.1*21
$GPRMC,141942.00,A,4825.074211,N,00428.407051,W,002.5,225.1,140621,,,A*47
$GPGGA,141943.00,4825.073754,N,00428.407752,W,1,34,0.2,86.7,M,52.2,M,,*49
$GPGSV,4,1,14,07,-1,258,,08,86,145,45,21,61,272,44,27,50,123,48*65
$GPGSV,4,2,14,10,39,055,36,01,36,260,45,22,29,201,50,32,18,103,45*73
$GPGSV,4,3,14,14,15,322,42,23,09,040,21,16,08,172,30,30,05,291,41*71
$GPGSV,4,4,14,28,03,330,,03,03,205,*72
$GLGSV,2,1,08,87,67,010,41,72,45,114,49,88,42,299,47,71,35,045,35*69
$GLGSV,2,2,08,78,33,283,46,65,19,160,39,86,19,086,21,77,16,226,33*65
$BDGSV,3,1,11,228,76,075,42,227,44,292,45,214,43,072,35,206,13,048,17*67
$BDGSV,3,2,11,209,11,074,,205,10,110,27,237,10,229,31,236,09,329,39*62
$BDGSV,3,3,11,211,00,103,,233,50,114,,216,14,053,*6D
$GAGSV,3,1,09,125,40,236,47,112,35,075,33,136,33,272,43,102,33,301,44*66
$GAGSV,3,2,09,119,25,062,27,104,23,125,43,124,09,188,36,130,01,338,*6B
$GAGSV,3,3,09,111,67,057,*63
$GPGSA,A,3,01,08,10,14,16,21,22,23,27,30,32,,1.3,0.8,1.1*37
$GNGSA,A,3,01,08,10,14,16,21,22,23,27,30,32,,1.3,0.8,1.1*29
$GNGSA,A,3,65,71,72,77,78,86,87,88,,,,,1.3,0.8,1.1*28
$GNGSA,A,3,,,,,,,,,,,,,1.3,0.8,1.1*26
$QZGSA,A,3,,,,,,,,,,,,,1.3,0.8,1.1*24
$BDGSA,A,3,205,214,227,228,236,237,,,,,,,1.3,0.8,1.1*27
$GAGSA,A,3,102,104,112,119,124,125,136,,,,,,1.3,0.8,1.1*11
$GIGSA,A,3,,,,,,,,,,,,,1.3,0.8,1.1*21
$GPRMC,141943.00,A,4825.073754,N,00428.407752,W,002.4,225.7,140621,,,A*46
$GPGGA,141944.00,4825.073278,N,00428.408497,W,1,35,0.2,86.9,M,52.2,M,,*4F
$GPGSV,4,1,14,07,-1,258,,08,86,145,44,21,61,272,44,27,50,123,48*64
$GPGSV,4,2,14,10,39,055,36,01,36,260,44,22,29,201,49,32,18,103,45*7A
$GPGSV,4,3,14,14,15,322,42,23,10,040,21,16,08,172,33,30,05,291,41*7A
$GPGSV,4,4,14,28,03,330,,03,03,205,*72
$GLGSV,2,1,08,87,67,010,42,72,45,114,49,88,42,299,47,71,35,045,35*6A
$GLGSV,2,2,08,78,33,283,46,65,19,160,38,86,19,086,24,77,16,226,32*60
$BDGSV,3,1,11,228,76,075,41,227,44,292,45,214,43,072,35,206,13,048,20*60
$BDGSV,3,2,11,209,11,074,19,205,10,110,28,237,10,229,30,236,09,329,39*64
$BDGSV,3,3,11,211,00,103,,233,50,114,,216,14,053,*6D
$GAGSV,3,1,09,125,40,236,47,112,35,075,33,136,33,272,42,102,33,301,44*67
$GAGSV,3,2,09,119,25,062,27,104,23,125,42,124,09,188,38,130,01,338,*64
$GAGSV,3,3,09,111,67,057,*63
$GPGSA,A,3,01,08,10,14,16,21,22,23,27,30,32,,1.3,0.8,1.0*36
$GNGSA,A,3,01,08,10,14,16,21,22,23,27,30,32,,1.3,0.8,1.0*28
$GNGSA,A,3,65,71,72,77,78,86,87,88,,,,,1.3,0.8,1.0*29
$GNGSA,A,3,,,,,,,,,,,,,1.3,0.8,1.0*27
$QZGSA,A,3,,,,,,,,,,,,,1.3,0.8,1.0*25
$BDGSA,A,3,205,206,214,227,228,236,237,,,,,,1.3,0.8,1.0*12
$GAGSA,A,3,102,104,112,119,124,125,136,,,,,,1.3,0.8,1.0*10
$GIGSA,A,3,,,,,,,,,,,,,1.3,0.8,1.0*20
$GPRMC,141944.00,A,4825.073278,N,00428.408497,W,002.4,229.2,140621,,,A*46
$GPGGA,141945.00,4825.072827,N,00428.409386,W,1,35,0.2,86.9,M,52.2,M,,*49
$GPGSV,4,1,14,07,-1,258,,08,86,145,44,21,61,272,44,27,50,123,47*6B
$GPGSV,4,2,14,10,39,055,35,01,36,260,44,22,29,201,48,32,18,103,45*78
$GPGSV,4,3,14,14,15,322,42,23,09,040,24,16,08,172,33,30,05,291,41*77
$GPGSV,4,4,14,28,03,330,,03,03,205,*72
$GLGSV,2,1,08,87,67,010,42,72,45,114,49,88,42,299,47,71,35,045,35*6A
$GLGSV,2,2,08,78,33,283,46,65,19,160,37,86,19,086,24,77,16,226,31*6C
$BDGSV,3,1,11,228,76,075,42,227,44,292,45,214,43,072,34,206,13,048,22*60
$BDGSV,3,2,11,209,11,074,19,205,10,110,28,237,10,229,30,236,09,329,38*65
$BDGSV,3,3,11,211,00,103,,233,50,114,,216,14,053,*6D
$GAGSV,3,1,09,125,40,236,47,112,35,075,33,136,33,272,42,102,33,301,44*67
$GAGSV,3,2,09,119,25,062,27,104,23,125,42,124,09,188,38,130,01,338,*64
$GAGSV,3,3,09,111,67,057,*63
$GPGSA,A,3,01,08,10,14,16,21,22,23,27,30,32,,1.4,0.8,1.2*33
$GNGSA,A,3,01,08,10,14,16,21,22,23,27,30,32,,1.4,0.8,1.2*2D
$GNGSA,A,3,65,71,72,77,78,86,87,88,,,,,1.4,0.8,1.2*2C
$GNGSA,A,3,,,,,,,,,,,,,1.4,0.8,1.2*22
$QZGSA,A,3,,,,,,,,,,,,,1.4,0.8,1.2*20
$BDGSA,A,3,205,206,214,227,228,236,237,,,,,,1.4,0.8,1.2*17
$GAGSA,A,3,102,104,112,119,124,125,136,,,,,,1.4,0.8,1.2*15
$GIGSA,A,3,,,,,,,,,,,,,1.4,0.8,1.2*25
$GPRMC,141945.00,A,4825.072827,N,00428.409386,W,002.4,231.3,140621,,,A*48
$GPGGA,141946.00,4825.072373,N,00428.410202,W,1,35,0.2,87.0,M,52.2,M,,*4D
$GPGSV,4,1,14,07,-1,258,,08,86,145,44,21,61,272,45,27,50,123,46*6B
$GPGSV,4,2,14,10,39,055,35,01,36,260,44,22,29,201,48,32,18,103,44*79
$GPGSV,4,3,14,14,15,322,42,23,09,040,27,16,08,172,39,30,05,291,40*7F
$GPGSV,4,4,14,28,03,330,,03,03,205,*72
$GLGSV,2,1,08,87,67,010,42,72,45,114,49,88,42,299,47,71,35,045,34*6B
$GLGSV,2,2,08,78,33,283,46,65,19,160,36,86,19,086,26,77,16,226,31*6F
$BDGSV,3,1,11,228,76,075,42,227,44,292,45,214,43,072,34,206,13,048,23*61
$BDGSV,3,2,11,209,11,074,,205,10,110,28,237,10,229,30,236,09,329,38*6D
$BDGSV,3,3,11,211,00,103,,233,50,114,,216,14,053,*6D
$GAGSV,3,1,09,125,40,236,48,112,35,075,32,136,33,272,42,102,33,301,44*69
$GAGSV,3,2,09,119,25,062,26,104,23,125,42,124,09,188,38,130,01,338,*65
$GAGSV,3,3,09,111,67,057,*63
$GPGSA,A,3,01,08,10,14,16,21,22,23,27,30,32,,1.3,0.8,1.0*36
$GNGSA,A,3,01,08,10,14,16,21,22,23,27,30,32,,1.3,0.8,1.0*28
$GNGSA,A,3,65,71,72,77,78,86,87,88,,,,,1.3,0.8,1.0*29
$GNGSA,A,3,,,,,,,,,,,,,1.3,0.8,1.0*27
$QZGSA,A,3,,,,,,,,,,,,,1.3,0.8,1.0*25
$BDGSA,A,3,205,206,214,227,228,236,237,,,,,,1.3,0.8,1.0*12
$GAGSA,A,3,102,104,112,119,124,125,136,,,,,,1.3,0.8,1.0*10
$GIGSA,A,3,,,,,,,,,,,,,1.3,0.8,1.0*20
$GPRMC,141946.00,A,4825.072373,N,00428.410202,W,002.4,232.6,140621,,,A*42
$GPGGA,141947.00,4825.071936,N,00428.411007,W,1,35,0.2,86.9,M,52.2,M,,*4A
$GPGSV,4,1,14,07,-1,258,,08,86,145,44,21,61,272,45,27,50,123,46*6B
$GPGSV,4,2,14,10,39,055,35,01,36,260,43,22,29,201,47,32,18,103,44*71
$GPGSV,4,3,14,14,15,322,43,23,09,040,28,16,08,172,39,30,05,291,41*70
$GPGSV,4,4,14,28,03,330,,03,03,205,*72
$GLGSV,2,1,08,87,67,010,42,72,45,114,49,88,42,299,47,71,35,045,34*6B
$GLGSV,2,2,08,78,33,283,46,65,19,160,35,86,19,086,27,77,16,226,30*6C
$BDGSV,3,1,11,228,76,075,42,227,44,292,45,214,43,072,33,206,13,048,23*66
$BDGSV,3,2,11,209,11,074,,205,10,110,27,237,10,229,30,236,09,329,38*62
$BDGSV,3,3,11,211,00,103,,233,50,114,,216,14,053,*6D
$GAGSV,3,1,09,125,40,236,47,112,35,075,32,136,33,272,42,102,33,301,44*66
$GAGSV,3,2,09,119,25,062,26,104,23,125,42,124,09,188,38,130,01,338,*65
$GAGSV,3,3,09,111,67,057,*63
$GPGSA,A,3,01,08,10,14,16,21,22,23,27,30,32,,1.3,0.8,1.0*36
$GNGSA,A,3,01,08,10,14,16,21,22,23,27,30,32,,1.3,0.8,1.0*28
$GNGSA,A,3,65,71,72,77,78,86,87,88,,,,,1.3,0.8,1.0*29
$GNGSA,A,3,,,,,,,,,,,,,1.3,0.8,1.0*27
$QZGSA,A,3,,,,,,,,,,,,,1.3,0.8,1.0*25
$BDGSA,A,3,205,206,214,227,228,236,237,,,,,,1.3,0.8,1.0*12
$GAGSA,A,3,102,104,112,119,124,125,136,,,,,,1.3,0.8,1.0*10
$GIGSA,A,3,,,,,,,,,,,,,1.3,0.8,1.0*20
$GPRMC,141947.00,A,4825.071936,N,00428.411007,W,002.4,231.1,140621,,,A*49
$GPGGA,141948.00,4825.071575,N,00428.412013,W,1,35,0.2,87.1,M,52.2,M,,*41
$GPGSV,4,1,13,08,86,145,44,21,61,272,45,27,50,123,46,10,39,055,34*74
$GPGSV,4,2,13,01,36,260,43,22,29,201,47,32,18,103,44,14,15,322,43*7E
$GPGSV,4,3,13,23,09,040,28,16,08,172,38,30,05,291,43,28,03,330,*78
$GPGSV,4,4,13,03,03,205,*4C
$GLGSV,2,1,08,87,67,010,42,72,45,114,49,88,42,299,47,71,35,045,34*6B
$GLGSV,2,2,08,78,33,283,46,65,19,160,34,86,19,086,27,77,16,226,29*65
$BDGSV,3,1,11,228,76,075,42,227,44,292,45,214,43,072,33,206,13,048,23*66
$BDGSV,3,2,11,209,11,074,17,205,10,110,26,237,10,229,30,236,09,329,38*65
$BDGSV,3,3,11,211,00,103,,233,50,114,,216,14,053,*6D
$GAGSV,3,1,09,125,40,236,47,112,35,075,31,136,33,272,42,102,33,301,43*62
$GAGSV,3,2,09,119,25,062,26,104,23,125,42,124,09,188,37,130,01,338,*6A
$GAGSV,3,3,09,111,67,057,*63
$GPGSA,A,3,01,08,10,14,16,21,22,23,27,30,32,,1.3,0.8,1.0*36
$GNGSA,A,3,01,08,10,14,16,21,22,23,27,30,32,,1.3,0.8,1.0*28
$GNGSA,A,3,65,71,72,77,78,86,87,88,,,,,1.3,0.8,1.0*29
$GNGSA,A,3,,,,,,,,,,,,,1.3,0.8,1.0*27
$QZGSA,A,3,,,,,,,,,,,,,1.3,0.8,1.0*25
$BDGSA,A,3,205,206,214,227,228,236,237,,,,,,1.3,0.8,1.0*12
$GAGSA,A,3,102,104,112,119,124,125,136,,,,,,1.3,0.8,1.0*10
$GIGSA,A,3,,,,,,,,,,,,,1.3,0.8,1.0*20
$GPRMC,141948.00,A,4825.071575,N,00428.412013,W,002.4,236.7,140621,,,A*4A
$GPGGA,141949.00,4825.071163,N,00428.412877,W,1,34,0.2,87.1,M,52.2,M,,*48
$GPGSV,4,1,13,08,86,145,43,21,61,272,46,27,50,123,45,10,39,055,34*73
$GPGSV,4,2,13,01,36,261,45,22,29,201,46,32,18,103,43,14,15,322,43*7F
$GPGSV,4,3,13,23,09,040,28,16,08,172,37,30,05,291,43,28,03,330,*77
$GPGSV,4,4,13,03,03,205,*4C
$GLGSV,2,1,08,87,67,010,44,72,45,114,48,88,42,299,47,71,35,045,34*6C
$GLGSV,2,2,08,78,33,283,46,65,19,160,33,86,18,086,27,77,16,226,28*62
$BDGSV,3,1,11,228,76,075,42,227,44,293,45,214,43,072,33,206,13,048,23*67
$BDGSV,3,2,11,209,11,074,17,205,10,110,25,237,10,229,29,236,09,329,40*61
$BDGSV,3,3,11,211,00,103,,233,50,114,,216,14,053,*6D
$GAGSV,3,1,09,125,40,236,47,112,35,075,31,136,33,272,42,102,33,301,43*62
$GAGSV,3,2,09,119,25,062,26,104,23,125,42,124,09,188,36,130,01,338,*6B
$GAGSV,3,3,09,111,67,057,*63
$GPGSA,A,3,01,08,10,14,16,21,22,23,27,30,32,,1.3,0.8,1.0*36
$GNGSA,A,3,01,08,10,14,16,21,22,23,27,30,32,,1.3,0.8,1.0*28
$GNGSA,A,3,65,71,72,77,78,86,87,88,,,,,1.3,0.8,1.0*29
$GNGSA,A,3,,,,,,,,,,,,,1.3,0.8,1.0*27
$QZGSA,A,3,,,,,,,,,,,,,1.3,0.8,1.0*25
$BDGSA,A,3,206,214,227,228,236,237,,,,,,,1.3,0.8,1.0*25
$GAGSA,A,3,102,104,112,119,124,125,136,,,,,,1.3,0.8,1.0*10
$GIGSA,A,3,,,,,,,,,,,,,1.3,0.8,1.0*20
$GPRMC,141949.00,A,4825.071163,N,00428.412877,W,002.4,237.8,140621,,,A*4C
$GPGGA,141950.00,4825.070813,N,00428.413779,W,1,34,0.2,87.1,M,52.2,M,,*4F
$GPGSV,4,1,13,08,86,145,43,21,61,272,47,27,50,123,45,10,39,055,34*72
$GPGSV,4,2,13,01,36,260,46,22,29,201,45,32,18,103,43,14,15,322,43*7E
$GPGSV,4,3,13,23,09,040,29,16,08,172,36,30,05,291,42,28,03,330,*76
$GPGSV,4,4,13,03,03,205,*4C
$GLGSV,2,1,08,87,67,010,44,72,45,114,48,88,42,299,47,71,35,045,34*6C
$GLGSV,2,2,08,78,33,283,46,65,19,160,33,86,18,086,27,77,16,226,28*62
$BDGSV,3,1,11,228,76,075,41,227,44,292,45,214,43,072,32,206,13,048,24*63
$BDGSV,3,2,11,209,11,074,17,205,10,110,,237,10,229,29,236,09,329,41*67
$BDGSV,3,3,11,211,00,103,,233,50,114,,216,14,053,*6D
$GAGSV,3,1,09,125,40,236,47,112,35,075,31,136,33,272,41,102,33,301,43*61
$GAGSV,3,2,09,119,25,062,26,104,23,125,42,124,09,188,36,130,01,338,*6B
$GAGSV,3,3,09,111,67,057,*63
$GPGSA,A,3,01,08,10,14,16,21,22,23,27,30,32,,1.3,0.7,1.0*39
$GNGSA,A,3,01,08,10,14,16,21,22,23,27,30,32,,1.3,0.7,1.0*27
$GNGSA,A,3,65,71,72,77,78,86,87,88,,,,,1.3,0.7,1.0*26
$GNGSA,A,3,,,,,,,,,,,,,1.3,0.7,1.0*28
$QZGSA,A,3,,,,,,,,,,,,,1.3,0.7,1.0*2A
$BDGSA,A,3,206,214,227,228,236,237,,,,,,,1.3,0.7,1.0*2A
$GAGSA,A,3,102,104,112,119,124,125,136,,,,,,1.3,0.7,1.0*1F
$GIGSA,A,3,,,,,,,,,,,,,1.3,0.7,1.0*2F
$GPRMC,141950.00,A,4825.070813,N,00428.413779,W,002.4,237.5,140621,,,A*46
$GPGGA,141951.00,4825.070484,N,00428.414639,W,1,35,0.2,87.2,M,52.2,M,,*4C
$GPGSV,4,1,13,08,86,145,43,21,61,272,47,27,50,123,44,10,39,055,34*73
$GPGSV,4,2,13,01,36,261,47,22,29,201,44,32,18,103,42,14,15,322,43*7E
$GPGSV,4,3,13,23,09,040,29,16,08,172,35,30,05,291,42,28,03,330,*75
$GPGSV,4,4,13,03,03,205,*4C
$GLGSV,2,1,08,87,67,010,45,72,45,114,48,88,42,299,46,71,35,045,34*6C
$GLGSV,2,2,08,78,33,283,46,65,19,160,33,86,18,086,27,77,16,226,27*6D
$BDGSV,3,1,11,228,76,075,41,227,44,293,44,214,43,072,32,206,13,048,28*6F
$BDGSV,3,2,11,209,11,074,17,205,10,110,,237,10,229,29,236,09,329,41*67
$BDGSV,3,3,11,211,00,103,,233,50,114,,216,14,053,*6D
$GAGSV,3,1,09,125,40,236,47,112,35,075,31,136,33,272,42,102,33,301,43*62
$GAGSV,3,2,09,119,25,062,27,104,23,125,42,124,09,188,36,130,01,338,*6A
$GAGSV,3,3,09,111,67,057,*63
$GPGSA,A,3,01,08,10,14,16,21,22,23,27,30,32,,1.3,0.7,1.0*39
$GNGSA,A,3,01,08,10,14,16,21,22,23,27,30,32,,1.3,0.7,1.0*27
$GNGSA,A,3,65,71,72,77,78,86,87,88,,,,,1.3,0.7,1.0*26
$GNGSA,A,3,,,,,,,,,,,,,1.3,0.7,1.0*28
$QZGSA,A,3,,,,,,,,,,,,,1.3,0.7,1.0*2A
$BDGSA,A,3,206,209,214,227,228,236,237,,,,,,1.3,0.7,1.0*11
$GAGSA,A,3,102,104,112,119,124,125,136,,,,,,1.3,0.7,1.0*1F
$GIGSA,A,3,,,,,,,,,,,,,1.3,0.7,1.0*2F
$GPRMC,141951.00,A,4825.070484,N,00428.414639,W,002.4,240.1,140621,,,A*43
$GPGGA,141952.00,4825.070148,N,00428.415673,W,1,35,0.2,87.3,M,52.2,M,,*44
$GPGSV,4,1,13,08,86,145,43,21,61,272,47,27,50,123,44,10,39,055,35*72
$GPGSV,4,2,13,01,36,261,47,22,29,201,43,32,18,103,41,14,15,322,43*7A
$GPGSV,4,3,13,23,09,040,30,16,08,172,34,30,05,291,42,28,03,330,*7C
$GPGSV,4,4,13,03,03,205,*4C
$GLGSV,2,1,08,87,67,010,45,72,45,114,47,88,42,299,46,71,35,045,34*63
$GLGSV,2,2,08,78,33,283,48,65,19,160,36,86,18,086,27,77,16,226,26*67
$BDGSV,3,1,11,228,76,075,41,227,44,293,44,214,43,072,32,206,13,048,29*6E
$BDGSV,3,2,11,209,11,074,19,205,10,110,,237,10,229,28,236,09,329,42*6B
$BDGSV,3,3,11,211,00,103,,233,50,114,,216,14,053,*6D
$GAGSV,3,1,09,125,40,236,47,112,35,075,30,136,33,272,44,102,33,301,43*65
$GAGSV,3,2,09,119,25,062,28,104,23,125,41,124,09,188,36,130,01,338,*66
$GAGSV,3,3,09,111,67,057,*63
$GPGSA,A,3,01,08,10,14,16,21,22,23,27,30,32,,1.3,0.8,1.0*36
$GNGSA,A,3,01,08,10,14,16,21,22,23,27,30,32,,1.3,0.8,1.0*28
$GNGSA,A,3,65,71,72,77,78,86,87,88,,,,,1.3,0.8,1.0*29
$GNGSA,A,3,,,,,,,,,,,,,1.3,0.8,1.0*27
$QZGSA,A,3,,,,,,,,,,,,,1.3,0.8,1.0*25
$BDGSA,A,3,206,209,214,227,228,236,237,,,,,,1.3,0.8,1.0*1E
$GAGSA,A,3,102,104,112,119,124,125,136,,,,,,1.3,0.8,1.0*10
$GIGSA,A,3,,,,,,,,,,,,,1.3,0.8,1.0*20
$GPRMC,141952.00,A,4825.070148,N,00428.415673,W,002.4,246.9,140621,,,A*44
$GPGGA,141953.00,4825.069866,N,00428.416743,W,1,35,0.2,87.4,M,52.2,M,,*4E
$GPGSV,4,1,13,08,86,145,43,21,62,272,47,27,50,123,44,10,39,055,37*73
$GPGSV,4,2,13,01,36,261,47,22,29,201,42,32,18,103,41,14,15,322,43*7B
$GPGSV,4,3,13,23,09,040,31,16,08,172,33,30,05,291,44,28,03,330,*7C
$GPGSV,4,4,13,03,03,205,*4C
$GLGSV,2,1,08,87,67,010,45,72,45,114,47,88,42,299,46,71,35,045,36*61
$GLGSV,2,2,08,78,33,283,48,65,19,160,39,86,18,086,26,77,16,226,26*69
$BDGSV,3,1,11,228,76,075,41,227,44,293,44,214,43,072,32,206,13,048,31*67
$BDGSV,3,2,11,209,11,074,19,205,10,110,,237,10,229,28,236,09,329,41*68
$BDGSV,3,3,11,211,00,103,,233,50,114,,216,14,053,*6D
$GAGSV,3,1,09,125,40,236,47,112,35,075,29,136,33,272,44,102,33,301,43*6D
$GAGSV,3,2,09,119,25,062,28,104,23,125,41,124,09,188,35,130,01,338,*65
$GAGSV,3,3,09,111,67,057,*63
$GPGSA,A,3,01,08,10,14,16,21,22,23,27,30,32,,1.3,0.8,1.0*36
$GNGSA,A,3,01,08,10,14,16,21,22,23,27,30,32,,1.3,0.8,1.0*28
$GNGSA,A,3,65,71,72,77,78,86,87,88,,,,,1.3,0.8,1.0*29
$GNGSA,A,3,,,,,,,,,,,,,1.3,0.8,1.0*27
$QZGSA,A,3,,,,,,,,,,,,,1.3,0.8,1.0*25
$BDGSA,A,3,206,209,214,227,228,236,237,,,,,,1.3,0.8,1.0*1E
$GAGSA,A,3,102,104,112,119,124,125,136,,,,,,1.3,0.8,1.0*10
$GIGSA,A,3,,,,,,,,,,,,,1.3,0.8,1.0*20
$GPRMC,141953.00,A,4825.069866,N,00428.416743,W,002.4,248.9,140621,,,A*47
$GPGGA,141954.00,4825.069580,N,00428.417618,W,1,35,0.2,87.5,M,52.2,M,,*43
$GPGSV,4,1,13,08,86,145,43,21,62,272,46,27,50,123,43,10,39,055,37*75
$GPGSV,4,2,13,01,36,261,47,22,29,201,41,32,18,103,40,14,15,322,44*7E
$GPGSV,4,3,13,23,09,040,32,16,08,172,33,30,05,291,44,28,03,330,*7F
$GPGSV,4,4,13,03,03,205,*4C
$GLGSV,2,1,08,87,67,010,45,72,45,114,46,88,42,299,46,71,35,045,39*6F
$GLGSV,2,2,08,78,33,283,48,65,19,160,40,86,18,086,26,77,16,226,26*67
$BDGSV,3,1,11,228,76,075,41,227,44,293,45,214,43,072,32,206,13,048,31*66
$BDGSV,3,2,11,209,11,074,19,205,10,110,,237,10,229,28,236,09,329,41*68
$BDGSV,3,3,11,211,00,103,,233,50,114,,216,14,053,*6D
$GAGSV,3,1,09,125,40,236,47,112,35,075,28,136,33,272,46,102,33,301,42*6F
$GAGSV,3,2,09,119,25,062,28,104,23,125,41,124,09,188,35,130,01,338,*65
$GAGSV,3,3,09,111,67,057,*63
$GPGSA,A,3,01,08,10,14,16,21,22,23,27,30,32,,1.3,0.8,1.0*36
$GNGSA,A,3,01,08,10,14,16,21,22,23,27,30,32,,1.3,0.8,1.0*28
$GNGSA,A,3,65,71,72,77,78,86,87,88,,,,,1.3,0.8,1.0*29
$GNGSA,A,3,,,,,,,,,,,,,1.3,0.8,1.0*27
$QZGSA,A,3,,,,,,,,,,,,,1.3,0.8,1.0*25
$BDGSA,A,3,206,209,214,227,228,236,237,,,,,,1.3,0.8,1.0*1E
$GAGSA,A,3,102,104,112,119,124,125,136,,,,,,1.3,0.8,1.0*10
$GIGSA,A,3,,,,,,,,,,,,,1.3,0.8,1.0*20
$GPRMC,141954.00,A,4825.069580,N,00428.417618,W,002.4,248.5,140621,,,A*47
$GPGGA,141955.00,4825.069286,N,00428.418619,W,1,35,0.2,87.6,M,52.2,M,,*4E
$GPGSV,4,1,13,08,86,145,43,21,62,272,46,27,50,123,43,10,39,055,37*75
$GPGSV,4,2,13,01,36,261,47,22,29,201,40,32,18,103,40,14,15,322,44*7F
$GPGSV,4,3,13,23,09,040,32,16,08,172,32,30,05,291,44,28,03,330,*7E
$GPGSV,4,4,13,03,03,205,*4C
$GLGSV,2,1,08,87,67,010,45,72,45,114,46,88,42,299,45,71,35,045,39*6C
$GLGSV,2,2,08,78,33,283,48,65,19,160,39,86,18,086,26,77,16,226,25*6A
$BDGSV,3,1,11,228,76,075,41,227,44,293,45,214,43,072,31,206,13,048,33*67
$BDGSV,3,2,11,209,11,074,18,205,10,110,19,237,10,229,28,236,09,329,41*61
$BDGSV,3,3,11,211,00,103,,233,50,114,,216,14,053,*6D
$GAGSV,3,1,09,125,40,236,47,112,35,075,28,136,33,272,46,102,33,301,42*6F
$GAGSV,3,2,09,119,25,062,27,104,23,125,40,124,09,188,34,130,01,338,*6A
$GAGSV,3,3,09,111,67,057,*63
$GPGSA,A,3,01,08,10,14,16,21,22,23,27,30,32,,1.3,0.8,1.1*37
$GNGSA,A,3,01,08,10,14,16,21,22,23,27,30,32,,1.3,0.8,1.1*29
$GNGSA,A,3,65,71,72,77,78,86,87,88,,,,,1.3,0.8,1.1*28
$GNGSA,A,3,,,,,,,,,,,,,1.3,0.8,1.1*26
$QZGSA,A,3,,,,,,,,,,,,,1.3,0.8,1.1*24
$BDGSA,A,3,206,209,214,227,228,236,237,,,,,,1.3,0.8,1.1*1F
$GAGSA,A,3,102,104,112,119,124,125,136,,,,,,1.3,0.8,1.1*11
$GIGSA,A,3,,,,,,,,,,,,,1.3,0.8,1.1*21
$GPRMC,141955.00,A,4825.069286,N,00428.418619,W,002.4,247.1,140621,,,A*42
$GPGGA,141956.00,4825.068997,N,00428.419644,W,1,36,0.2,87.7,M,52.2,M,,*4C
$GPGSV,4,1,13,08,86,145,43,21,62,272,47,27,50,123,43,10,39,055,37*74
$GPGSV,4,2,13,01,36,261,48,22,29,201,39,32,18,103,39,14,15,322,43*77
$GPGSV,4,3,13,23,09,040,32,16,08,172,32,30,05,291,44,28,03,330,*7E
$GPGSV,4,4,13,03,03,205,*4C
$GLGSV,2,1,08,87,67,010,45,72,45,114,45,88,42,299,45,71,35,045,39*6F
$GLGSV,2,2,08,78,33,283,48,65,19,160,39,86,18,086,27,77,16,226,25*6B
$BDGSV,3,1,11,228,76,075,41,227,44,293,44,214,43,072,31,206,13,048,33*66
$BDGSV,3,2,11,209,11,074,19,205,10,110,19,237,10,229,27,236,09,329,44*6A
$BDGSV,3,3,11,211,00,103,,233,50,114,,216,14,053,*6D
$GAGSV,3,1,09,125,40,236,47,112,35,075,28,136,33,272,45,102,33,301,42*6C
$GAGSV,3,2,09,119,25,062,29,104,23,125,39,124,09,188,33,130,01,338,*6D
$GAGSV,3,3,09,111,67,057,*63
$GPGSA,A,3,01,08,10,14,16,21,22,23,27,30,32,,1.3,0.8,1.0*36
$GNGSA,A,3,01,08,10,14,16,21,22,23,27,30,32,,1.3,0.8,1.0*28
$GNGSA,A,3,65,71,72,77,78,86,87,88,,,,,1.3,0.8,1.0*29
$GNGSA,A,3,,,,,,,,,,,,,1.3,0.8,1.0*27
$QZGSA,A,3,,,,,,,,,,,,,1.3,0.8,1.0*25
$BDGSA,A,3,205,206,209,214,227,228,236,237,,,,,1.3,0.8,1.0*29
$GAGSA,A,3,102,104,112,119,124,125,136,,,,,,1.3,0.8,1.0*10
$GIGSA,A,3,,,,,,,,,,,,,1.3,0.8,1.0*20
$GPRMC,141956.00,A,4825.068997,N,00428.419644,W,002.4,252.5,140621,,,A*42
$GPGGA,141957.00,4825.068694,N,00428.420623,W,1,36,0.2,87.7,M,52.2,M,,*4A
$GPGSV,4,1,13,08,86,145,42,21,62,272,47,27,50,123,43,10,39,055,38*7A
$GPGSV,4,2,13,01,36,261,48,22,29,201,38,32,18,103,39,14,15,322,43*76
$GPGSV,4,3,13,23,09,040,33,16,08,172,31,30,05,291,44,28,03,330,*7C
$GPGSV,4,4,13,03,03,205,*4C
$GLGSV,2,1,08,87,67,010,45,72,45,114,45,88,42,299,45,71,35,045,40*61
$GLGSV,2,2,08,78,33,283,48,65,19,160,39,86,18,086,27,77,16,226,25*6B
$BDGSV,3,1,11,228,76,075,41,227,44,293,44,214,43,072,31,206,13,048,34*61
$BDGSV,3,2,11,209,11,074,21,205,10,110,20,237,10,229,27,236,09,329,44*6B
$BDGSV,3,3,11,211,00,103,,233,50,114,,216,14,053,*6D
$GAGSV,3,1,09,125,40,236,46,112,35,075,28,136,33,272,44,102,33,301,42*6C
$GAGSV,3,2,09,119,25,062,29,104,23,125,38,124,09,188,32,130,01,338,*6D
$GAGSV,3,3,09,111,67,057,*63
$GPGSA,A,3,01,08,10,14,16,21,22,23,27,30,32,,1.3,0.8,1.0*36
$GNGSA,A,3,01,08,10,14,16,21,22,23,27,30,32,,1.3,0.8,1.0*28
$GNGSA,A,3,65,71,72,77,78,86,87,88,,,,,1.3,0.8,1.0*29
$GNGSA,A,3,,,,,,,,,,,,,1.3,0.8,1.0*27
$QZGSA,A,3,,,,,,,,,,,,,1.3,0.8,1.0*25
$BDGSA,A,3,205,206,209,214,227,228,236,237,,,,,1.3,0.8,1.0*29
$GAGSA,A,3,102,104,112,119,124,125,136,,,,,,1.3,0.8,1.0*10
$GIGSA,A,3,,,,,,,,,,,,,1.3,0.8,1.0*20
$GPRMC,141957.00,A,4825.068694,N,00428.420623,W,002.4,251.0,140621,,,A*42
$GPGGA,141958.00,4825.068429,N,00428.421632,W,1,35,0.2,87.9,M,52.2,M,,*4D
$GPGSV,4,1,13,08,86,145,42,21,62,272,47,27,50,123,42,10,39,055,37*74
$GPGSV,4,2,13,01,36,261,49,22,29,201,38,32,18,103,38,14,15,322,43*76
$GPGSV,4,3,13,23,09,040,34,16,08,172,31,30,05,291,44,28,03,330,*7B
$GPGSV,4,4,13,03,03,205,*4C
$GLGSV,2,1,08,87,67,010,45,72,46,114,45,88,42,299,45,71,35,045,40*62
$GLGSV,2,2,08,78,33,283,48,65,19,160,39,86,18,086,27,77,16,226,24*6A
$BDGSV,3,1,11,228,76,075,41,227,44,293,43,214,43,072,31,206,13,048,34*66
$BDGSV,3,2,11,209,11,074,21,205,10,110,19,237,10,229,27,236,09,329,43*66
$BDGSV,3,3,11,211,00,103,,233,50,114,,216,14,053,*6D
$GAGSV,3,1,09,125,40,236,46,112,35,075,27,136,33,272,44,102,33,301,42*63
$GAGSV,3,2,09,119,25,062,29,104,23,125,37,124,09,188,31,130,01,338,*61
$GAGSV,3,3,09,111,67,057,*63
$GPGSA,A,3,01,08,10,14,16,21,22,23,27,30,32,,1.3,0.8,1.0*36
$GNGSA,A,3,01,08,10,14,16,21,22,23,27,30,32,,1.3,0.8,1.0*28
$GNGSA,A,3,65,71,72,77,78,86,87,88,,,,,1.3,0.8,1.0*29
$GNGSA,A,3,,,,,,,,,,,,,1.3,0.8,1.0*27
$QZGSA,A,3,,,,,,,,,,,,,1.3,0.8,1.0*25
$BDGSA,A,3,206,209,214,227,228,236,237,,,,,,1.3,0.8,1.0*1E
$GAGSA,A,3,102,104,112,119,124,125,136,,,,,,1.3,0.8,1.0*10
$GIGSA,A,3,,,,,,,,,,,,,1.3,0.8,1.0*20
$GPRMC,141958.00,A,4825.068429,N,00428.421632,W,002.4,249.8,140621,,,A*49
$GPGGA,141959.00,4825.068089,N,00428.422732,W,1,35,0.3,87.9,M,52.2,M,,*41
$GPGSV,4,1,13,08,86,145,42,21,62,272,47,27,50,123,42,10,39,055,38*7B
$GPGSV,4,2,13,01,36,261,49,22,29,201,39,32,18,103,38,14,15,322,42*76
$GPGSV,4,3,13,23,09,040,34,16,08,172,31,30,05,291,47,28,03,330,*78
$GPGSV,4,4,13,03,03,205,*4C
$GLGSV,2,1,08,87,67,010,45,72,46,114,45,88,42,299,45,71,35,045,41*63
$GLGSV,2,2,08,78,33,283,48,65,19,160,39,86,18,086,27,77,16,226,24*6A
$BDGSV,3,1,11,228,76,075,40,227,44,293,43,214,43,072,31,206,13,048,34*67
$BDGSV,3,2,11,209,11,074,21,205,10,110,,237,10,229,27,236,09,329,43*6E
$BDGSV,3,3,11,211,00,103,,233,50,114,,216,14,053,*6D
$GAGSV,3,1,09,125,40,236,45,112,35,075,27,136,33,272,43,102,33,301,44*61
$GAGSV,3,2,09,119,25,062,29,104,23,125,36,124,09,188,30,130,01,338,*61
$GAGSV,3,3,09,111,67,057,*63
$GPGSA,A,3,01,08,10,14,16,21,22,23,27,30,32,,1.3,0.8,1.1*37
$GNGSA,A,3,01,08,10,14,16,21,22,23,27,30,32,,1.3,0.8,1.1*29
$GNGSA,A,3,65,71,72,77,78,86,87,88,,,,,1.3,0.8,1.1*28
$GNGSA,A,3,,,,,,,,,,,,,1.3,0.8,1.1*26
$QZGSA,A,3,,,,,,,,,,,,,1.3,0.8,1.1*24
$BDGSA,A,3,206,209,214,227,228,236,237,,,,,,1.3,0.8,1.1*1F
$GAGSA,A,3,102,104,112,119,124,125,136,,,,,,1.3,0.8,1.1*11
$GIGSA,A,3,,,,,,,,,,,,,1.3,0.8,1.1*21
$GPRMC,141959.00,A,4825.068089,N,00428.422732,W,002.4,249.8,140621,,,A*44
$GPGGA,142000.00,4825.067817,N,00428.423843,W,1,36,0.3,87.8,M,52.2,M,,*4D
$GPGSV,4,1,13,08,86,145,42,21,62,272,47,27,50,123,42,10,39,055,41*75
$GPGSV,4,2,13,01,36,261,49,22,29,201,40,32,18,103,38,14,15,322,42*78
$GPGSV,4,3,13,23,09,040,34,16,08,172,30,30,05,291,47,28,03,330,*79
$GPGSV,4,4,13,03,03,205,*4C
$GLGSV,2,1,08,87,67,010,46,72,46,114,44,88,42,299,45,71,35,045,41*61
$GLGSV,2,2,08,78,33,283,48,65,19,160,38,86,18,086,27,77,16,226,24*6B
$BDGSV,3,1,11,228,76,075,40,227,44,293,43,214,43,072,30,206,13,048,34*66
$BDGSV,3,2,11,209,11,074,21,205,10,110,19,237,10,229,26,236,09,329,43*67
$BDGSV,3,3,11,211,00,103,,233,50,114,,216,14,053,*6D
$GAGSV,3,1,09,125,40,236,45,112,35,075,27,136,33,272,43,102,33,301,43*66
$GAGSV,3,2,09,119,25,062,29,104,23,125,35,124,09,188,29,130,01,338,*6A
$GAGSV,3,3,09,111,67,057,*63
$GPGSA,A,3,01,08,10,14,16,21,22,23,27,30,32,,1.3,0.8,1.1*37
$GNGSA,A,3,01,08,10,14,16,21,22,23,27,30,32,,1.3,0.8,1.1*29
$GNGSA,A,3,65,71,72,77,78,86,87,88,,,,,1.3,0.8,1.1*28
$GNGSA,A,3,,,,,,,,,,,,,1.3,0.8,1.1*26
$QZGSA,A,3,,,,,,,,,,,,,1.3,0.8,1.1*24
$BDGSA,A,3,205,206,209,214,227,228,236,237,,,,,1.3,0.8,1.1*28
$GAGSA,A,3,102,104,112,119,124,125,136,,,,,,1.3,0.8,1.1*11
$GIGSA,A,3,,,,,,,,,,,,,1.3,0.8,1.1*21
$GPRMC,142000.00,A,4825.067817,N,00428.423843,W,002.4,256.4,140621,,,A*48
$GPGGA,142001.00,4825.067587,N,00428.424976,W,1,35,0.3,87.8,M,52.2,M,,*4B
$GPGSV,4,1,13,08,86,145,42,21,62,272,47,27,49,124,42,10,39,055,42*79
$GPGSV,4,2,13,01,36,261,50,22,29,201,40,32,18,103,37,14,15,322,41*7C
$GPGSV,4,3,13,23,09,040,38,16,08,172,30,30,05,291,46,28,03,330,*74
$GPGSV,4,4,13,03,03,205,*4C
$GLGSV,2,1,08,87,67,010,46,72,46,114,44,88,42,299,45,71,35,045,41*61
$GLGSV,2,2,08,78,33,283,48,65,19,160,38,86,18,086,27,77,16,226,25*6A
$BDGSV,3,1,11,228,76,076,40,227,44,293,43,214,43,072,30,206,13,048,34*65
$BDGSV,3,2,11,209,11,074,21,205,10,110,18,237,10,229,26,236,09,329,43*66
$BDGSV,3,3,11,211,00,103,,233,50,114,,216,14,053,*6D
$GAGSV,3,1,09,125,39,236,45,112,35,075,27,136,33,272,42,102,33,301,43*69
$GAGSV,3,2,09,119,25,062,32,104,23,125,34,124,09,188,28,130,01,338,*60
$GAGSV,3,3,09,111,67,058,*6C
$GPGSA,A,3,01,08,10,14,16,21,22,23,27,30,32,,1.2,0.7,1.0*38
$GNGSA,A,3,01,08,10,14,16,21,22,23,27,30,32,,1.2,0.7,1.0*26
$GNGSA,A,3,65,71,72,77,78,86,87,88,,,,,1.2,0.7,1.0*27
$GNGSA,A,3,,,,,,,,,,,,,1.2,0.7,1.0*29
$QZGSA,A,3,,,,,,,,,,,,,1.2,0.7,1.0*2B
$BDGSA,A,3,206,209,214,227,228,236,237,,,,,,1.2,0.7,1.0*10
$GAGSA,A,3,102,104,112,119,124,125,136,,,,,,1.2,0.7,1.0*1E
$GIGSA,A,3,,,,,,,,,,,,,1.2,0.7,1.0*2E
$GPRMC,142001.00,A,4825.067587,N,00428.424976,W,002.4,255.8,140621,,,A*42
$GPGGA,142002.00,4825.067275,N,00428.426132,W,1,35,0.3,88.0,M,52.2,M,,*4F
$GPGSV,4,1,13,08,86,145,42,21,62,272,47,27,49,124,42,10,39,055,42*79
$GPGSV,4,2,13,01,36,261,49,22,29,201,44,32,18,103,37,14,15,322,41*70
$GPGSV,4,3,13,23,09,040,39,16,08,172,29,30,05,291,46,28,03,330,*7D
$GPGSV,4,4,13,03,03,205,*4C
$GLGSV,2,1,08,87,67,010,46,72,46,114,44,88,42,299,46,71,35,045,42*61
$GLGSV,2,2,08,78,33,283,48,65,19,160,37,86,18,086,28,77,16,226,26*69
$BDGSV,3,1,11,228,76,075,40,227,44,293,42,214,43,072,30,206,13,048,34*67
$BDGSV,3,2,11,209,11,074,22,205,10,110,,237,10,229,26,236,09,329,43*6C
$BDGSV,3,3,11,211,00,103,,233,50,114,,216,14,053,*6D
$GAGSV,3,1,09,125,39,236,44,112,35,075,26,136,33,272,42,102,33,301,43*69
$GAGSV,3,2,09,119,25,062,31,104,23,125,33,124,09,188,27,130,01,338,*6B
$GAGSV,3,3,09,111,67,058,*6C
$GPGSA,A,3,01,08,10,14,16,21,22,23,27,30,32,,1.4,0.8,1.2*33
$GNGSA,A,3,01,08,10,14,16,21,22,23,27,30,32,,1.4,0.8,1.2*2D
$GNGSA,A,3,65,71,72,77,78,86,87,88,,,,,1.4,0.8,1.2*2C
$GNGSA,A,3,,,,,,,,,,,,,1.4,0.8,1.2*22
$QZGSA,A,3,,,,,,,,,,,,,1.4,0.8,1.2*20
$BDGSA,A,3,206,209,214,227,228,236,237,,,,,,1.4,0.8,1.2*1B
$GAGSA,A,3,102,104,112,119,124,125,136,,,,,,1.4,0.8,1.2*15
$GIGSA,A,3,,,,,,,,,,,,,1.4,0.8,1.2*25
$GPRMC,142002.00,A,4825.067275,N,00428.426132,W,002.4,256.6,140621,,,A*4C
$GPGGA,142003.00,4825.067117,N,00428.427172,W,1,35,0.3,88.0,M,52.2,M,,*4C
$GPGSV,4,1,13,08,86,145,42,21,62,272,47,27,49,124,42,10,39,055,42*79
$GPGSV,4,2,13,01,36,261,49,22,29,201,45,32,18,103,36,14,15,322,41*70
