$GPGSA,A,3,29,31,25,26,02,12,18,32,,,,,1.6,1.0,1.3*35
$GPGSV,3,1,12,29,81,121,40,31,61,287,46,25,51,085,28,26,26,282,43*7D
$GPGSV,3,1,12,29,81,121,40,31,61,287,46,25,51,085,28,26,26,282,43*7D
$GPGSV,3,2,12,02,17,039,14,12,15,089,30,18,13,164,32,32,12,215,39*72
$GPGSV,3,2,12,02,17,039,14,12,15,089,30,18,13,164,32,32,12,215,39*72
$GPGSV,3,3,12,57,68,131,,58,68,131,,59,68,131,,07,36,053,*70
$GPGSV,3,3,12,57,68,131,,58,68,131,,59,68,131,,07,36,053,*70
$GPRMC,085810.000,A,4825.1423,N,00428.4543,W,0.01,0.00,020621,,,A*79
$GPGGA,085811.000,4825.1423,N,00428.4543,W,1,08,1.0,90.2,M,52.0,M,,0000*79
$GPGSA,A,3,29,31,25,26,02,12,18,32,,,,,1.6,1.0,1.3*35
$GPRMC,085811.000,A,4825.1423,N,00428.4543,W,0.00,0.00,020621,,,A*79
$GPGGA,085812.000,4825.1423,N,00428.4543,W,1,08,1.0,90.2,M,52.0,M,,0000*7A
$GPGSA,A,3,29,31,25,26,02,12,18,32,,,,,1.6,1.0,1.3*35
$GPRMC,085812.000,A,4825.1423,N,00428.4543,W,0.00,0.00,020621,,,A*7A
$GPGGA,085813.000,4825.1423,N,00428.4543,W,1,08,1.0,90.3,M,52.0,M,,0000*7A
$GPGSA,A,3,29,31,25,26,02,12,18,32,,,,,1.6,1.0,1.3*35
$GPRMC,085813.000,A,4825.1423,N,00428.4543,W,0.02,0.00,020621,,,A*79
$GPGGA,085814.000,4825.1423,N,00428.4543,W,1,08,1.0,90.3,M,52.0,M,,0000*7D
$GPGSA,A,3,29,31,25,26,02,12,18,32,,,,,1.6,1.0,1.3*35
$GPRMC,085814.000,A,4825.1423,N,00428.4543,W,0.00,0.00,020621,,,A*7C
$GPGGA,085815.000,4825.1423,N,00428.4543,W,1,08,1.0,90.3,M,52.0,M,,0000*7C
$GPGSA,A,3,29,31,25,26,02,12,18,32,,,,,1.6,1.0,1.3*35
$GPGSV,3,1,12,29,81,121,39,31,61,287,46,25,51,085,33,26,26,282,42*78
$GPGSV,3,1,12,29,81,121,39,31,61,287,46,25,51,085,33,26,26,282,42*78
$GPGSV,3,2,12,02,17,039,29,12,15,089,35,18,13,164,33,32,12,215,37*76
$GPGSV,3,2,12,02,17,039,29,12,15,089,35,18,13,164,33,32,12,215,37*76
$GPGSV,3,3,12,57,68,131,,58,68,131,,59,68,131,,07,36,053,*70
$GPGSV,3,3,12,57,68,131,,58,68,131,,59,68,131,,07,36,053,*70
$GPRMC,085815.000,A,4825.1423,N,00428.4543,W,0.00,0.00,020621,,,A*7D
$GPGGA,085816.000,4825.1423,N,00428.4543,W,1,08,1.0,90.3,M,52.0,M,,0000*7F
$GPGSA,A,3,29,31,25,26,02,12,18,32,,,,,1.6,1.0,1.3*35
$GPRMC,085816.000,A,4825.1423,N,00428.4543,W,0.00,0.00,020621,,,A*7E
$GPGGA,085817.000,4825.1423,N,00428.4543,W,1,08,1.0,90.3,M,52.0,M,,0000*7E
$GPGSA,A,3,29,31,25,26,02,12,18,32,,,,,1.6,1.0,1.3*35
$GPRMC,085817.000,A,4825.1423,N,00428.4543,W,0.00,0.00,020621,,,A*7F
$GPGGA,085818.000,4825.1424,N,00428.4545,W,1,08,1.0,90.3,M,52.0,M,,0000*70
$GPGSA,A,3,29,31,25,26,02,12,18,32,,,,,1.6,1.0,1.3*35
$GPRMC,085818.000,A,4825.1424,N,00428.4545,W,0.74,0.00,020621,,,A*72
$GPGGA,085819.000,4825.1425,N,00428.4550,W,1,08,1.0,90.3,M,52.0,M,,0000*74
$GPGSA,A,3,29,31,25,26,02,12,18,32,,,,,1.6,1.0,1.3*35
$GPRMC,085819.000,A,4825.1425,N,00428.4550,W,1.53,287.80,020621,,,A*77
$GPGGA,085820.000,4825.1427,N,00428.4557,W,1,08,1.0,90.3,M,52.0,M,,0000*7B
$GPGSA,A,3,29,31,25,26,02,12,18,32,,,,,1.6,1.0,1.3*35
$GPGSV,3,1,12,29,81,121,39,31,61,287,45,25,51,085,34,26,26,282,38*71
$GPGSV,3,1,12,29,81,121,39,31,61,287,45,25,51,085,34,26,26,282,38*71
$GPGSV,3,2,12,02,17,039,31,12,15,089,27,18,13,164,26,32,12,215,37*78
$GPGSV,3,2,12,02,17,039,31,12,15,089,27,18,13,164,26,32,12,215,37*78
$GPGSV,3,3,12,57,68,131,,58,68,131,,59,68,131,,07,36,053,*70
$GPGSV,3,3,12,57,68,131,,58,68,131,,59,68,131,,07,36,053,*70
$GPRMC,085820.000,A,4825.1427,N,00428.4557,W,1.98,290.52,020621,,,A*76
$GPGGA,085821.000,4825.1429,N,00428.4564,W,1,08,1.0,90.3,M,52.0,M,,0000*74
$GPGSA,A,3,29,31,25,26,02,12,18,32,,,,,1.6,1.0,1.3*35
$GPRMC,085821.000,A,4825.1429,N,00428.4564,W,1.95,292.11,020621,,,A*71
$GPGGA,085822.000,4825.1431,N,00428.4572,W,1,08,1.0,90.2,M,52.0,M,,0000*78
$GPGSA,A,3,29,31,25,26,02,12,18,32,,,,,1.6,1.0,1.3*35
$GPRMC,085822.000,A,4825.1431,N,00428.4572,W,2.06,290.59,020621,,,A*7B
$GPGGA,085823.000,4825.1433,N,00428.4581,W,1,08,1.0,90.2,M,52.0,M,,0000*77
$GPGSA,A,3,29,31,25,26,02,12,18,32,,,,,1.6,1.0,1.3*35
$GPRMC,085823.000,A,4825.1433,N,00428.4581,W,2.02,289.89,020621,,,A*75
$GPGGA,085824.000,4825.1435,N,00428.4589,W,1,08,1.0,90.1,M,52.0,M,,0000*7D
$GPGSA,A,3,29,31,25,26,02,12,18,32,,,,,1.6,1.0,1.3*35
$GPRMC,085824.000,A,4825.1435,N,00428.4589,W,2.02,288.44,020621,,,A*7C
$GPGGA,085825.000,4825.1436,N,00428.4598,W,1,08,1.0,90.2,M,52.0,M,,0000*7C
$GPGSA,A,3,29,31,25,26,02,12,18,32,,,,,1.6,1.0,1.3*35
$GPGSV,3,1,12,29,81,121,38,31,61,287,44,25,51,085,34,26,26,282,37*7E
$GPGSV,3,1,12,29,81,121,38,31,61,287,44,25,51,085,34,26,26,282,37*7E
$GPGSV,3,2,12,02,17,039,27,12,15,089,28,18,13,164,28,32,12,215,36*7F
$GPGSV,3,2,12,02,17,039,27,12,15,089,28,18,13,164,28,32,12,215,36*7F
$GPGSV,3,3,12,57,68,131,,58,68,131,,59,68,131,,07,36,053,*70
$GPGSV,3,3,12,57,68,131,,58,68,131,,59,68,131,,07,36,053,*70
$GPRMC,085825.000,A,4825.1436,N,00428.4598,W,2.21,286.20,020621,,,A*73
$GPGGA,085826.000,4825.1436,N,00428.4608,W,1,08,1.0,90.2,M,52.0,M,,0000*75
$GPGSA,A,3,29,31,25,26,02,12,18,32,,,,,1.6,1.0,1.3*35
$GPRMC,085826.000,A,4825.1436,N,00428.4608,W,2.29,282.49,020621,,,A*79
$GPGGA,085827.000,4825.1436,N,00428.4618,W,1,08,1.0,90.1,M,52.0,M,,0000*76
$GPGSA,A,3,29,31,25,26,02,12,18,32,,,,,1.6,1.0,1.3*35
$GPRMC,085827.000,A,4825.1436,N,00428.4618,W,2.35,274.60,020621,,,A*76
$GPGGA,085828.000,4825.1434,N,00428.4627,W,1,08,1.0,90.0,M,52.0,M,,0000*76
$GPGSA,A,3,29,31,25,26,02,12,18,32,,,,,1.6,1.0,1.3*35
$GPRMC,085828.000,A,4825.1434,N,00428.4627,W,2.25,267.70,020621,,,A*75
$GPGGA,085829.000,4825.1431,N,00428.4636,W,1,08,1.0,90.0,M,52.0,M,,0000*72
$GPGSA,A,3,29,31,25,26,02,12,18,32,,,,,1.6,1.0,1.3*35
$GPRMC,085829.000,A,4825.1431,N,00428.4636,W,1.92,254.14,020621,,,A*7C
$GPGGA,085830.000,4825.1427,N,00428.4643,W,1,08,1.0,90.0,M,52.0,M,,0000*7F
$GPGSA,A,3,29,31,25,26,02,12,18,32,,,,,1.6,1.0,1.3*35
$GPGSV,3,1,12,29,81,121,37,31,61,287,43,25,51,085,35,26,26,282,40*77
$GPGSV,3,1,12,29,81,121,37,31,61,287,43,25,51,085,35,26,26,282,40*77
$GPGSV,3,2,12,02,17,039,19,12,15,089,26,18,13,164,37,32,12,215,37*73
$GPGSV,3,2,12,02,17,039,19,12,15,089,26,18,13,164,37,32,12,215,37*73
$GPGSV,3,3,12,57,68,131,,58,68,131,,59,68,131,,07,36,053,*70
$GPGSV,3,3,12,57,68,131,,58,68,131,,59,68,131,,07,36,053,*70
$GPRMC,085830.000,A,4825.1427,N,00428.4643,W,1.92,246.20,020621,,,A*75
$GPGGA,085831.000,4825.1423,N,00428.4650,W,1,08,1.0,90.1,M,52.0,M,,0000*79
$GPGSA,A,3,29,31,25,26,02,12,18,32,,,,,1.6,1.0,1.3*35
$GPRMC,085831.000,A,4825.1423,N,00428.4650,W,2.09,236.01,020621,,,A*77
$GPGGA,085832.000,4825.1418,N,00428.4656,W,1,08,1.0,90.2,M,52.0,M,,0000*77
$GPGSA,A,3,29,31,25,26,02,12,18,32,,,,,1.6,1.0,1.3*35
$GPRMC,085832.000,A,4825.1418,N,00428.4656,W,1.88,231.60,020621,,,A*70
$GPGGA,085833.000,4825.1414,N,00428.4662,W,1,08,1.0,90.3,M,52.0,M,,0000*7C
$GPGSA,A,3,29,31,25,26,02,12,18,32,,,,,1.6,1.0,1.3*35
$GPRMC,085833.000,A,4825.1414,N,00428.4662,W,1.87,226.00,020621,,,A*75
$GPGGA,085834.000,4825.1409,N,00428.4668,W,1,08,1.0,90.4,M,52.0,M,,0000*7A
$GPGSA,A,3,29,31,25,26,02,12,18,32,,,,,1.6,1.0,1.3*35
$GPRMC,085834.000,A,4825.1409,N,00428.4668,W,1.87,223.48,020621,,,A*7D
$GPGGA,085835.000,4825.1405,N,00428.4673,W,1,08,1.0,90.4,M,52.0,M,,0000*7D
$GPGSA,A,3,29,31,25,26,02,12,18,32,,,,,1.6,1.0,1.3*35
$GPGSV,3,1,12,29,81,121,37,31,61,287,43,25,51,085,25,26,26,282,41*77
$GPGSV,3,1,12,29,81,121,37,31,61,287,43,25,51,085,25,26,26,282,41*77
$GPGSV,3,2,12,02,17,039,29,12,15,089,26,18,13,164,38,32,12,215,39*71
$GPGSV,3,2,12,02,17,039,29,12,15,089,26,18,13,164,38,32,12,215,39*71
$GPGSV,3,3,12,57,68,131,,58,68,131,,59,68,131,,07,36,053,*70
$GPGSV,3,3,12,57,68,131,,58,68,131,,59,68,131,,07,36,053,*70
$GPRMC,085835.000,A,4825.1405,N,00428.4673,W,1.97,217.86,020621,,,A*7E
$GPGGA,085836.000,4825.1400,N,00428.4678,W,1,08,1.0,90.5,M,52.0,M,,0000*71
$GPGSA,A,3,29,31,25,26,02,12,18,32,,,,,1.6,1.0,1.3*35
$GPRMC,085836.000,A,4825.1400,N,00428.4678,W,1.84,216.91,020621,,,A*76
$GPGGA,085837.000,4825.1396,N,00428.4682,W,1,08,1.0,90.5,M,52.0,M,,0000*7D
$GPGSA,A,3,29,31,25,26,02,12,18,32,,,,,1.6,1.0,1.3*35
$GPRMC,085837.000,A,4825.1396,N,00428.4682,W,1.79,211.88,020621,,,A*77
$GPGGA,085838.000,4825.1391,N,00428.4685,W,1,08,1.0,90.6,M,52.0,M,,0000*71
$GPGSA,A,3,29,31,25,26,02,12,18,32,,,,,1.6,1.0,1.3*35
$GPRMC,085838.000,A,4825.1391,N,00428.4685,W,1.69,208.32,020621,,,A*70
$GPGGA,085836.000,4825.1386,N,00428.4689,W,1,08,1.0,90.6,M,52.0,M,,0000*75
$GPGSA,A,3,29,31,25,26,02,12,18,32,,,,,1.6,1.0,1.3*35
$GPRMC,085836.000,A,4825.1386,N,00428.4689,W,1.82,207.08,020621,,,A*77
$GPGGA,085837.000,4825.1381,N,00428.4692,W,1,08,1.0,90.6,M,52.0,M,,0000*79
$GPGSA,A,3,29,31,25,26,02,12,18,32,,,,,1.6,1.0,1.3*35
$GPGSV,3,1,12,29,81,121,39,31,61,287,43,25,51,085,27,26,26,282,37*7A
$GPGSV,3,1,12,29,81,121,39,31,61,287,43,25,51,085,27,26,26,282,37*7A
$GPGSV,3,2,12,02,17,039,24,12,15,089,27,18,13,164,38,32,12,215,41*72
$GPGSV,3,2,12,02,17,039,24,12,15,089,27,18,13,164,38,32,12,215,41*72
$GPGSV,3,3,12,57,68,131,,58,68,131,,59,68,131,,07,36,053,*70
$GPGSV,3,3,12,57,68,131,,58,68,131,,59,68,131,,07,36,053,*70
$GPRMC,085837.000,A,4825.1381,N,00428.4692,W,1.97,206.42,020621,,,A*70
$GPGGA,085838.000,4825.1376,N,00428.4696,W,1,08,1.0,90.6,M,52.0,M,,0000*7A
$GPGSA,A,3,29,31,25,26,02,12,18,32,,,,,1.6,1.0,1.3*35
$GPRMC,085838.000,A,4825.1376,N,00428.4696,W,1.97,205.81,020621,,,A*7F
$GPGGA,085839.000,4825.1371,N,00428.4700,W,1,08,1.0,90.6,M,52.0,M,,0000*72
$GPGSA,A,3,29,31,25,26,02,12,18,32,,,,,1.6,1.0,1.3*35
$GPRMC,085839.000,A,4825.1371,N,00428.4700,W,2.02,205.04,020621,,,A*75
$GPGGA,085840.000,4825.1366,N,00428.4703,W,1,08,1.0,90.7,M,52.0,M,,0000*78
$GPGSA,A,3,29,31,25,26,02,12,18,32,,,,,1.6,1.0,1.3*35
$GPRMC,085840.000,A,4825.1366,N,00428.4703,W,1.83,204.72,020621,,,A*74
$GPGGA,085841.000,4825.1361,N,00428.4707,W,1,08,1.0,90.7,M,52.0,M,,0000*7A
$GPGSA,A,3,29,31,25,26,02,12,18,32,,,,,1.6,1.0,1.3*35
$GPRMC,085841.000,A,4825.1361,N,00428.4707,W,1.92,203.97,020621,,,A*7A
$GPGGA,085842.000,4825.1356,N,00428.4710,W,1,08,1.0,90.7,M,52.0,M,,0000*7B
$GPGSA,A,3,29,31,25,26,02,12,18,32,,,,,1.6,1.0,1.3*35
$GPGSV,3,1,12,29,81,121,40,31,61,287,42,25,51,085,26,26,26,282,38*7B
$GPGSV,3,1,12,29,81,121,40,31,61,287,42,25,51,085,26,26,26,282,38*7B
$GPGSV,3,2,12,02,17,039,26,12,15,089,27,18,13,164,32,32,12,215,40*7B
$GPGSV,3,2,12,02,17,039,26,12,15,089,27,18,13,164,32,32,12,215,40*7B
$GPGSV,3,3,12,57,68,131,,58,68,131,,59,68,131,,07,36,053,*70
$GPGSV,3,3,12,57,68,131,,58,68,131,,59,68,131,,07,36,053,*70
$GPRMC,085842.000,A,4825.1356,N,00428.4710,W,1.88,202.58,020621,,,A*72
$GPGGA,085843.000,4825.1351,N,00428.4713,W,1,08,1.0,90.7,M,52.0,M,,0000*7E
$GPGSA,A,3,29,31,25,26,02,12,18,32,,,,,1.6,1.0,1.3*35
$GPRMC,085843.000,A,4825.1351,N,00428.4713,W,1.72,202.74,020621,,,A*7C
$GPGGA,085844.000,4825.1347,N,00428.4716,W,1,08,1.0,90.6,M,52.0,M,,0000*7A
$GPGSA,A,3,29,31,25,26,02,12,18,32,,,,,1.6,1.0,1.3*35
$GPRMC,085844.000,A,4825.1347,N,00428.4716,W,1.86,199.60,020621,,,A*76
$GPGGA,085845.000,4825.1342,N,00428.4719,W,1,08,1.0,90.6,M,52.0,M,,0000*71
$GPGSA,A,3,29,31,25,26,02,12,18,32,,,,,1.6,1.0,1.3*35
$GPRMC,085845.000,A,4825.1342,N,00428.4719,W,1.97,199.33,020621,,,A*7B
$GPGGA,085846.000,4825.1337,N,00428.4721,W,1,08,1.0,90.6,M,52.0,M,,0000*7B
$GPGSA,A,3,29,31,25,26,02,12,18,32,,,,,1.6,1.0,1.3*35
$GPRMC,085846.000,A,4825.1337,N,00428.4721,W,1.93,195.97,020621,,,A*77
$GPGGA,085847.000,4825.1332,N,00428.4724,W,1,08,1.0,90.6,M,52.0,M,,0000*7A
$GPGSA,A,3,29,31,25,26,02,12,18,32,,,,,1.6,1.0,1.3*35
$GPGSV,3,1,12,29,81,121,41,31,61,287,42,25,51,085,39,26,26,282,37*7B
$GPGSV,3,1,12,29,81,121,41,31,61,287,42,25,51,085,39,26,26,282,37*7B
$GPGSV,3,2,12,02,17,039,32,12,15,089,32,18,13,164,34,32,12,215,37*7C
$GPGSV,3,2,12,02,17,039,32,12,15,089,32,18,13,164,34,32,12,215,37*7C
$GPGSV,3,3,12,57,68,131,,58,68,131,,59,68,131,,07,36,053,*70
$GPGSV,3,3,12,57,68,131,,58,68,131,,59,68,131,,07,36,053,*70
$GPRMC,085847.000,A,4825.1332,N,00428.4724,W,1.88,194.30,020621,,,A*70
$GPGGA,085848.000,4825.1327,N,00428.4725,W,1,08,1.0,90.5,M,52.0,M,,0000*73
$GPGSA,A,3,29,31,25,26,02,12,18,32,,,,,1.6,1.0,1.3*35
$GPRMC,085848.000,A,4825.1327,N,00428.4725,W,1.99,188.81,020621,,,A*7D
$GPGGA,085849.000,4825.1321,N,00428.4727,W,1,08,1.0,90.7,M,52.0,M,,0000*74
$GPGSA,A,3,29,31,25,26,02,12,18,32,,,,,1.6,1.0,1.3*35
$GPRMC,085849.000,A,4825.1321,N,00428.4727,W,2.04,190.07,020621,,,A*78
$GPGGA,085850.000,4825.1315,N,00428.4729,W,1,08,1.0,90.6,M,52.0,M,,0000*74
$GPGSA,A,3,29,31,25,26,02,12,18,32,,,,,1.6,1.0,1.3*35
$GPRMC,085850.000,A,4825.1315,N,00428.4729,W,2.06,190.10,020621,,,A*7D
$GPGGA,085851.000,4825.1309,N,00428.4731,W,1,08,1.0,90.6,M,52.0,M,,0000*71
$GPGSA,A,3,29,31,25,26,02,12,18,32,,,,,1.6,1.0,1.3*35
$GPRMC,085851.000,A,4825.1309,N,00428.4731,W,1.98,189.20,020621,,,A*77
$GPGGA,085852.000,4825.1304,N,00428.4732,W,1,08,1.0,90.6,M,52.0,M,,0000*7C
$GPGSA,A,3,29,31,25,26,02,12,18,32,,,,,1.6,1.0,1.3*35
$GPGSV,3,1,12,29,81,121,42,31,61,287,42,25,51,085,36,26,26,282,37*77
$GPGSV,3,1,12,29,81,121,42,31,61,287,42,25,51,085,36,26,26,282,37*77
$GPGSV,3,2,12,02,17,039,31,12,15,089,28,18,13,164,34,32,12,215,38*7B
$GPGSV,3,2,12,02,17,039,31,12,15,089,28,18,13,164,34,32,12,215,38*7B
$GPGSV,3,3,12,57,68,131,,58,68,131,,59,68,131,,07,36,053,*70
$GPGSV,3,3,12,57,68,131,,58,68,131,,59,68,131,,07,36,053,*70
$GPRMC,085852.000,A,4825.1304,N,00428.4732,W,1.93,186.92,020621,,,A*77
$GPGGA,085853.000,4825.1299,N,00428.4733,W,1,08,1.0,90.6,M,52.0,M,,0000*79
$GPGSA,A,3,29,31,25,26,02,12,18,32,,,,,1.6,1.0,1.3*35
$GPRMC,085853.000,A,4825.1299,N,00428.4733,W,1.95,182.81,020621,,,A*72
$GPGGA,085854.000,4825.1294,N,00428.4733,W,1,08,1.0,90.5,M,52.0,M,,0000*70
$GPGSA,A,3,29,31,25,26,02,12,18,32,,,,,1.6,1.0,1.3*35
$GPRMC,085854.000,A,4825.1294,N,00428.4733,W,1.71,180.69,020621,,,A*76
$GPGGA,085855.000,4825.1288,N,00428.4734,W,1,08,1.0,90.7,M,52.0,M,,0000*79
$GPGSA,A,3,29,31,25,26,02,12,18,32,,,,,1.6,1.0,1.3*35
$GPRMC,085855.000,A,4825.1288,N,00428.4734,W,2.08,176.64,020621,,,A*74
$GPGGA,085856.000,4825.1282,N,00428.4734,W,1,08,1.0,90.8,M,52.0,M,,0000*7F
$GPGSA,A,3,29,31,25,26,02,12,18,32,,,,,1.6,1.0,1.3*35
$GPRMC,085856.000,A,4825.1282,N,00428.4734,W,2.00,180.06,020621,,,A*78
$GPGGA,085857.000,4825.1276,N,00428.4735,W,1,08,1.0,90.8,M,52.0,M,,0000*74
$GPGSA,A,3,29,31,25,26,02,12,18,32,,,,,1.6,1.0,1.3*35
$GPGSV,3,1,12,29,81,121,42,31,61,287,42,25,51,085,37,26,26,282,31*70
$GPGSV,3,1,12,29,81,121,42,31,61,287,42,25,51,085,37,26,26,282,31*70
$GPGSV,3,2,12,02,17,039,31,12,15,089,32,18,13,164,34,32,12,215,39*71
$GPGSV,3,2,12,02,17,039,31,12,15,089,32,18,13,164,34,32,12,215,39*71
$GPGSV,3,3,12,57,68,131,,58,68,131,,59,68,131,,07,36,053,*70
$GPGSV,3,3,12,57,68,131,,58,68,131,,59,68,131,,07,36,053,*70
$GPRMC,085857.000,A,4825.1276,N,00428.4735,W,2.06,177.91,020621,,,A*73
$GPGGA,085858.000,4825.1270,N,00428.4735,W,1,08,1.0,90.9,M,52.0,M,,0000*7C
$GPGSA,A,3,29,31,25,26,02,12,18,32,,,,,1.6,1.0,1.3*35
$GPRMC,085858.000,A,4825.1270,N,00428.4735,W,1.89,174.38,020621,,,A*7E
$GPGGA,085859.000,4825.1265,N,00428.4734,W,1,08,1.0,90.9,M,52.0,M,,0000*78
$GPGSA,A,3,29,31,25,26,02,12,18,32,,,,,1.6,1.0,1.3*35
$GPRMC,085859.000,A,4825.1265,N,00428.4734,W,1.92,179.03,020621,,,A*75
$GPGGA,085900.000,4825.1260,N,00428.4734,W,1,08,1.0,90.8,M,52.0,M,,0000*71
$GPGSA,A,3,29,31,25,26,02,12,18,32,,,,,1.6,1.0,1.3*35
$GPRMC,085900.000,A,4825.1260,N,00428.4734,W,2.00,174.17,020621,,,A*7D
$GPGGA,085901.000,4825.1254,N,00428.4733,W,1,08,1.0,90.9,M,52.0,M,,0000*71
$GPGSA,A,3,29,31,25,26,02,12,18,32,,,,,1.6,1.0,1.3*35
$GPRMC,085901.000,A,4825.1254,N,00428.4733,W,2.19,173.11,020621,,,A*75
$GPGGA,085902.000,4825.1248,N,00428.4732,W,1,08,1.0,90.8,M,52.0,M,,0000*7F
$GPGSA,A,3,29,31,25,26,02,12,18,32,,,,,1.6,1.0,1.3*35
$GPGSV,3,1,12,29,81,121,42,31,61,287,41,25,51,085,37,26,26,282,32*70
$GPGSV,3,1,12,29,81,121,42,31,61,287,41,25,51,085,37,26,26,282,32*70
$GPGSV,3,2,12,02,17,039,26,12,15,089,27,18,13,164,35,32,12,215,41*7D
$GPGSV,3,2,12,02,17,039,26,12,15,089,27,18,13,164,35,32,12,215,41*7D
$GPGSV,3,3,12,57,68,131,,58,68,131,,59,68,131,,07,36,053,*70
$GPGSV,3,3,12,57,68,131,,58,68,131,,59,68,131,,07,36,053,*70
$GPRMC,085902.000,A,4825.1248,N,00428.4732,W,1.96,171.84,020621,,,A*70
$GPGGA,085903.000,4825.1242,N,00428.4731,W,1,08,1.0,90.8,M,52.0,M,,0000*77
$GPGSA,A,3,29,31,25,26,02,12,18,32,,,,,1.6,1.0,1.3*35
$GPRMC,085903.000,A,4825.1242,N,00428.4731,W,2.18,170.77,020621,,,A*70
$GPGGA,085904.000,4825.1237,N,00428.4730,W,1,08,1.0,90.7,M,52.0,M,,0000*7C
$GPGSA,A,3,29,31,25,26,02,12,18,32,,,,,1.6,1.0,1.3*35
$GPRMC,085904.000,A,4825.1237,N,00428.4730,W,2.13,174.66,020621,,,A*7B
$GPGGA,085905.000,4825.1231,N,00428.4729,W,1,08,1.0,90.6,M,52.0,M,,0000*72
$GPGSA,A,3,29,31,25,26,02,12,18,32,,,,,1.6,1.0,1.3*35
$GPRMC,085905.000,A,4825.1231,N,00428.4729,W,2.03,175.79,020621,,,A*7A
$GPGGA,085906.000,4825.1225,N,00428.4729,W,1,07,1.0,90.6,M,52.0,M,,0000*7B
$GPGSA,A,3,29,31,25,26,02,18,32,,,,,,1.7,1.0,1.3*37
$GPRMC,085906.000,A,4825.1225,N,00428.4729,W,1.99,171.30,020621,,,A*75
$GPGGA,085907.000,4825.1220,N,00428.4727,W,1,08,1.0,90.6,M,52.0,M,,0000*7E
$GPGSA,A,3,29,31,25,26,02,12,18,32,,,,,1.6,1.0,1.3*35
$GPGSV,3,1,12,29,81,121,42,31,61,287,40,25,51,085,37,26,26,282,32*71
$GPGSV,3,1,12,29,81,121,42,31,61,287,40,25,51,085,37,26,26,282,32*71
$GPGSV,3,2,12,02,17,039,25,12,15,089,21,18,13,164,35,32,12,215,43*7A
$GPGSV,3,2,12,02,17,039,25,12,15,089,21,18,13,164,35,32,12,215,43*7A
$GPGSV,3,3,12,57,68,131,,58,68,131,,59,68,131,,07,36,053,*70
$GPGSV,3,3,12,57,68,131,,58,68,131,,59,68,131,,07,36,053,*70
$GPRMC,085907.000,A,4825.1220,N,00428.4727,W,1.95,171.20,020621,,,A*72
$GPGGA,085908.000,4825.1214,N,00428.4726,W,1,08,1.0,90.6,M,52.0,M,,0000*77
$GPGSA,A,3,29,31,25,26,02,12,18,32,,,,,1.6,1.0,1.3*35
$GPRMC,085908.000,A,4825.1214,N,00428.4726,W,1.97,171.41,020621,,,A*7E
$GPGGA,085909.000,4825.1208,N,00428.4726,W,1,08,1.0,90.7,M,52.0,M,,0000*7A
$GPGSA,A,3,29,31,25,26,02,12,18,32,,,,,1.6,1.0,1.3*35
$GPRMC,085909.000,A,4825.1208,N,00428.4726,W,2.17,173.02,020621,,,A*7C
$GPGGA,085910.000,4825.1202,N,00428.4725,W,1,08,1.0,90.7,M,52.0,M,,0000*7B
$GPGSA,A,3,29,31,25,26,02,12,18,32,,,,,1.6,1.0,1.3*35
$GPRMC,085910.000,A,4825.1202,N,00428.4725,W,1.95,174.94,020621,,,A*7C
$GPGGA,085911.000,4825.1197,N,00428.4724,W,1,08,1.0,90.7,M,52.0,M,,0000*74
$GPGSA,A,3,29,31,25,26,02,12,18,32,,,,,1.6,1.0,1.3*35
$GPRMC,085911.000,A,4825.1197,N,00428.4724,W,2.06,175.29,020621,,,A*7D
$GPGGA,085912.000,4825.1191,N,00428.4723,W,1,08,1.0,90.7,M,52.0,M,,0000*76
$GPGSA,A,3,29,31,25,26,02,12,18,32,,,,,1.6,1.0,1.3*35
$GPGSV,3,1,12,29,81,121,42,31,61,287,40,25,51,085,37,26,26,282,32*71
$GPGSV,3,1,12,29,81,121,42,31,61,287,40,25,51,085,37,26,26,282,32*71
$GPGSV,3,2,12,02,17,039,28,12,15,089,26,18,13,164,35,32,12,215,43*70
$GPGSV,3,2,12,02,17,039,28,12,15,089,26,18,13,164,35,32,12,215,43*70
$GPGSV,3,3,12,57,68,131,,58,68,131,,59,68,131,,07,36,053,*70
$GPGSV,3,3,12,57,68,131,,58,68,131,,59,68,131,,07,36,053,*70
$GPRMC,085912.000,A,4825.1191,N,00428.4723,W,2.10,174.42,020621,,,A*74
$GPGGA,085913.000,4825.1186,N,00428.4722,W,1,08,1.0,90.7,M,52.0,M,,0000*70
$GPGSA,A,3,29,31,25,26,02,12,18,32,,,,,1.6,1.0,1.3*35
$GPRMC,085913.000,A,4825.1186,N,00428.4722,W,2.08,173.11,020621,,,A*7A
$GPGGA,085914.000,4825.1180,N,00428.4721,W,1,08,1.0,90.7,M,52.0,M,,0000*72
$GPGSA,A,3,29,31,25,26,02,12,18,32,,,,,1.6,1.0,1.3*35
$GPRMC,085914.000,A,4825.1180,N,00428.4721,W,2.08,172.94,020621,,,A*74
$GPGGA,085915.000,4825.1174,N,00428.4720,W,1,08,1.0,90.7,M,52.0,M,,0000*79
$GPGSA,A,3,29,31,25,26,02,12,18,32,,,,,1.6,1.0,1.3*35
$GPRMC,085915.000,A,4825.1174,N,00428.4720,W,2.07,171.77,020621,,,A*7E
$GPGGA,085916.000,4825.1169,N,00428.4719,W,1,08,1.0,90.7,M,52.0,M,,0000*7C
$GPGSA,A,3,29,31,25,26,02,12,18,32,,,,,1.6,1.0,1.3*35
$GPRMC,085916.000,A,4825.1169,N,00428.4719,W,2.13,173.35,020621,,,A*7A
$GPGGA,085917.000,4825.1163,N,00428.4718,W,1,08,1.0,90.6,M,52.0,M,,0000*77
$GPGSA,A,3,29,31,25,26,02,12,18,32,,,,,1.6,1.0,1.3*35
$GPGSV,3,1,12,29,81,121,41,31,61,287,39,25,51,085,36,26,26,282,32*7D
$GPGSV,3,1,12,29,81,121,41,31,61,287,39,25,51,085,36,26,26,282,32*7D
$GPGSV,3,2,12,02,17,039,23,12,15,089,28,18,13,164,34,32,12,215,42*75
$GPGSV,3,2,12,02,17,039,23,12,15,089,28,18,13,164,34,32,12,215,42*75
$GPGSV,3,3,12,57,68,131,,58,68,131,,59,68,131,,07,36,053,*70
$GPGSV,3,3,12,57,68,131,,58,68,131,,59,68,131,,07,36,053,*70
$GPRMC,085917.000,A,4825.1163,N,00428.4718,W,2.06,173.20,020621,,,A*70
$GPGGA,085918.000,4825.1157,N,00428.4717,W,1,08,1.0,90.7,M,52.0,M,,0000*71
$GPGSA,A,3,29,31,25,26,02,12,18,32,,,,,1.6,1.0,1.3*35
$GPRMC,085918.000,A,4825.1157,N,00428.4717,W,2.19,174.48,020621,,,A*70
$GPGGA,085919.000,4825.1151,N,00428.4717,W,1,08,1.0,90.6,M,52.0,M,,0000*77
$GPGSA,A,3,29,31,25,26,02,12,18,32,,,,,1.6,1.0,1.3*35
$GPRMC,085919.000,A,4825.1151,N,00428.4717,W,2.14,174.45,020621,,,A*77
$GPGGA,085920.000,4825.1145,N,00428.4716,W,1,08,1.0,90.7,M,52.0,M,,0000*78
$GPGSA,A,3,29,31,25,26,02,12,18,32,,,,,1.6,1.0,1.3*35
$GPRMC,085920.000,A,4825.1145,N,00428.4716,W,2.03,173.06,020621,,,A*7F
$GPGGA,085921.000,4825.1139,N,00428.4715,W,1,08,1.0,90.6,M,52.0,M,,0000*70
$GPGSA,A,3,29,31,25,26,02,12,18,32,,,,,1.6,1.0,1.3*35
$GPRMC,085921.000,A,4825.1139,N,00428.4715,W,2.12,172.18,020621,,,A*78
$GPGGA,085922.000,4825.1134,N,00428.4714,W,1,08,1.0,90.6,M,52.0,M,,0000*7F
$GPGSA,A,3,29,31,25,26,02,12,18,32,,,,,1.6,1.0,1.3*35
$GPGSV,3,1,12,29,81,121,42,31,61,287,40,25,51,085,37,26,26,282,32*71
$GPGSV,3,1,12,29,81,121,42,31,61,287,40,25,51,085,37,26,26,282,32*71
$GPGSV,3,2,12,02,17,039,24,12,15,089,30,18,13,164,33,32,12,215,43*7D
$GPGSV,3,2,12,02,17,039,24,12,15,089,30,18,13,164,33,32,12,215,43*7D
$GPGSV,3,3,12,57,68,131,,58,68,131,,59,68,131,,07,36,053,*70
$GPGSV,3,3,12,57,68,131,,58,68,131,,59,68,131,,07,36,053,*70
$GPRMC,085922.000,A,4825.1134,N,00428.4714,W,2.06,172.97,020621,,,A*75
$GPGGA,085923.000,4825.1128,N,00428.4712,W,1,08,1.0,90.6,M,52.0,M,,0000*75
$GPGSA,A,3,29,31,25,26,02,12,18,32,,,,,1.6,1.0,1.3*35
$GPRMC,085923.000,A,4825.1128,N,00428.4712,W,2.20,171.77,020621,,,A*76
$GPGGA,085924.000,4825.1122,N,00428.4711,W,1,08,1.0,90.5,M,52.0,M,,0000*78
$GPGSA,A,3,29,31,25,26,02,12,18,32,,,,,1.6,1.0,1.3*35
$GPRMC,085924.000,A,4825.1122,N,00428.4711,W,2.09,171.16,020621,,,A*74
$GPGGA,085925.000,4825.1116,N,00428.4710,W,1,08,1.0,90.4,M,52.0,M,,0000*7E
$GPGSA,A,3,29,31,25,26,02,12,18,32,,,,,1.6,1.0,1.3*35
$GPRMC,085925.000,A,4825.1116,N,00428.4710,W,2.17,171.48,020621,,,A*77
$GPGGA,085926.000,4825.1110,N,00428.4708,W,1,08,1.0,90.4,M,52.0,M,,0000*72
$GPGSA,A,3,29,31,25,26,02,12,18,32,,,,,1.6,1.0,1.3*35
$GPRMC,085926.000,A,4825.1110,N,00428.4708,W,2.25,172.82,020621,,,A*7F
$GPGGA,085927.000,4825.1104,N,00428.4707,W,1,08,1.0,90.4,M,52.0,M,,0000*79
$GPGSA,A,3,29,31,25,26,02,12,18,32,,,,,1.6,1.0,1.3*35
$GPGSV,3,1,12,29,81,121,42,31,61,287,40,25,51,085,36,26,26,282,32*70
$GPGSV,3,1,12,29,81,121,42,31,61,287,40,25,51,085,36,26,26,282,32*70
$GPGSV,3,2,12,02,17,039,26,12,15,089,33,18,13,164,34,32,12,215,44*7C
$GPGSV,3,2,12,02,17,039,26,12,15,089,33,18,13,164,34,32,12,215,44*7C
$GPGSV,3,3,12,57,68,131,,58,68,131,,59,68,131,,07,36,053,*70
$GPGSV,3,3,12,57,68,131,,58,68,131,,59,68,131,,07,36,053,*70
$GPRMC,085927.000,A,4825.1104,N,00428.4707,W,2.22,170.01,020621,,,A*7A
$GPGGA,085928.000,4825.1098,N,00428.4705,W,1,08,1.0,90.4,M,52.0,M,,0000*70
$GPGSA,A,3,29,31,25,26,02,12,18,32,,,,,1.6,1.0,1.3*35
$GPRMC,085928.000,A,4825.1098,N,00428.4705,W,2.18,171.20,020621,,,A*78
$GPGGA,085929.000,4825.1092,N,00428.4705,W,1,08,1.0,90.4,M,52.0,M,,0000*7B
$GPGSA,A,3,29,31,25,26,02,12,18,32,,,,,1.6,1.0,1.3*35
$GPRMC,085929.000,A,4825.1092,N,00428.4705,W,2.10,175.69,020621,,,A*72
$GPGGA,085930.000,4825.1086,N,00428.4705,W,1,08,1.0,90.5,M,52.0,M,,0000*77
$GPGSA,A,3,29,31,25,26,02,12,18,32,,,,,1.6,1.0,1.3*35
$GPRMC,085930.000,A,4825.1086,N,00428.4705,W,2.23,175.24,020621,,,A*76
$GPGGA,085931.000,4825.1080,N,00428.4704,W,1,08,1.0,90.5,M,52.0,M,,0000*71
$GPGSA,A,3,29,31,25,26,02,12,18,32,,,,,1.6,1.0,1.3*35
$GPRMC,085931.000,A,4825.1080,N,00428.4704,W,2.22,176.04,020621,,,A*70
$GPGGA,085932.000,4825.1074,N,00428.4704,W,1,08,1.0,90.5,M,52.0,M,,0000*79
$GPGSA,A,3,29,31,25,26,02,12,18,32,,,,,1.6,1.0,1.3*35
$GPGSV,3,1,12,29,81,121,42,31,61,287,42,25,51,085,37,26,26,282,28*78
$GPGSV,3,1,12,29,81,121,42,31,61,287,42,25,51,085,37,26,26,282,28*78
$GPGSV,3,2,12,02,17,039,29,12,15,089,25,18,13,164,32,32,12,215,43*75
$GPGSV,3,2,12,02,17,039,29,12,15,089,25,18,13,164,32,32,12,215,43*75
$GPGSV,3,3,12,57,68,131,,58,68,131,,59,68,131,,07,36,053,*70
$GPGSV,3,3,12,57,68,131,,58,68,131,,59,68,131,,07,36,053,*70
$GPRMC,085932.000,A,4825.1074,N,00428.4704,W,2.17,173.97,020621,,,A*71
$GPGGA,085933.000,4825.1068,N,00428.4703,W,1,08,1.0,90.4,M,52.0,M,,0000*73
$GPGSA,A,3,29,31,25,26,02,12,18,32,,,,,1.6,1.0,1.3*35
$GPRMC,085933.000,A,4825.1068,N,00428.4703,W,2.31,173.71,020621,,,A*76
$GPGGA,085934.000,4825.1062,N,00428.4702,W,1,08,1.0,90.3,M,52.0,M,,0000*78
$GPGSA,A,3,29,31,25,26,02,12,18,32,,,,,1.6,1.0,1.3*35
$GPRMC,085934.000,A,4825.1062,N,00428.4702,W,2.27,175.18,020621,,,A*74
$GPGGA,085935.000,4825.1058,N,00428.4700,W,1,08,1.0,90.1,M,52.0,M,,0000*70
$GPGSA,A,3,29,31,25,26,02,12,18,32,,,,,1.6,1.0,1.3*35
$GPRMC,085935.000,A,4825.1058,N,00428.4700,W,1.98,173.71,020621,,,A*70
$GPGGA,085936.000,4825.1052,N,00428.4699,W,1,08,1.0,90.0,M,52.0,M,,0000*79
$GPGSA,A,3,29,31,25,26,02,12,18,32,,,,,1.6,1.0,1.3*35
$GPRMC,085936.000,A,4825.1052,N,00428.4699,W,2.07,171.24,020621,,,A*7F
$GPGGA,085937.000,4825.1047,N,00428.4698,W,1,08,1.0,90.0,M,52.0,M,,0000*7D
$GPGSA,A,3,29,31,25,26,02,12,18,32,,,,,1.6,1.0,1.3*35
$GPGSV,3,1,12,29,81,121,43,31,61,287,40,25,51,085,38,26,26,282,25*79
$GPGSV,3,1,12,29,81,121,43,31,61,287,40,25,51,085,38,26,26,282,25*79
$GPGSV,3,2,12,02,17,039,29,12,15,089,30,18,13,164,32,32,12,215,43*71
$GPGSV,3,2,12,02,17,039,29,12,15,089,30,18,13,164,32,32,12,215,43*71
$GPGSV,3,3,12,57,68,131,,58,68,131,,59,68,131,,07,36,053,*70
$GPGSV,3,3,12,57,68,131,,58,68,131,,59,68,131,,07,36,053,*70
$GPRMC,085937.000,A,4825.1047,N,00428.4698,W,2.00,173.70,020621,,,A*7F
$GPGGA,085938.000,4825.1041,N,00428.4697,W,1,08,1.0,89.9,M,52.0,M,,0000*7A
$GPGSA,A,3,29,31,25,26,02,12,18,32,,,,,1.6,1.0,1.3*35
$GPRMC,085938.000,A,4825.1041,N,00428.4697,W,1.91,171.76,020621,,,A*76
$GPGGA,085939.000,4825.1036,N,00428.4696,W,1,08,1.0,89.8,M,52.0,M,,0000*7B
$GPGSA,A,3,29,31,25,26,02,12,18,32,,,,,1.6,1.0,1.3*35
$GPRMC,085939.000,A,4825.1036,N,00428.4696,W,1.85,177.08,020621,,,A*7C
$GPGGA,085940.000,4825.1031,N,00428.4696,W,1,08,1.0,89.8,M,52.0,M,,0000*72
$GPGSA,A,3,29,31,25,26,02,12,18,32,,,,,1.6,1.0,1.2*34
$GPRMC,085940.000,A,4825.1031,N,00428.4696,W,1.98,172.98,020621,,,A*75
$GPGGA,085941.000,4825.1025,N,00428.4694,W,1,08,1.0,89.8,M,52.0,M,,0000*74
$GPGSA,A,3,29,31,25,26,02,12,18,32,,,,,1.6,1.0,1.2*34
$GPRMC,085941.000,A,4825.1025,N,00428.4694,W,1.86,174.23,020621,,,A*7A
$GPGGA,085942.000,4825.1019,N,00428.4693,W,1,08,1.0,89.8,M,52.0,M,,0000*7F
$GPGSA,A,3,29,31,25,26,02,12,18,32,,,,,1.6,1.0,1.2*34
$GPGSV,3,1,12,29,81,121,43,31,61,287,40,25,51,085,38,26,26,282,26*7A
$GPGSV,3,1,12,29,81,121,43,31,61,287,40,25,51,085,38,26,26,282,26*7A
$GPGSV,3,2,12,02,17,039,28,12,15,089,31,18,13,164,33,32,12,215,42*71
$GPGSV,3,2,12,02,17,039,28,12,15,089,31,18,13,164,33,32,12,215,42*71
$GPGSV,3,3,12,57,68,131,,58,68,131,,59,68,131,,07,36,053,*70
$GPGSV,3,3,12,57,68,131,,58,68,131,,59,68,131,,07,36,053,*70
$GPRMC,085942.000,A,4825.1019,N,00428.4693,W,2.02,175.01,020621,,,A*7F
$GPGGA,085943.000,4825.1013,N,00428.4693,W,1,08,1.0,89.8,M,52.0,M,,0000*74
$GPGSA,A,3,29,31,25,26,02,12,18,32,,,,,1.6,1.0,1.2*34
$GPRMC,085943.000,A,4825.1013,N,00428.4693,W,1.93,172.74,020621,,,A*7A
$GPGGA,085944.000,4825.1008,N,00428.4691,W,1,08,1.0,89.8,M,52.0,M,,0000*7B
$GPGSA,A,3,29,31,25,26,02,12,18,32,,,,,1.6,1.0,1.2*34
$GPRMC,085944.000,A,4825.1008,N,00428.4691,W,1.97,171.52,020621,,,A*76
$GPGGA,085945.000,4825.1002,N,00428.4691,W,1,08,1.0,89.8,M,52.0,M,,0000*70
$GPGSA,A,3,29,31,25,26,02,12,18,32,,,,,1.6,1.0,1.2*34
$GPRMC,085945.000,A,4825.1002,N,00428.4691,W,2.09,174.99,020621,,,A*7B
$GPGGA,085946.000,4825.0996,N,00428.4690,W,1,08,1.0,89.7,M,52.0,M,,0000*78
$GPGSA,A,3,29,31,25,26,02,12,18,32,,,,,1.6,1.0,1.2*34
$GPRMC,085946.000,A,4825.0996,N,00428.4690,W,2.25,174.36,020621,,,A*77
$GPGGA,085947.000,4825.0990,N,00428.4689,W,1,08,1.0,89.6,M,52.0,M,,0000*76
$GPGSA,A,3,29,31,25,26,02,12,18,32,,,,,1.6,1.0,1.2*34
$GPGSV,3,1,12,29,81,121,43,31,61,287,41,25,51,085,39,26,26,282,35*78
$GPGSV,3,1,12,29,81,121,43,31,61,287,41,25,51,085,39,26,26,282,35*78
$GPGSV,3,2,12,02,17,039,28,12,15,089,28,18,13,164,36,32,12,215,41*7F
$GPGSV,3,2,12,02,17,039,28,12,15,089,28,18,13,164,36,32,12,215,41*7F
$GPGSV,3,3,12,57,68,131,,58,68,131,,59,68,131,,07,36,053,*70
$GPGSV,3,3,12,57,68,131,,58,68,131,,59,68,131,,07,36,053,*70
$GPRMC,085947.000,A,4825.0990,N,00428.4689,W,2.31,173.84,020621,,,A*73
$GPGGA,085948.000,4825.0983,N,00428.4687,W,1,08,1.0,89.6,M,52.0,M,,0000*75
$GPGSA,A,3,29,31,25,26,02,12,18,32,,,,,1.6,1.0,1.2*34
$GPRMC,085948.000,A,4825.0983,N,00428.4687,W,2.14,172.55,020621,,,A*7A
$GPGGA,085949.000,4825.0977,N,00428.4686,W,1,08,1.0,89.6,M,52.0,M,,0000*7E
$GPGSA,A,3,29,31,25,26,02,12,18,32,,,,,1.6,1.0,1.2*34
$GPRMC,085949.000,A,4825.0977,N,00428.4686,W,2.01,173.44,020621,,,A*74
$GPGGA,085950.000,4825.0971,N,00428.4685,W,1,08,1.0,89.6,M,52.0,M,,0000*73
$GPGSA,A,3,29,31,25,26,02,12,18,32,,,,,1.6,1.0,1.2*34
$GPRMC,085950.000,A,4825.0971,N,00428.4685,W,2.22,173.01,020621,,,A*79
$GPGGA,085951.000,4825.0965,N,00428.4684,W,1,08,1.0,89.5,M,52.0,M,,0000*75
$GPGSA,A,3,29,31,25,26,02,12,18,32,,,,,1.6,1.0,1.2*34
$GPRMC,085951.000,A,4825.0965,N,00428.4684,W,2.19,174.26,020621,,,A*76
$GPGGA,085952.000,4825.0960,N,00428.4683,W,1,08,1.0,89.5,M,52.0,M,,0000*74
$GPGSA,A,3,29,31,25,26,02,12,18,32,,,,,1.6,1.0,1.2*34
$GPGSV,3,1,12,29,81,121,44,31,61,287,40,25,51,085,39,26,26,282,18*71
$GPGSV,3,1,12,29,81,121,44,31,61,287,40,25,51,085,39,26,26,282,18*71
$GPGSV,3,2,12,02,17,039,31,12,15,089,29,18,13,164,35,32,12,215,42*76
$GPGSV,3,2,12,02,17,039,31,12,15,089,29,18,13,164,35,32,12,215,42*76
$GPGSV,3,3,12,57,68,131,,58,68,131,,59,68,131,,07,36,053,*70
$GPGSV,3,3,12,57,68,131,,58,68,131,,59,68,131,,07,36,053,*70
$GPRMC,085952.000,A,4825.0960,N,00428.4683,W,2.04,176.48,020621,,,A*71
$GPGGA,085953.000,4825.0954,N,00428.4683,W,1,08,1.0,89.5,M,52.0,M,,0000*72
$GPGSA,A,3,29,31,25,26,02,12,18,32,,,,,1.6,1.0,1.2*34
$GPRMC,085953.000,A,4825.0954,N,00428.4683,W,2.02,174.33,020621,,,A*7F
$GPGGA,085954.000,4825.0948,N,00428.4681,W,1,08,1.0,89.4,M,52.0,M,,0000*7B
$GPGSA,A,3,29,31,25,26,02,12,18,32,,,,,1.6,1.0,1.2*34
$GPRMC,085954.000,A,4825.0948,N,00428.4681,W,2.04,171.29,020621,,,A*7F
$GPGGA,085955.000,4825.0942,N,00428.4680,W,1,08,1.0,89.4,M,52.0,M,,0000*71
$GPGSA,A,3,29,31,25,26,02,12,18,32,,,,,1.6,1.0,1.2*34
$GPRMC,085955.000,A,4825.0942,N,00428.4680,W,1.95,174.14,020621,,,A*75
$GPGGA,085956.000,4825.0937,N,00428.4680,W,1,08,1.0,89.3,M,52.0,M,,0000*77
$GPGSA,A,3,29,31,25,26,02,18,12,32,,,,,1.6,1.0,1.2*34
$GPRMC,085956.000,A,4825.0937,N,00428.4680,W,1.86,173.95,020621,,,A*78
$GPGGA,085957.000,4825.0931,N,00428.4679,W,1,08,1.0,89.3,M,52.0,M,,0000*76
$GPGSA,A,3,29,31,25,26,02,18,12,32,,,,,1.6,1.0,1.2*34
$GPGSV,3,1,12,29,81,110,43,31,62,284,38,25,50,086,36,26,27,283,28*75
$GPGSV,3,1,12,29,81,110,43,31,62,284,38,25,50,086,36,26,27,283,28*75
$GPGSV,3,2,12,02,16,038,27,18,15,164,35,12,14,090,24,32,10,214,38*7D
$GPGSV,3,2,12,02,16,038,27,18,15,164,35,12,14,090,24,32,10,214,38*7D
$GPGSV,3,3,12,57,68,131,,58,68,131,,59,68,131,,07,35,052,*72
$GPGSV,3,3,12,57,68,131,,58,68,131,,59,68,131,,07,35,052,*72
$GPRMC,085957.000,A,4825.0931,N,00428.4679,W,2.00,174.43,020621,,,A*78
$GPGGA,085958.000,4825.0926,N,00428.4678,W,1,08,1.0,89.3,M,52.0,M,,0000*7E
$GPGSA,A,3,29,31,25,26,02,18,12,32,,,,,1.6,1.0,1.2*34
$GPRMC,085958.000,A,4825.0926,N,00428.4678,W,2.07,176.01,020621,,,A*73
$GPGGA,085959.000,4825.0920,N,00428.4677,W,1,08,1.0,89.2,M,52.0,M,,0000*77
$GPGSA,A,3,29,31,25,26,02,18,12,32,,,,,1.6,1.0,1.2*34
$GPRMC,085959.000,A,4825.0920,N,00428.4677,W,2.10,172.69,020621,,,A*77
$GPGGA,090000.000,4825.0914,N,00428.4676,W,1,08,1.0,89.1,M,52.0,M,,0000*73
$GPGSA,A,3,29,31,25,26,02,18,12,32,,,,,1.6,1.0,1.2*34
$GPRMC,090000.000,A,4825.0914,N,00428.4676,W,1.95,172.31,020621,,,A*73
$GPGGA,090001.000,4825.0909,N,00428.4675,W,1,08,1.0,89.1,M,52.0,M,,0000*7D
$GPGSA,A,3,29,31,25,26,02,18,12,32,,,,,1.6,1.0,1.2*34
$GPRMC,090001.000,A,4825.0909,N,00428.4675,W,2.02,175.20,020621,,,A*77
$GPGGA,090002.000,4825.0903,N,00428.4674,W,1,08,1.0,89.0,M,52.0,M,,0000*74
$GPGSA,A,3,29,31,25,26,02,18,12,32,,,,,1.6,1.0,1.2*34
$GPGSV,3,1,12,29,81,110,43,31,62,284,38,25,50,086,37,26,27,283,28*74
$GPGSV,3,1,12,29,81,110,43,31,62,284,38,25,50,086,37,26,27,283,28*74
$GPGSV,3,2,12,02,16,038,28,18,15,164,34,12,14,090,26,32,10,214,39*70
$GPGSV,3,2,12,02,16,038,28,18,15,164,34,12,14,090,26,32,10,214,39*70
$GPGSV,3,3,12,57,68,131,,58,68,131,,59,68,131,,07,35,052,*72
$GPGSV,3,3,12,57,68,131,,58,68,131,,59,68,131,,07,35,052,*72
$GPRMC,090002.000,A,4825.0903,N,00428.4674,W,2.03,175.59,020621,,,A*70
$GPGGA,090003.000,4825.0897,N,00428.4673,W,1,08,1.0,89.0,M,52.0,M,,0000*7E
$GPGSA,A,3,29,31,25,26,02,18,12,32,,,,,1.6,1.0,1.2*34
$GPRMC,090003.000,A,4825.0897,N,00428.4673,W,2.11,173.80,020621,,,A*7B
$GPGGA,090004.000,4825.0892,N,00428.4672,W,1,08,1.0,89.0,M,52.0,M,,0000*7D
$GPGSA,A,3,29,31,25,26,02,18,12,32,,,,,1.6,1.0,1.2*34
$GPRMC,090004.000,A,4825.0892,N,00428.4672,W,2.07,173.20,020621,,,A*75
$GPGGA,090005.000,4825.0886,N,00428.4671,W,1,08,1.0,88.9,M,52.0,M,,0000*72
$GPGSA,A,3,29,31,25,26,02,18,12,32,,,,,1.6,1.0,1.2*34
$GPRMC,090005.000,A,4825.0886,N,00428.4671,W,2.21,172.88,020621,,,A*75
$GPGGA,090006.000,4825.0880,N,00428.4670,W,1,08,1.0,88.9,M,52.0,M,,0000*76
$GPGSA,A,3,29,31,25,26,02,18,12,32,,,,,1.6,1.0,1.2*34
$GPRMC,090006.000,A,4825.0880,N,00428.4670,W,2.22,172.99,020621,,,A*72
$GPGGA,090007.000,4825.0874,N,00428.4669,W,1,08,1.0,88.8,M,52.0,M,,0000*75
$GPGSA,A,3,29,31,25,26,02,18,12,32,,,,,1.6,1.0,1.2*34
$GPGSV,3,1,12,29,81,110,43,31,62,284,39,25,50,086,38,26,27,283,29*7B
$GPGSV,3,1,12,29,81,110,43,31,62,284,39,25,50,086,38,26,27,283,29*7B
$GPGSV,3,2,12,02,16,038,29,18,15,164,34,12,14,090,27,32,10,214,39*70
$GPGSV,3,2,12,02,16,038,29,18,15,164,34,12,14,090,27,32,10,214,39*70
$GPGSV,3,3,12,57,68,131,,58,68,131,,59,68,131,,07,35,052,*72
$GPGSV,3,3,12,57,68,131,,58,68,131,,59,68,131,,07,35,052,*72
$GPRMC,090007.000,A,4825.0874,N,00428.4669,W,2.12,174.81,020621,,,A*7C
$GPGGA,090008.000,4825.0868,N,00428.4668,W,1,08,1.0,88.8,M,52.0,M,,0000*76
$GPGSA,A,3,29,31,25,26,02,18,12,32,,,,,1.6,1.0,1.2*34
$GPRMC,090008.000,A,4825.0868,N,00428.4668,W,2.18,174.22,020621,,,A*7C
$GPGGA,090009.000,4825.0862,N,00428.4667,W,1,08,1.0,88.8,M,52.0,M,,0000*72
$GPGSA,A,3,29,31,25,26,02,18,12,32,,,,,1.6,1.0,1.2*34
$GPRMC,090009.000,A,4825.0862,N,00428.4667,W,2.22,173.59,020621,,,A*7A
$GPGGA,090010.000,4825.0855,N,00428.4666,W,1,08,1.0,88.8,M,52.0,M,,0000*7F
$GPGSA,A,3,29,31,25,26,02,18,12,32,,,,,1.6,1.0,1.2*34
$GPRMC,090010.000,A,4825.0855,N,00428.4666,W,2.18,173.73,020621,,,A*76
$GPGGA,090011.000,4825.0849,N,00428.4665,W,1,08,1.0,88.7,M,52.0,M,,0000*7F
$GPGSA,A,3,29,31,25,26,02,18,12,32,,,,,1.6,1.0,1.2*34
$GPRMC,090011.000,A,4825.0849,N,00428.4665,W,2.16,173.25,020621,,,A*74
$GPGGA,090012.000,4825.0843,N,00428.4663,W,1,08,1.0,88.7,M,52.0,M,,0000*70
$GPGSA,A,3,29,31,25,26,02,18,12,32,,,,,1.6,1.0,1.2*34
$GPGSV,3,1,12,29,81,110,43,31,62,284,39,25,50,086,39,26,27,283,23*70
$GPGSV,3,1,12,29,81,110,43,31,62,284,39,25,50,086,39,26,27,283,23*70
$GPGSV,3,2,12,02,16,038,28,18,15,164,34,12,14,090,27,32,10,214,40*7F
$GPGSV,3,2,12,02,16,038,28,18,15,164,34,12,14,090,27,32,10,214,40*7F
$GPGSV,3,3,12,57,68,131,,58,68,131,,59,68,131,,07,35,052,*72
$GPGSV,3,3,12,57,68,131,,58,68,131,,59,68,131,,07,35,052,*72
$GPRMC,090012.000,A,4825.0843,N,00428.4663,W,2.14,171.80,020621,,,A*74
$GPGGA,090013.000,4825.0837,N,00428.4662,W,1,08,1.0,88.8,M,52.0,M,,0000*7C
$GPGSA,A,3,29,31,25,26,02,18,12,32,,,,,1.6,1.0,1.2*34
$GPRMC,090013.000,A,4825.0837,N,00428.4662,W,2.14,171.33,020621,,,A*7F
$GPGGA,090014.000,4825.0831,N,00428.4660,W,1,08,1.0,88.8,M,52.0,M,,0000*7F
$GPGSA,A,3,29,31,25,26,02,18,12,32,,,,,1.6,1.0,1.2*34
$GPRMC,090014.000,A,4825.0831,N,00428.4660,W,2.14,169.54,020621,,,A*74
$GPGGA,090015.000,4825.0825,N,00428.4658,W,1,08,1.0,88.7,M,52.0,M,,0000*7F
$GPGSA,A,3,29,31,25,26,02,18,12,32,,,,,1.6,1.0,1.2*34
$GPRMC,090015.000,A,4825.0825,N,00428.4658,W,2.09,167.77,020621,,,A*78
$GPGGA,090016.000,4825.0819,N,00428.4656,W,1,08,1.0,88.7,M,52.0,M,,0000*7D
$GPGSA,A,3,29,31,25,26,02,18,12,32,,,,,1.6,1.0,1.2*34
$GPRMC,090016.000,A,4825.0819,N,00428.4656,W,2.07,167.46,020621,,,A*76
$GPGGA,090017.000,4825.0814,N,00428.4654,W,1,08,1.0,88.7,M,52.0,M,,0000*73
$GPGSA,A,3,29,31,25,26,02,18,12,32,,,,,1.6,1.0,1.2*34
$GPGSV,3,1,12,29,81,110,43,31,62,284,34,25,50,086,39,26,27,283,19*74
$GPGSV,3,1,12,29,81,110,43,31,62,284,34,25,50,086,39,26,27,283,19*74
$GPGSV,3,2,12,02,16,038,24,18,15,164,34,12,14,090,27,32,10,214,38*7C
$GPGSV,3,2,12,02,16,038,24,18,15,164,34,12,14,090,27,32,10,214,38*7C
$GPGSV,3,3,12,57,68,131,,58,68,131,,59,68,131,,07,35,052,*72
$GPGSV,3,3,12,57,68,131,,58,68,131,,59,68,131,,07,35,052,*72
$GPRMC,090017.000,A,4825.0814,N,00428.4654,W,1.98,166.78,020621,,,A*71
$GPGGA,090018.000,4825.0809,N,00428.4652,W,1,08,1.0,88.7,M,52.0,M,,0000*76
$GPGSA,A,3,29,31,25,26,02,18,12,32,,,,,1.6,1.0,1.2*34
$GPRMC,090018.000,A,4825.0809,N,00428.4652,W,1.85,165.27,020621,,,A*71
$GPGGA,090019.000,4825.0803,N,00428.4650,W,1,08,1.0,88.6,M,52.0,M,,0000*7E
$GPGSA,A,3,29,31,25,26,02,18,12,32,,,,,1.6,1.0,1.2*34
$GPRMC,090019.000,A,4825.0803,N,00428.4650,W,2.08,160.13,020621,,,A*7C
$GPGGA,090020.000,4825.0798,N,00428.4646,W,1,08,1.0,88.6,M,52.0,M,,0000*7E
$GPGSA,A,3,29,31,25,26,02,18,12,32,,,,,1.6,1.0,1.2*34
$GPRMC,090020.000,A,4825.0798,N,00428.4646,W,2.14,155.53,020621,,,A*73
$GPGGA,090021.000,4825.0793,N,00428.4641,W,1,08,1.0,88.6,M,52.0,M,,0000*73
$GPGSA,A,3,29,31,25,26,02,18,12,32,,,,,1.6,1.0,1.2*34
$GPRMC,090021.000,A,4825.0793,N,00428.4641,W,2.16,153.08,020621,,,A*74
$GPGGA,090022.000,4825.0787,N,00428.4637,W,1,08,1.0,88.6,M,52.0,M,,0000*74
$GPGSA,A,3,29,31,25,26,02,18,12,32,,,,,1.6,1.0,1.2*34
$GPGSV,3,1,12,29,81,110,43,31,62,284,36,25,50,086,40,26,27,283,28*7A
$GPGSV,3,1,12,29,81,110,43,31,62,284,36,25,50,086,40,26,27,283,28*7A
$GPGSV,3,2,12,02,16,038,24,18,15,164,35,12,14,090,31,32,10,214,31*73
$GPGSV,3,2,12,02,16,038,24,18,15,164,35,12,14,090,31,32,10,214,31*73
$GPGSV,3,3,12,57,68,131,,58,68,131,,59,68,131,,07,35,052,*72
$GPGSV,3,3,12,57,68,131,,58,68,131,,59,68,131,,07,35,052,*72
$GPRMC,090022.000,A,4825.0787,N,00428.4637,W,2.10,152.14,020621,,,A*79
$GPGGA,090023.000,4825.0782,N,00428.4633,W,1,08,1.0,88.6,M,52.0,M,,0000*74
$GPGSA,A,3,29,31,25,26,02,18,12,32,,,,,1.6,1.0,1.2*34
$GPRMC,090023.000,A,4825.0782,N,00428.4633,W,2.11,150.93,020621,,,A*75
$GPGGA,090024.000,4825.0777,N,00428.4628,W,1,08,1.0,88.6,M,52.0,M,,0000*73
$GPGSA,A,3,29,31,25,26,02,18,12,32,,,,,1.6,1.0,1.2*34
$GPRMC,090024.000,A,4825.0777,N,00428.4628,W,2.18,148.54,020621,,,A*79
$GPGGA,090025.000,4825.0771,N,00428.4623,W,1,08,1.0,88.6,M,52.0,M,,0000*7F
$GPGSA,A,3,29,31,25,26,02,18,12,32,,,,,1.6,1.0,1.2*34
$GPRMC,090025.000,A,4825.0771,N,00428.4623,W,2.19,149.91,020621,,,A*7C
$GPGGA,090026.000,4825.0766,N,00428.4619,W,1,08,1.0,88.6,M,52.0,M,,0000*73
$GPGSA,A,3,29,31,25,26,02,18,12,32,,,,,1.6,1.0,1.2*34
$GPRMC,090026.000,A,4825.0766,N,00428.4619,W,2.26,148.71,020621,,,A*73
$GPGGA,090027.000,4825.0761,N,00428.4613,W,1,08,1.0,88.5,M,52.0,M,,0000*7C
$GPGSA,A,3,29,31,25,26,02,18,12,32,,,,,1.6,1.0,1.2*34
$GPGSV,3,1,12,29,81,110,43,31,62,284,36,25,50,086,42,26,27,283,22*72
$GPGSV,3,1,12,29,81,110,43,31,62,284,36,25,50,086,42,26,27,283,22*72
$GPGSV,3,2,12,02,16,038,25,18,15,164,35,12,14,090,31,32,10,214,20*72
$GPGSV,3,2,12,02,16,038,25,18,15,164,35,12,14,090,31,32,10,214,20*72
$GPGSV,3,3,12,57,68,131,,58,68,131,,59,68,131,,07,35,052,*72
$GPGSV,3,3,12,57,68,131,,58,68,131,,59,68,131,,07,35,052,*72
$GPRMC,090027.000,A,4825.0761,N,00428.4613,W,2.00,145.60,020621,,,A*76
$GPGGA,090028.000,4825.0757,N,00428.4608,W,1,08,1.0,88.5,M,52.0,M,,0000*7C
$GPGSA,A,3,29,31,25,26,02,18,12,32,,,,,1.6,1.0,1.2*34
$GPRMC,090028.000,A,4825.0757,N,00428.4608,W,2.08,143.87,020621,,,A*71
$GPGGA,090029.000,4825.0752,N,00428.4602,W,1,08,1.0,88.5,M,52.0,M,,0000*72
$GPGSA,A,3,29,31,25,26,02,18,12,32,,,,,1.6,1.0,1.2*34
$GPRMC,090029.000,A,4825.0752,N,00428.4602,W,2.23,138.07,020621,,,A*72
$GPGGA,090030.000,4825.0748,N,00428.4595,W,1,08,1.0,88.5,M,52.0,M,,0000*7C
$GPGSA,A,3,29,31,25,26,02,18,12,32,,,,,1.6,1.0,1.2*34
$GPRMC,090030.000,A,4825.0748,N,00428.4595,W,2.15,134.49,020621,,,A*7F
$GPGGA,090031.000,4825.0743,N,00428.4589,W,1,08,1.0,88.5,M,52.0,M,,0000*7B
$GPGSA,A,3,29,31,25,26,02,18,12,32,,,,,1.6,1.0,1.2*34
$GPRMC,090031.000,A,4825.0743,N,00428.4589,W,2.09,133.28,020621,,,A*75
$GPGGA,090032.000,4825.0739,N,00428.4582,W,1,08,1.0,88.5,M,52.0,M,,0000*7E
$GPGSA,A,3,29,31,25,26,02,18,12,32,,,,,1.6,1.0,1.2*34
$GPGSV,3,1,12,29,81,110,43,31,62,284,36,25,50,086,43,26,27,283,25*74
$GPGSV,3,1,12,29,81,110,43,31,62,284,36,25,50,086,43,26,27,283,25*74
$GPGSV,3,2,12,02,16,038,24,18,15,164,36,12,14,090,38,32,10,214,20*79
$GPGSV,3,2,12,02,16,038,24,18,15,164,36,12,14,090,38,32,10,214,20*79
$GPGSV,3,3,12,57,68,131,,58,68,131,,59,68,131,,07,35,052,*72
$GPGSV,3,3,12,57,68,131,,58,68,131,,59,68,131,,07,35,052,*72
$GPRMC,090032.000,A,4825.0739,N,00428.4582,W,2.19,133.95,020621,,,A*77
$GPGGA,090033.000,4825.0734,N,00428.4576,W,1,08,1.0,88.4,M,52.0,M,,0000*78
$GPGSA,A,3,29,31,25,26,02,18,12,32,,,,,1.6,1.0,1.2*34
$GPRMC,090033.000,A,4825.0734,N,00428.4576,W,2.03,136.06,020621,,,A*74
$GPGGA,090034.000,4825.0730,N,00428.4570,W,1,08,1.0,88.4,M,52.0,M,,0000*7D
$GPGSA,A,3,29,31,25,26,02,18,12,32,,,,,1.6,1.0,1.2*34
$GPRMC,090034.000,A,4825.0730,N,00428.4570,W,2.07,134.09,020621,,,A*78
$GPGGA,090035.000,4825.0726,N,00428.4562,W,1,08,1.0,88.4,M,52.0,M,,0000*78
$GPGSA,A,3,29,31,25,26,02,18,12,32,,,,,1.6,1.0,1.2*34
$GPRMC,090035.000,A,4825.0726,N,00428.4562,W,2.28,129.36,020621,,,A*70
$GPGGA,090036.000,4825.0722,N,00428.4554,W,1,08,1.0,88.5,M,52.0,M,,0000*7B
$GPGSA,A,3,29,31,25,26,02,18,12,32,,,,,1.6,1.0,1.2*34
$GPRMC,090036.000,A,4825.0722,N,00428.4554,W,2.27,129.39,020621,,,A*72
$GPGGA,090037.000,4825.0718,N,00428.4546,W,1,08,1.0,88.5,M,52.0,M,,0000*70
$GPGSA,A,3,29,31,25,26,02,18,12,32,,,,,1.6,1.0,1.2*34
$GPGSV,3,1,12,29,81,110,42,31,62,284,32,25,50,086,45,26,27,283,27*75
$GPGSV,3,1,12,29,81,110,42,31,62,284,32,25,50,086,45,26,27,283,27*75
$GPGSV,3,2,12,02,16,038,26,18,15,164,32,12,14,090,35,32,10,214,18*79
$GPGSV,3,2,12,02,16,038,26,18,15,164,32,12,14,090,35,32,10,214,18*79
$GPGSV,3,3,12,57,68,131,,58,68,131,,59,68,131,,07,35,052,*72
$GPGSV,3,3,12,57,68,131,,58,68,131,,59,68,131,,07,35,052,*72
$GPRMC,090037.000,A,4825.0718,N,00428.4546,W,2.22,127.29,020621,,,A*73
$GPGGA,090038.000,4825.0715,N,00428.4537,W,1,08,1.0,88.6,M,52.0,M,,0000*77
$GPGSA,A,3,29,31,25,26,02,18,12,32,,,,,1.6,1.0,1.2*34
$GPRMC,090038.000,A,4825.0715,N,00428.4537,W,2.33,121.48,020621,,,A*76
$GPGGA,090039.000,4825.0712,N,00428.4528,W,1,08,1.0,88.7,M,52.0,M,,0000*7E
$GPGSA,A,3,29,31,25,26,02,18,12,32,,,,,1.6,1.0,1.2*34
$GPRMC,090039.000,A,4825.0712,N,00428.4528,W,2.17,120.10,020621,,,A*74
$GPGGA,090040.000,4825.0709,N,00428.4521,W,1,08,1.0,88.7,M,52.0,M,,0000*73
$GPGSA,A,3,29,31,25,26,02,18,12,32,,,,,1.6,1.0,1.2*34
$GPRMC,090040.000,A,4825.0709,N,00428.4521,W,2.33,120.01,020621,,,A*7F
$GPGGA,090041.000,4825.0707,N,00428.4512,W,1,08,1.0,88.7,M,52.0,M,,0000*7C
$GPGSA,A,3,29,31,25,26,02,18,12,32,,,,,1.6,1.0,1.2*34
$GPRMC,090041.000,A,4825.0707,N,00428.4512,W,2.04,114.18,020621,,,A*7B
$GPGGA,090042.000,4825.0706,N,00428.4504,W,1,08,1.0,88.8,M,52.0,M,,0000*76
$GPGSA,A,3,29,31,25,26,02,18,12,32,,,,,1.6,1.0,1.2*34
$GPGSV,3,1,12,29,81,110,41,31,62,284,34,25,50,086,44,26,27,283,30*77
$GPGSV,3,1,12,29,81,110,41,31,62,284,34,25,50,086,44,26,27,283,30*77
$GPGSV,3,2,12,02,16,038,29,18,15,164,20,12,14,090,33,32,10,214,18*73
$GPGSV,3,2,12,02,16,038,29,18,15,164,20,12,14,090,33,32,10,214,18*73
$GPGSV,3,3,12,57,68,131,,58,68,131,,59,68,131,,07,35,052,*72
$GPGSV,3,3,12,57,68,131,,58,68,131,,59,68,131,,07,35,052,*72
$GPRMC,090042.000,A,4825.0706,N,00428.4504,W,2.01,110.68,020621,,,A*78
$GPGGA,090043.000,4825.0704,N,00428.4495,W,1,08,1.0,88.8,M,52.0,M,,0000*7C
$GPGSA,A,3,29,31,25,26,02,18,12,32,,,,,1.6,1.0,1.2*34
$GPRMC,090043.000,A,4825.0704,N,00428.4495,W,2.17,109.35,020621,,,A*75
$GPGGA,090044.000,4825.0701,N,00428.4486,W,1,08,1.0,88.8,M,52.0,M,,0000*7C
$GPGSA,A,3,29,31,25,26,02,18,12,32,,,,,1.6,1.0,1.2*34
$GPRMC,090044.000,A,4825.0701,N,00428.4486,W,2.30,111.78,020621,,,A*70
$GPGGA,090045.000,4825.0699,N,00428.4476,W,1,08,1.0,88.9,M,52.0,M,,0000*73
$GPGSA,A,3,29,31,25,26,02,18,12,32,,,,,1.6,1.0,1.2*34
$GPRMC,090045.000,A,4825.0699,N,00428.4476,W,2.15,110.33,020621,,,A*77
$GPGGA,090046.000,4825.0697,N,00428.4466,W,1,08,1.0,89.2,M,52.0,M,,0000*75
$GPGSA,A,3,29,31,25,26,02,18,12,32,,,,,1.6,1.0,1.2*34
$GPRMC,090046.000,A,4825.0697,N,00428.4466,W,2.25,107.18,020621,,,A*77
$GPGGA,090047.000,4825.0695,N,00428.4457,W,1,08,1.0,89.3,M,52.0,M,,0000*75
$GPGSA,A,3,29,31,25,26,02,18,12,32,,,,,1.6,1.0,1.2*34
$GPGSV,3,1,12,29,81,110,41,31,62,284,34,25,50,086,44,26,27,283,28*7E
$GPGSV,3,1,12,29,81,110,41,31,62,284,34,25,50,086,44,26,27,283,28*7E
$GPGSV,3,2,12,02,16,038,35,18,15,164,19,12,14,090,33,32,10,214,18*74
$GPGSV,3,2,12,02,16,038,35,18,15,164,19,12,14,090,33,32,10,214,18*74
$GPGSV,3,3,12,57,68,131,,58,68,131,,59,68,131,,07,35,052,*72
$GPGSV,3,3,12,57,68,131,,58,68,131,,59,68,131,,07,35,052,*72
$GPRMC,090047.000,A,4825.0695,N,00428.4457,W,2.13,105.02,020621,,,A*7A
$GPGGA,090048.000,4825.0694,N,00428.4447,W,1,08,1.0,89.5,M,52.0,M,,0000*7C
$GPGSA,A,3,29,31,25,26,02,18,12,32,,,,,1.6,1.0,1.2*34
$GPRMC,090048.000,A,4825.0694,N,00428.4447,W,2.16,96.64,020621,,,A*4B
$GPGGA,090049.000,4825.0692,N,00428.4438,W,1,08,1.0,89.7,M,52.0,M,,0000*71
$GPGSA,A,3,29,31,25,26,02,18,12,32,,,,,1.6,1.0,1.2*34
$GPRMC,090049.000,A,4825.0692,N,00428.4438,W,2.16,97.11,020621,,,A*47
$GPGGA,090050.000,4825.0690,N,00428.4428,W,1,08,1.0,89.9,M,52.0,M,,0000*74
$GPGSA,A,3,29,31,25,26,02,18,12,32,,,,,1.6,1.0,1.2*34
$GPRMC,090050.000,A,4825.0690,N,00428.4428,W,2.20,98.88,020621,,,A*46
$GPGGA,090051.000,4825.0687,N,00428.4419,W,1,08,1.0,90.1,M,52.0,M,,0000*71
$GPGSA,A,3,29,31,25,26,02,18,12,32,,,,,1.6,1.0,1.2*34
$GPRMC,090051.000,A,4825.0687,N,00428.4419,W,2.12,101.95,020621,,,A*7F
$GPGGA,090052.000,4825.0684,N,00428.4410,W,1,08,1.0,90.2,M,52.0,M,,0000*7B
$GPGSA,A,3,29,31,25,26,02,18,12,32,,,,,1.6,1.0,1.2*34
$GPGSV,3,1,12,29,81,110,41,31,62,284,30,25,50,086,44,26,27,283,27*75
$GPGSV,3,1,12,29,81,110,41,31,62,284,30,25,50,086,44,26,27,283,27*75
$GPGSV,3,2,12,02,16,038,36,18,15,164,20,12,14,090,33,32,10,214,23*75
$GPGSV,3,2,12,02,16,038,36,18,15,164,20,12,14,090,33,32,10,214,23*75
$GPGSV,3,3,12,57,68,131,,58,68,131,,59,68,131,,07,35,052,*72
$GPGSV,3,3,12,57,68,131,,58,68,131,,59,68,131,,07,35,052,*72
$GPRMC,090052.000,A,4825.0684,N,00428.4410,W,2.14,103.45,020621,,,A*7F
$GPGGA,090053.000,4825.0683,N,00428.4401,W,1,08,1.0,90.4,M,52.0,M,,0000*7B
$GPGSA,A,3,29,31,25,26,02,18,12,32,,,,,1.6,1.0,1.2*34
$GPRMC,090053.000,A,4825.0683,N,00428.4401,W,2.07,98.75,020621,,,A*4B
$GPGGA,090054.000,4825.0682,N,00428.4391,W,1,08,1.0,90.5,M,52.0,M,,0000*72
$GPGSA,A,3,29,31,25,26,02,18,12,32,,,,,1.6,1.0,1.2*34
$GPRMC,090054.000,A,4825.0682,N,00428.4391,W,2.20,92.06,020621,,,A*48
$GPGGA,090055.000,4825.0682,N,00428.4382,W,1,08,1.0,90.5,M,52.0,M,,0000*71
$GPGSA,A,3,29,31,25,26,02,18,12,32,,,,,1.6,1.0,1.2*34
$GPRMC,090055.000,A,4825.0682,N,00428.4382,W,2.11,92.88,020621,,,A*4F
$GPGGA,090056.000,4825.0680,N,00428.4375,W,1,08,1.0,90.3,M,52.0,M,,0000*7E
$GPGSA,A,3,29,31,25,26,02,18,12,32,,,,,1.6,1.0,1.2*34
$GPRMC,090056.000,A,4825.0680,N,00428.4375,W,2.14,93.04,020621,,,A*46
$GPGGA,090057.000,4825.0673,N,00428.4365,W,1,08,1.0,90.9,M,52.0,M,,0000*78
$GPGSA,A,3,29,31,25,26,02,18,12,32,,,,,1.6,1.0,1.2*34
$GPGSV,3,1,12,29,81,110,40,31,62,284,31,25,50,086,44,26,27,283,27*75
$GPGSV,3,1,12,29,81,110,40,31,62,284,31,25,50,086,44,26,27,283,27*75
$GPGSV,3,2,12,02,16,038,42,18,15,164,25,12,14,090,33,32,10,214,31*70
$GPGSV,3,2,12,02,16,038,42,18,15,164,25,12,14,090,33,32,10,214,31*70
$GPGSV,3,3,12,57,68,131,,58,68,131,,59,68,131,,07,35,052,*72
$GPGSV,3,3,12,57,68,131,,58,68,131,,59,68,131,,07,35,052,*72
$GPRMC,090057.000,A,4825.0673,N,00428.4365,W,2.06,93.00,020621,,,A*4D
$GPGGA,090058.000,4825.0672,N,00428.4356,W,1,08,1.0,91.0,M,52.0,M,,0000*7E
$GPGSA,A,3,29,31,25,26,02,18,12,32,,,,,1.6,1.0,1
$GPGGA,090059.000,4825.0672,N,00428.4345,W,1,08,1.0,91.3,M,52.0,M,,0000*7E
$GPGSA,A,3,29,31,25,26,02,18,12,32,,,,,1.6,1.0,1.2*34
$GPRMC,090059.000,A,4825.0672,N,00428.4345,W,2.18,89.23,020621,,,A*45
$GPGGA,090100.000,4825.0672,N,00428.4336,W,1,08,1.0,91.5,M,52.0,M,,0000*71
$GPGSA,A,3,29,31,25,26,02,18,12,32,,,,,1.6,1.0,1.2*34
$GPRMC,090100.000,A,4825.0672,N,00428.4336,W,2.09,84.54,020621,,,A*41
$GPGGA,090101.000,4825.0673,N,00428.4327,W,1,08,1.0,91.5,M,52.0,M,,0000*71
$GPGSA,A,3,29,31,25,26,02,18,12,32,,,,,1.6,1.0,1.2*34
$GPRMC,090101.000,A,4825.0673,N,00428.4327,W,2.04,83.33,020621,,,A*4A
$GPGGA,090102.000,4825.0672,N,00428.4318,W,1,08,1.0,91.5,M,52.0,M,,0000*7F
$GPGSA,A,3,29,31,25,26,02,18,12,32,,,,,1.6,1.0,1.2*34
$GPGSV,3,1,12,29,81,110,40,31,62,284,26,25,50,086,45,26,27,283,27*72
$GPGSV,3,1,12,29,81,110,40,31,62,284,26,25,50,086,45,26,27,283,27*72
$GPGSV,3,2,12,02,16,038,39,18,15,164,22,12,14,090,39,32,10,214,22*73
$GPGSV,3,2,12,02,16,038,39,18,15,164,22,12,14,090,39,32,10,214,22*73
$GPGSV,3,3,12,57,68,131,,58,68,131,,59,68,131,,07,35,052,*72
$GPGSV,3,3,12,57,68,131,,58,68,131,,59,68,131,,07,35,052,*72
$GPRMC,090102.000,A,4825.0672,N,00428.4318,W,2.13,83.23,020621,,,A*43
$GPGGA,090103.000,4825.0672,N,00428.4308,W,1,07,1.2,91.4,M,52.0,M,,0000*73
$GPGSA,A,3,29,31,25,02,18,12,32,,,,,,1.8,1.2,1.3*3D
$GPRMC,090103.000,A,4825.0672,N,00428.4308,W,2.12,84.10,020621,,,A*45
$GPGGA,4.000,4825.0672,N,00428.4297,W,1,08,1.0,91.6,M,52.0,M,,0000*7C
$GPGSA,A,3,29,31,25,26,02,18,12,32,,,,,1.6,1.0,1.2*34
$GPRMC,090104.000,A,4825.0672,N,00428.4297,W,2.28,81.21,020621,,,A*4B
$GPGGA,090105.000,4825.0673,N,00428.4286,W,1,08,1.0,91.7,M,52.0,M,,0000*7D
$GPGSA,A,3,29,31,25,26,02,18,12,32,,,,,1.6,1.0,1.2*34
$GPRMC,090105.000,A,4825.0673,N,00428.4286,W,2.21,79.01,020621,,,A*47
$GPGGA,090106.000,4825.0674,N,00428.4277,W,1,08,1.0,91.7,M,52.0,M,,0000*77
$GPGSA,A,3,29,31,25,26,02,18,12,32,,,,,1.6,1.0,1.2*34
$GPRMC,090106.000,A,4825.0674,N,00428.4277,W,2.26,78.32,020621,,,A*4B
$GPGGA,090107.000,4825.0674,N,00428.4266,W,1,08,1.0,91.7,M,52.0,M,,0000*76
$GPGSA,A,3,29,31,25,26,02,18,12,32,,,,,1.6,1.0,1.2*34
$GPGSV,3,1,12,29,81,110,41,31,62,284,29,25,50,086,45,26,27,283,28*73
$GPGSV,3,1,12,29,81,110,41,31,62,284,29,25,50,086,45,26,27,283,28*73
$GPGSV,3,2,12,,16,038,40,18,15,164,18,12,14,090,38,32,10,214,25*72
$GPGSV,3,2,12,,16,038,40,18,15,164,18,12,14,090,38,32,10,214,25*72
$GPGSV,3,3,12,57,68,131,,58,68,131,,59,68,131,,07,35,052,*72
$GPGSV,3,3,12,57,68,131,,58,68,131,,59,68,131,,07,35,052,*72
$GPRMC,090107.000,A,4825.0674,N,00428.4266,W,2.16,78.90,020621,,,A*41
$GPGGA,090109.000,4825.0675,N,00428.4248,W,1,07,1.1,91.8,M,52.0,M,,0000*74
$GPGSA,A,3,29,31,25,26,02,18,12,,,,,,1.7,1.1,1.4*33
$GPRMC,090109.000,A,4825.0675,N,00428.4248,W,2.01,79.83,020621,,,A*47
$GPGGA,090110.000,4825.0675,N,00428.4240,W,1,08,1.0,91.8,M,52.0,M,,0000*7A
$GPGSA,A,3,29,31,25,26,02,18,12,32,,,,,1.6,1.0,1.2*34
$GPRMC,090110.000,A,4825.0675,N,00428.4240,W,1.91,84.14,020621,,,A*41
$GPGGA,090111.000,4825.0675,N,00428.4231,W,1,08,1.0,91.7,M,52.0,M,,0000*72
$GPGSA,A,3,29,31,25,26,02,18,12,32,,,,,1.6,1.0,1.2*34
$GPRMC,090111.000,A,4825.0675,N,00428.4231,W,1.91,83.08,020621,,,A*4C
$GPGGA,090112.000,4825.0678,N,00428.4224,W,1,08,1.0,91.6,M,52.0,M,,0000*79
$GPGSA,A,3,29,31,25,26,02,18,12,32,,,,,1.6,1.0,1.2*34
$GPGSV,3,1,12,29,81,110,42,31,62,284,23,25,50,086,45,26,27,283,26*74
$GPGSV,3,1,12,29,81,110,42,31,62,284,23,25,50,086,45,26,27,283,26*74
$GPGSV,3,2,12,02,16,038,36,18,15,164,28,12,14,090,38,32,10,214,22*77
$GPGSV,3,2,12,02,16,038,36,18,15,164,28,12,14,090,38,32,10,214,22*77
$GPGSV,3,3,12,57,68,131,,58,68,131,,59,68,131,,07,35,052,*72
$GPGSV,3,3,12,57,68,131,,58,68,131,,59,68,131,,07,35,052,*72
$GPRMC,090112.000,A,4825.0678,N,00428.4224,W,1.91,76.82,020621,,,A*4E
$GPGGA,090113.000,4825.0678,N,00428.4214,W,1,08,1.0,91.7,M,52.0,M,,0000*7A
$GPGSA,A,3,29,31,25,26,02,18,12,32,,,,,1.6,1.0,1.2*34
$GPRMC,090113.000,A,4825.0678,N,00428.4214,W,2.00,79.14,020621,,,A*47
$GPG.0,M,,0000*7C
$GPGSA,A,3,29,31,25,26,02,18,12,32,,,,,1.6,1.0,1.2*34
$GPRMC,090114.000,A,4825.0683,N,00428.4199,W,2.12,77.40,020621,,,A*4E
$GPGGA,090115.000,4825.0687,N,00428.4187,W,1,08,1.0,93.6,M,520428.4187,W,2.09,75.75,020621,,,A*4A
$GPGGA,090116.000,4825.0688,N,00428.4178,W,1,08,1.0,93.7,M,52.0,M,,0000*7B
$GPGSA,A,3,29,31,25,26,02,18,12,32,,,,,1.6,1.0,1.2*34
$GPRMC,090116.000,A,4825.0688,N,00428.4178,W,2.05,75.89,020621,,,A*49
$GPGGA,090117.000,4825.0689,N,00428.4170,W,1,08,1.0,93.7,M,52.0,M,,0000*73
$GPGSA,A,3,29,31,25,26,02,18,12,32,,,,,1.6,1.0,1.2*34
$GPGSV,3,1,12,29,81,110,41,31,62,284,33,25,50,086,46,26,27,283,28*7B
$GPGSV,3,1,12,29,81,110,41,31,62,284,33,25,50,086,46,26,27,283,28*7B
$GPGSV,3,2,12,02,16,038,37,18,15,164,27,12,14,090,35,32,10,214,27*71
$GPGSV,3,2,12,02,16,038,37,18,15,164,27,12,14,090,35,32,10,214,27*71
$GPGSV,3,3,12,57,68,131,,58,68,131,,59,68,131,,07,35,052,*72
$GPGSV,3,3,12,57,68,131,,58,68,131,,59,68,131,,07,35,052,*72
$GPRMC,090117.000,A,4825.0689,N,00428.4170,W,2.10,74.29,020621,,,A*4E
$GPGGA,090118.000,4825.0690,N,00428.4162,W,1,08,1.0,93.6,M,52.0,M,,0000*76
$GPGSA,A,3,29,31,25,26,02,18,12,32,,,,,1.6,1.0,1.2*34
$GPRMC,090118.000,A,4825.0690,N,00428.4162,W,2.07,69.82,020621,,,A*41
$GPGGA,090119.000,4825.0692,N,00428.4154,W,1,08,1.0,93.6,M,52.0,M,,0000*70
$GPGSA,A,3,29,31,25,26,02,18,12,32,,,,,1.6,1.0,1.2*34
$GPRMC,090119.000,A,4825.0692,N,00428.4154,W,2.01,67.33,020621,,,A*45
$GPGGA,090120.000,4825.0693,N,00428.4146,W,1,08,1.0,93.6,M,52.0,M,,0000*78
$GPGSA,A,3,29,31,25,26,02,18,12,32,,,,,1.6,1.0,1.2*34
$GPRMC,090120.000,A,4825.0693,N,00428.4146,W,2.09,66.92,020621,,,A*4F
$GPGGA,090121.000,4825.0695,N,00428.4138,W,1,08,1.0,93.7,M,52.0,M,,0000*77
$GPGSA,A,3,29,31,25,26,02,18,12,32,,,,,1.6,1.0,1.2*34
$GPRMC,090121.000,A,4825.0695,N,00428.4138,W,2.22,67.45,020621,,,A*43
$GPGGA,090122.000,4825.0697,N,00428.4130,W,1,07,1.1,93.7,M,52.0,M,,0000*70
$GPGSA,A,3,29,31,25,26,02,12,32,,,,,,1.7,1.1,1.3*3C
$GPGSV,3,1,12,29,81,110,42,31,62,284,28,25,50,086,46,26,27,283,25*7F
$GPGSV,3,1,12,29,81,110,42,31,62,284,28,25,50,086,46,26,27,283,25*7F
$GPGSV,3,2,12,02,16,038,38,12,14,090,36,32,10,214,20,18,15,164,23*7E
$GPGSV,3,2,12,02,16,038,38,12,14,090,36,32,10,214,20,18,15,164,23*7E
$GPGSV,3,3,12,57,68,131,,58,68,131,,59,68,131,,07,35,052,*72
$GPGSV,3,3,12,57,68,131,,58,68,131,,59,68,131,,07,35,052,*72
$GPRMC,090122.000,A,4825.0697,N,00428.4130,W,2.09,66.51,020621,,,A*47
$GPGGA,090123.000,4825.0700,N,00428.4123,W,1,08,1.0,93.6,M,52.0,M,,0000*73
$GPGSA,A,3,29,31,25,26,02,18,12,32,,,,,1.6,1.0,1.2*34
$GPRMC,090123.000,A,4825.0700,N,00428.4123,W,2.03,63.49,020621,,,A*4D
$GPGGA,090124.000,4825.0703,N,00428.4116,W,1,08,1.0,93.5,M,52.0,M,,0000*72
$GPGSA,A,3,29,31,25,26,02,18,12,32,,,,,1.6,1.0,1.2*34
$GPRMC,090124.000,A,4825.0703,N,00428.4116,W,2.27,62.36,020621,,,A*40
$GPGGA,090125.000,4825.0706,N,00428.4108,W,1,08,1.0,93.4,M,52.0,M,,0000*78
$GPGS.6,1.0,1.2*34
$GPRMC,090125.000,A,4825.0706,N,00428.4108,W,2.07,60.40,020621,,,A*4A
$GPGGA,090126.000,4825.0710,N,00428.4100,W,1,08,1.0,93.2,M,52.0,M,,0000*72
$GPGSA,A,3,29,31,25,26,02,18,12,32,,,,,1.6,1.0,1.2*34
$GPRMC,090126.000,A,4825.0710,N,00428.4100,W,2.08,57.61,020621,,,A*4E
$GPGGA,090127.000,4825.0713,N,00428.4093,W,1,08,1.0,93.1,M,52.0,M,,0000*78
$GPGSA,A,3,29,31,25,26,02,18,12,32,,,,,1.6,1.0,1.2*34
$GPGSV,3,1,12,29,81,110,41,31,62,284,33,25,50,086,46,26,27,283,25*76
$GPGSV,3,1,12,29,81,110,41,31,62,284,33,25,50,086,46,26,27,283,25*76
$GPGSV,3,2,12,02,16,038,40,18,15,164,20,12,14,090,43,32,10,214,20*70
$GPGSV,3,2,12,02,16,038,40,18,15,164,20,12,14,090,43,32,10,214,20*70
$GPGSV,3,3,12,57,68,131,,58,68,131,,59,68,131,,07,35,052,*72
$GPGSV,3,3,12,57,68,131,,58,68,131,,59,68,131,,07,35,052,*72
$GPRMC,090127.000,A,4825.0713,N,00428.4093,W,1.93,58.10,020621,,,A*4F
$GPGGA,090128.000,4825.0717,N,00428.4086,W,1,08,1.0,92.9,M,52.0,M,,0000*7E
$GPGSA,A,3,29,31,25,26,02,18,12,32,,,,,1.6,1.0,1.2*34
$GPRMC,090128.000,A,4825.0717,N,00428.4086,W,2.05,55.04,020621,,,A*44
$GPGGA,090129.000,4825.0721,N,00428.4079,W,1,08,1.0,92.8,M,52.0,M,,0000*7B
$GPGSA,A,3,29,31,25,26,02,18,12,32,,,,,1.6,1.0,1.2*34
$GPRMC,090129.000,A,4825.0721,N,00428.4079,W,2.17,53.09,020621,,,A*48
$GPGGA,090130.000,4825.0725,N,00428.4073,W,1,08,1.0,92.7,M,52.0,M,,0000*72
$GPGSA,A,3,29,31,25,26,02,18,12,32,,,,,1.6,1.0,1.2*34
$GPRMC,090130.000,A,4825.0725,N,00428.4073,W,2.12,51.12,020621,,,A*43
$GPGGA,090131.000,4825.0729,N,00428.4066,W,1,08,1.0,92.6,M,52.0,M,,0000*7A
$GPGSA,A,3,29,31,25,26,02,18,12,32,,,,,1.6,1.0,1.2*34
$GPRMC,090131.000,A,4825.0729,N,00428.4066,W,2.09,53.11,020621,,,A*41
$GPGGA,090132.000,4825.0733,N,00428.4058,W,1,08,1.0,92.6,M,52.0,M,,0000*7F
$GPGSA,A,3,29,31,25,26,02,18,12,32,,,,,1.6,1.0,1.2*34
$GPGSV,3,1,12,29,81,110,40,31,62,284,34,25,50,086,46,26,27,283,26*73
$GPGSV,3,1,12,29,81,110,40,31,62,284,34,25,50,086,46,26,27,283,26*73
$GPGSV,3,2,12,02,16,038,39,18,15,164,19,12,14,090,41,32,10,214,19*7C
$GPGSV,3,2,12,02,16,038,39,18,15,164,19,12,14,090,41,32,10,214,19*7C
$GPGSV,3,3,12,57,68,131,,58,68,131,,59,68,131,,07,35,052,*72
$GPGSV,3,3,12,57,68,131,,58,68,131,,59,68,131,,07,35,052,*72
$GPRMC,090132.000,A,4825.0733,N,00428.4058,W,2.29,50.22,020621,,,A*45
$GPGGA,090133.000,4825.0738,N,00428.4051,W,1,08,1.0,92.8,M,52.0,M,,0000*72
$GPGSA,A,3,29,31,25,26,02,18,12,32,,,,,1.6,1.0,1.2*34
$GPRMC,090133.000,A,4825.0738,N,00428.4051,W,2.14,48.75,020621,,,A*43
$GPGGA,090134.000,4825.0742,N,00428.4044,W,1,08,1.0,92.8,M,52.0,M,,0000*7C
$GPGSA,A,3,29,31,25,26,02,18,12,32,,,,,1.6,1.0,1.2*34
$GPRMC,090134.000,A,4825.0742,N,00428.4044,W,2.20,47.76,020621,,,A*46
$GPGGA,090135.000,4825.0747,N,00428.4037,W,1,08,1.0,92.8,M,52.0,M,,0000*7C
$GPGSA,A,3,29,31,25,26,02,18,12,32,,,,,1.6,1.0,1.2*34
$GPRMC,090135.000,A,4825.0747,N,00428.4037,W,2.31,47.23,020621,,,A*46
$GPGGA,090136.000,4825.0753,N,00428.4032,W,1,08,1.0,92.7,M,52.0,M,,0000*70
$GPGSA,A,3,29,31,25,26,02,18,12,32,,,,,1.6,1.0,1.2*34
$GPRMC,090136.000,A,4825.0753,N,00428.4032,W,2.15,45.24,020621,,,A*46
$GPGGA,090137.000,4825.0758,N,00428.4028,W,1,08,1.0,92.5,M,52.0,M,,0000*73
$GPGSA,A,3,29,31,25,26,02,18,12,32,,,,,1.6,1.0,1.2*34
$GPGSV,3,1,12,29,81,110,41,31,62,284,29,25,50,086,45,26,27,283,29*72
$GPGSV,3,1,12,29,81,110,41,31,62,284,29,25,50,086,45,26,27,283,29*72
$GPGSV,3,2,12,02,16,038,37,18,15,164,19,12,14,090,20,32,10,214,20*7F
$GPGSV,3,2,12,02,16,038,37,18,15,164,19,12,14,090,20,32,10,214,20*7F
$GPGSV,3,3,12,57,68,131,,58,68,131,,59,68,131,,07,35,052,*72
$GPGSV,3,3,12,57,68,131,,58,68,131,,59,68,131,,07,35,052,*72
$GPRMC,090137.000,A,4825.0758,N,00428.4028,W,2.14,40.57,020621,,,A*47
$GPGGA,090138.000,4825.0763,N,00428.4022,W,1,08,1.0,92.6,M,52.0,M,,0000*7D
$GPGSA,A,3,29,31,25,26,02,18,12,32,,,,,1.6,1.0,1.2*34
$GPGGA,090139.000,4825.0769,N,00428.4017,W,1,08,1.0,92.6,M,52.0,M,,0000*70
$GPGSA,A,3,29,31,25,26,02,18,12,32,,,,,1.6,1.0,1.2*34
$GPRMC,090139.000,A,4825.0769,N,00428.4017,W,2.08,37.62,020621,,,A*4C
$GPGGA,090140.000,4825.0774,N,00428.4011,W,1,08,1.0,92.6,M,52.0,M,,0000*74
$GPGSA,A,3,29,31,25,26,02,18,12,32,,,,,1.6,1.0,1.2*34
$GPRMC,090140.000,A,4825.0774,N,00428.4011,W,2.15,36.30,020621,,,A*42
$GPGGA,090141.000,4825.0780,N,00428.4006,W,1,08,1.0,92.6,M,52.0,M,,0000*78
$GPGSA,A,3,29,31,25,26,02,18,12,32,,,,,1.6,1.0,1.2*34
$GPRMC,090141.000,A,4825.0780,N,00428.4006,W,2.12,36.86,020621,,,A*44
$GPGGA,090142.000,4825.0785,N,00428.4001,W,1,08,1.0,92.6,M,52.0,M,,0000*79
$GPGSA,A,3,29,31,25,26,02,18,12,32,,,,,1.6,1.0,1.2*34
$GPGSV,3,1,12,29,81,110,39,31,62,284,31,25,50,086,44,26,27,283,28*74
$GPGSV,3,1,12,29,81,110,39,31,62,284,31,25,50,086,44,26,27,283,28*74
$GPGSV,3,2,12,02,16,038,37,18,15,164,25,12,14,090,21,32,10,214,20*71
$GPGSV,3,2,12,02,16,038,37,18,15,164,25,12,14,090,21,32,10,214,20*71
$GPGSV,3,3,12,57,68,131,,58,68,131,,59,68,131,,07,35,052,*72
$GPGSV,3,3,12,57,68,131,,58,68,131,,59,68,131,,07,35,052,*72
